{"118873009RR0001": {"name": "CONGREGATION DES TEMOINS DE JEHOVAH DE LOUISEVILLE", "designationCode": "C", "categoryCode": "61", "address": "57C. BOUL. EST", "city": "MASKINONGE", "province": "QC", "country": "CA", "postalCode": "J0K1N0", "twitter": "None", "instagram": "None", "facebook": "None", "youtube": "None", "website": "None", "summary": "None", "logo": "None", "latitude": 46.23662448277976, "longitude": -72.99025964145113}, "119027993RR0001": {"name": "CONGREGATION DES TEMOINS DE JEHOVAH DE MAGOG", "designationCode": "C", "categoryCode": "61", "address": "101 RUE OVILA-BERGERON", "city": "MAGOG", "province": "QC", "country": "CA", "postalCode": "J1X7S6", "twitter": "None", "instagram": "None", "facebook": "None", "youtube": "None", "website": "None", "summary": "None", "logo": "None", "latitude": 45.26087301471519, "longitude": -72.14927623982899}, "118989144RR0001": {"name": "CONGREGATION DES TEMOINS DE JEHOVAH DE MALARTIC", "designationCode": "C", "categoryCode": "61", "address": "1361 BOUL SAINT-PAUL SUD", "city": "RIVI\u00c8RE-H\u00c9VA", "province": "QC", "country": "CA", "postalCode": "J0Y2H0", "twitter": "None", "instagram": "None", "facebook": "None", "youtube": "None", "website": "None", "summary": "None", "logo": "None"}, "118989250RR0001": {"name": "CONGREGATION DES TEMOINS DE JEHOVAH DE MANIWAKI", "designationCode": "C", "categoryCode": "61", "address": "120 RUE GAREAU", "city": "MANIWAKI", "province": "QC", "country": "CA", "postalCode": "J9E1A7", "twitter": "None", "instagram": "None", "facebook": "None", "youtube": "None", "website": "None", "summary": "None", "logo": "None", "latitude": 46.389446024438705, "longitude": -75.98341639038594}, "119288918RR0564": {"name": "CONGREGATION DES TEMOINS DE JEHOVAH DE MASCOUCHE QUEBEC", "designationCode": "C", "categoryCode": "61", "address": "449 MONTEE MASSON #5", "city": "MASCOUCHE", "province": "QC", "country": "CA", "postalCode": "J7K2L6", "twitter": "None", "instagram": "None", "facebook": "None", "youtube": "None", "website": "None", "summary": "None", "logo": "None", "latitude": 45.73234646792583, "longitude": -73.61463674704935}, "119288918RR0116": {"name": "CONGREGATION DES TEMOINS DE JEHOVAH DE MILANO, MONTREAL, QUEBEC", "designationCode": "C", "categoryCode": "61", "address": "7170 ST-MICHEL                UNIT KINGDOM HALL", "city": "MONTREAL", "province": "QC", "country": "CA", "postalCode": "H2A2Z4", "twitter": "None", "instagram": "None", "facebook": "None", "youtube": "None", "website": "None", "summary": "None", "logo": "None", "latitude": 45.558487698568975, "longitude": -73.59778338885674}, "119288918RR0801": {"name": "CONGREGATION DES TEMOINS DE JEHOVAH DE MIRABEL", "designationCode": "C", "categoryCode": "61", "address": "417 ROCHELEAU", "city": "ST-EUSTACHE", "province": "QC", "country": "CA", "postalCode": "J7R2W9", "twitter": "None", "instagram": "None", "facebook": "None", "youtube": "None", "website": "None", "summary": "None", "logo": "None", "latitude": 45.56636421593854, "longitude": -73.91027033262174}, "119288918RR0494": {"name": "CONGREGATION DES TEMOINS DE JEHOVAH DE MONCTON-DIEPPE", "designationCode": "C", "categoryCode": "61", "address": "66 DUTCHILL DR", "city": "MONCTON", "province": "NB", "country": "CA", "postalCode": "E1E4B1", "twitter": "None", "instagram": "None", "facebook": "None", "youtube": "None", "website": "None", "summary": "None", "logo": "None", "latitude": 46.0580690641122, "longitude": -64.84968951154119}, "118873371RR0001": {"name": "CONGREGATION DES TEMOINS DE JEHOVAH DE MONT-LAURIER-BRUNET", "designationCode": "C", "categoryCode": "61", "address": "1570 BOUL DES RUISSEAUX", "city": "MONT-LAURIER", "province": "QC", "country": "CA", "postalCode": "J9L0H6", "twitter": "None", "instagram": "None", "facebook": "None", "youtube": "None", "website": "None", "summary": "None", "logo": "None", "latitude": 46.556969505481675, "longitude": -75.59151130252755}, "133220657RR0001": {"name": "CONGREGATION DES TEMOINS DE JEHOVAH DE MONT-TREMBLANT", "designationCode": "C", "categoryCode": "61", "address": "1414 ROUTE 117", "city": "MONT-TREMBLANT", "province": "QC", "country": "CA", "postalCode": "J8E2X8", "twitter": "None", "instagram": "None", "facebook": "None", "youtube": "None", "website": "None", "summary": "None", "logo": "None", "latitude": 46.1229778880782, "longitude": -74.60750024196743}, "118988922RR0001": {"name": "CONGREGATION DES TEMOINS DE JEHOVAH DE MONTMAGNY", "designationCode": "C", "categoryCode": "61", "address": "237 RUE LANGLOIS", "city": "MONTMAGNY", "province": "QC", "country": "CA", "postalCode": "G5V4R1", "twitter": "None", "instagram": "None", "facebook": "None", "youtube": "None", "website": "None", "summary": "None", "logo": "None", "latitude": 46.98094532445608, "longitude": -70.54620965251885}, "119288918RR1309": {"name": "CONGREGATION DES TEMOINS DE JEHOVAH DE MONTREAL - FIDELIDAD", "designationCode": "C", "categoryCode": "61", "address": "9062 RUE PERINAULT", "city": "SAINT-LEONARD", "province": "QC", "country": "CA", "postalCode": "H1P2L7", "twitter": "None", "instagram": "None", "facebook": "None", "youtube": "None", "website": "None", "summary": "None", "logo": "None", "latitude": 45.597846731317574, "longitude": -73.60418404928143}, "119288918RR0698": {"name": "CONGREGATION DES TEMOINS DE JEHOVAH DE MONTREAL VILLE EMARD (QUEBEC)", "designationCode": "C", "categoryCode": "61", "address": "2525A RUE CENTRE", "city": "POINTE ST-CHARLES", "province": "QC", "country": "CA", "postalCode": "H3K1J9", "twitter": "None", "instagram": "None", "facebook": "None", "youtube": "None", "website": "None", "summary": "None", "logo": "None", "latitude": 45.47902663531545, "longitude": -73.56856754008554}, "119288918RR1129": {"name": "CONGREGATION DES TEMOINS DE JEHOVAH DE MONTREAL--ITALNORD (QUEBEC)", "designationCode": "C", "categoryCode": "61", "address": "4680 RUE D'AMIENS", "city": "MONTREAL-NORD", "province": "QC", "country": "CA", "postalCode": "H1H2H7", "twitter": "None", "instagram": "None", "facebook": "None", "youtube": "None", "website": "None", "summary": "None", "logo": "None", "latitude": 45.59256614262245, "longitude": -73.6290665550525}, "119288918RR0469": {"name": "CONGREGATION DES TEMOINS DE JEHOVAH DE MONTREAL-ANJOU", "designationCode": "C", "categoryCode": "61", "address": "12700 METROPOLITAIN EST", "city": "MONTREAL", "province": "QC", "country": "CA", "postalCode": "H1A4A7", "twitter": "None", "instagram": "None", "facebook": "None", "youtube": "None", "website": "None", "summary": "None", "logo": "None", "latitude": 45.65575326121796, "longitude": -73.52099767361118}, "119288918RR0976": {"name": "CONGREGATION DES TEMOINS DE JEHOVAH DE MONTREAL-ARABE (QUEBEC)", "designationCode": "C", "categoryCode": "61", "address": "2400 RUE WARD", "city": "SAINT-LAURENT", "province": "QC", "country": "CA", "postalCode": "H4M1S4", "twitter": "None", "instagram": "None", "facebook": "None", "youtube": "None", "website": "None", "summary": "None", "logo": "None", "latitude": 45.49627816928284, "longitude": -73.68206098012027}, "119288918RR1121": {"name": "CONGREGATION DES TEMOINS DE JEHOVAH DE MONTREAL-BELANGER (QUEBEC)", "designationCode": "C", "categoryCode": "61", "address": "5342 RUE PAISLEY", "city": "MONTREAL", "province": "QC", "country": "CA", "postalCode": "H1S1V2", "twitter": "None", "instagram": "None", "facebook": "None", "youtube": "None", "website": "None", "summary": "None", "logo": "None", "latitude": 45.57754565361536, "longitude": -73.57733748707382}, "119288918RR1026": {"name": "CONGREGATION DES TEMOINS DE JEHOVAH DE MONTREAL-BOIS-FRANC", "designationCode": "C", "categoryCode": "61", "address": "2400 RUE WARD", "city": "SAINT-LAURENT", "province": "QC", "country": "CA", "postalCode": "H4M2Y3", "twitter": "None", "instagram": "None", "facebook": "None", "youtube": "None", "website": "None", "summary": "None", "logo": "None", "latitude": 45.49627816928284, "longitude": -73.68206098012027}, "119288918RR0668": {"name": "CONGREGATION DES TEMOINS DE JEHOVAH DE MONTREAL-CHAMPLAIN (QUEBEC)", "designationCode": "C", "categoryCode": "61", "address": "1292 RUE LLOYD GEORGE", "city": "VERDUN", "province": "QC", "country": "CA", "postalCode": "H4H2P3", "twitter": "None", "instagram": "None", "facebook": "None", "youtube": "None", "website": "None", "summary": "None", "logo": "None", "latitude": 45.437872674418735, "longitude": -73.58612506287145}, "119288918RR1248": {"name": "CONGREGATION DES TEMOINS DE JEHOVAH DE MONTREAL-DECARIE", "designationCode": "C", "categoryCode": "61", "address": "6262 BIERMANS", "city": "MONTR\u00c9AL", "province": "QC", "country": "CA", "postalCode": "H3X1Z1", "twitter": "None", "instagram": "None", "facebook": "None", "youtube": "None", "website": "None", "summary": "None", "logo": "None", "latitude": 45.471641606151614, "longitude": -73.63686603246012}, "119288918RR1153": {"name": "CONGREGATION DES TEMOINS DE JEHOVAH DE MONTREAL-DOLLARD-DES-ORMEAUX (QUEBEC)", "designationCode": "C", "categoryCode": "61", "address": "5035 ROMEO", "city": "PIERREFONDS", "province": "QC", "country": "CA", "postalCode": "H8Z2W3", "twitter": "None", "instagram": "None", "facebook": "None", "youtube": "None", "website": "None", "summary": "None", "logo": "None", "latitude": 45.49952095420967, "longitude": -73.84986410309318}, "119288918RR1087": {"name": "CONGREGATION DES TEMOINS DE JEHOVAH DE MONTREAL-FLEURY (QUEBEC)", "designationCode": "C", "categoryCode": "61", "address": "8127 ALVERNE", "city": "MONTREAL", "province": "QC", "country": "CA", "postalCode": "H1R2R6", "twitter": "None", "instagram": "None", "facebook": "None", "youtube": "None", "website": "None", "summary": "None", "logo": "None", "latitude": 45.580638603670096, "longitude": -73.59651686637993}, "119288918RR0666": {"name": "CONGREGATION DES TEMOINS DE JEHOVAH DE MONTREAL-LACHINE (QUEBEC)", "designationCode": "C", "categoryCode": "61", "address": "20 JOHN FISHER", "city": "POINTE-CLAIRE", "province": "QC", "country": "CA", "postalCode": "H9R5W4", "twitter": "None", "instagram": "None", "facebook": "None", "youtube": "None", "website": "None", "summary": "None", "logo": "None", "latitude": 45.45791276184445, "longitude": -73.79627948857437}, "119095297RR0001": {"name": "CONGREGATION DES TEMOINS DE JEHOVAH DE MONTREAL-POINTE-AUX-TREMLES (QUEBEC)", "designationCode": "C", "categoryCode": "61", "address": "12700 METROPOLITAIN EST", "city": "MONTREAL", "province": "QC", "country": "CA", "postalCode": "H1A4A7", "twitter": "None", "instagram": "None", "facebook": "None", "youtube": "None", "website": "None", "summary": "None", "logo": "None", "latitude": 45.65575326121796, "longitude": -73.52099767361118}, "119288918RR0659": {"name": "CONGREGATION DES TEMOINS DE JEHOVAH DE MONTREAL-VIAU (QUEBEC)", "designationCode": "C", "categoryCode": "61", "address": "2567 RUE ONTARIO EST", "city": "MONTREAL", "province": "QC", "country": "CA", "postalCode": "H2K1W6", "twitter": "None", "instagram": "None", "facebook": "None", "youtube": "None", "website": "None", "summary": "None", "logo": "None", "latitude": 45.53326957092151, "longitude": -73.55244527534754}, "119288918RR0642": {"name": "CONGREGATION DES TEMOINS DE JEHOVAH DE MONTREAL-VILLE-MONT-ROYAL (QUEBEC)", "designationCode": "C", "categoryCode": "61", "address": "6940 RUE STUART", "city": "MONTREAL", "province": "QC", "country": "CA", "postalCode": "H3N2R1", "twitter": "None", "instagram": "None", "facebook": "None", "youtube": "None", "website": "None", "summary": "None", "logo": "None", "latitude": 45.524582079087175, "longitude": -73.62316074369546}, "118873033RR0001": {"name": "CONGREGATION DES TEMOINS DE JEHOVAH DE MORIN HEIGHTS MORIN HEIGHTS CONGREGATION OF JEHOVAH'S WITNESSES", "designationCode": "C", "categoryCode": "61", "address": "700, RUE BELISLE", "city": "MORIN-HEIGHTS", "province": "QC", "country": "CA", "postalCode": "J0R1H0", "twitter": "None", "instagram": "None", "facebook": "None", "youtube": "None", "website": "None", "summary": "None", "logo": "None", "latitude": 45.915733079375634, "longitude": -74.25509859813017}, "129719464RR0001": {"name": "CONGREGATION DES TEMOINS DE JEHOVAH DE NICOLET", "designationCode": "C", "categoryCode": "61", "address": "817 ST-JEAN-BAPTISTE", "city": "NICOLET", "province": "QC", "country": "CA", "postalCode": "J3T1H2", "twitter": "None", "instagram": "None", "facebook": "None", "youtube": "None", "website": "None", "summary": "None", "logo": "None", "latitude": 46.231691656413986, "longitude": -72.62903658254963}, "132846692RR0001": {"name": "CONGREGATION DES TEMOINS DE JEHOVAH DE PIERREVILLE", "designationCode": "C", "categoryCode": "61", "address": "2, RUE HOAK", "city": "ODANAK", "province": "QC", "country": "CA", "postalCode": "J0G1H0", "twitter": "None", "instagram": "None", "facebook": "None", "youtube": "None", "website": "None", "summary": "None", "logo": "None", "latitude": 46.07507400000006, "longitude": -72.81805849999994}, "118988955RR0001": {"name": "CONGREGATION DES TEMOINS DE JEHOVAH DE PLESSISVILLE", "designationCode": "C", "categoryCode": "61", "address": "1873 ST-LAURENT", "city": "PLESSISVILLE", "province": "QC", "country": "CA", "postalCode": "G6L2R1", "twitter": "None", "instagram": "None", "facebook": "None", "youtube": "None", "website": "None", "summary": "None", "logo": "None", "latitude": 46.223354651941925, "longitude": -71.77494909397525}, "119288918RR0585": {"name": "CONGREGATION DES TEMOINS DE JEHOVAH DE POINTE-AU-PERE", "designationCode": "C", "categoryCode": "61", "address": "1483 BOUL SAINTE-ANNE", "city": "RIMOUSKI", "province": "QC", "country": "CA", "postalCode": "G5M1W6", "twitter": "None", "instagram": "None", "facebook": "None", "youtube": "None", "website": "None", "summary": "None", "logo": "None", "latitude": 48.52510311457707, "longitude": -68.44654351869723}, "119288918RR0693": {"name": "CONGREGATION DES TEMOINS DE JEHOVAH DE QUEBEC - BEAUPORT (QUEBEC)", "designationCode": "C", "categoryCode": "61", "address": "1000 DES QUATRE TEMPS", "city": "BEAUPORT", "province": "QC", "country": "CA", "postalCode": "G1C5Y7", "twitter": "None", "instagram": "None", "facebook": "None", "youtube": "None", "website": "None", "summary": "None", "logo": "None", "latitude": 46.89051052063047, "longitude": -71.17325767470719}, "119288918RR0617": {"name": "CONGREGATION DES TEMOINS DE JEHOVAH DE QUEBEC--STE FOY (QUEBEC)", "designationCode": "C", "categoryCode": "61", "address": "182 RUE BECHARD", "city": "ST-AUGUSTIN", "province": "QC", "country": "CA", "postalCode": "G3A1N1", "twitter": "None", "instagram": "None", "facebook": "None", "youtube": "None", "website": "None", "summary": "None", "logo": "None", "latitude": 46.73916223284679, "longitude": -71.45721051154119}, "891654444RR0001": {"name": "CONGREGATION DES TEMOINS DE JEHOVAH DE QUEBEC-CHARLESBOURG", "designationCode": "C", "categoryCode": "61", "address": "7070 BOUL. HENRI-BOURASSA", "city": "QU\u00c9BEC", "province": "QC", "country": "CA", "postalCode": "G1H3E1", "twitter": "None", "instagram": "None", "facebook": "None", "youtube": "None", "website": "None", "summary": "None", "logo": "None", "latitude": 46.85760957536493, "longitude": -71.26197125226516}, "118872688RR0001": {"name": "CONGREGATION DES TEMOINS DE JEHOVAH DE QUEBEC-LAURIER", "designationCode": "C", "categoryCode": "61", "address": "1300 PERE LELIEVRE", "city": "QUEBEC", "province": "QC", "country": "CA", "postalCode": "G1M3P1", "twitter": "None", "instagram": "None", "facebook": "None", "youtube": "None", "website": "None", "summary": "None", "logo": "None", "latitude": 46.813118958133465, "longitude": -71.2751313906744}, "119288918RR0104": {"name": "CONGREGATION DES TEMOINS DE JEHOVAH DE QUEBEC-LIMOILOU (QUEBEC)", "designationCode": "C", "categoryCode": "61", "address": "1300 BOUL P\u00c8RE-LELI\u00c8VRE", "city": "QU\u00c9BEC", "province": "QC", "country": "CA", "postalCode": "G1M3P1", "twitter": "None", "instagram": "None", "facebook": "None", "youtube": "None", "website": "None", "summary": "None", "logo": "None", "latitude": 46.813118958133465, "longitude": -71.2751313906744}, "119288918RR0713": {"name": "CONGREGATION DES TEMOINS DE JEHOVAH DE QUEBEC-MONT-CHATEL", "designationCode": "C", "categoryCode": "61", "address": "8230 BOUL. DE L'ORMI\u00c8RE", "city": "QU\u00c9BEC", "province": "QC", "country": "CA", "postalCode": "G2C1C3", "twitter": "None", "instagram": "None", "facebook": "None", "youtube": "None", "website": "None", "summary": "None", "logo": "None", "latitude": 46.82939796811681, "longitude": -71.34614308904183}, "139551246RR0001": {"name": "CONGREGATION DES TEMOINS DE JEHOVAH DE RAWDON (QUEBEC)", "designationCode": "C", "categoryCode": "61", "address": "2860 ROUTE 348", "city": "RAWDON", "province": "QC", "country": "CA", "postalCode": "J0K1S0", "twitter": "None", "instagram": "None", "facebook": "None", "youtube": "None", "website": "None", "summary": "None", "logo": "None", "latitude": 46.039558599850096, "longitude": -73.72103291892071}, "119288918RR0645": {"name": "CONGREGATION DES TEMOINS DE JEHOVAH DE RICHIBUCTO", "designationCode": "C", "categoryCode": "61", "address": "9336 RUE MAIN, APP. 2", "city": "RICHIBUCTO", "province": "NB", "country": "CA", "postalCode": "E4W5M9", "twitter": "None", "instagram": "None", "facebook": "None", "youtube": "None", "website": "None", "summary": "None", "logo": "None", "latitude": 46.67808371524607, "longitude": -64.8634014935651}, "140826827RR0001": {"name": "CONGREGATION DES TEMOINS DE JEHOVAH DE RICHMOND-ASBESTOS", "designationCode": "C", "categoryCode": "61", "address": "766 MONT\u00c9E DU PARC", "city": "RICHMOND", "province": "QC", "country": "CA", "postalCode": "J0B2H0", "twitter": "None", "instagram": "None", "facebook": "None", "youtube": "None", "website": "None", "summary": "None", "logo": "None", "latitude": 45.66728433668978, "longitude": -72.14478846987716}, "118872738RR0001": {"name": "CONGREGATION DES TEMOINS DE JEHOVAH DE RIMOUSKI", "designationCode": "C", "categoryCode": "61", "address": "1483 BOUL STE ANNE ROUTE 132", "city": "RIMOUSKI", "province": "QC", "country": "CA", "postalCode": "G5M1W6", "twitter": "None", "instagram": "None", "facebook": "None", "youtube": "None", "website": "None", "summary": "None", "logo": "None", "latitude": 48.52510311457707, "longitude": -68.44654351869723}, "118872589RR0001": {"name": "CONGREGATION DES TEMOINS DE JEHOVAH DE RIVIERE-DU-LOUP", "designationCode": "C", "categoryCode": "61", "address": "17 BOUL.CARTIER", "city": "RIVIERE-DU-LOUP", "province": "QC", "country": "CA", "postalCode": "G5R5Z3", "twitter": "None", "instagram": "None", "facebook": "None", "youtube": "None", "website": "None", "summary": "None", "logo": "None", "latitude": 47.85890072203367, "longitude": -69.54925881156946}, "858582885RR0001": {"name": "CONGREGATION DES TEMOINS DE JEHOVAH DE ROCKBURN / ROCKBURN CONGREGATION OF JEHOVAH'S WITNESSES", "designationCode": "C", "categoryCode": "61", "address": "3400, ROUTE 201", "city": "ST-ANTOINE ABBE", "province": "QC", "country": "CA", "postalCode": "J0S1N0", "twitter": "None", "instagram": "None", "facebook": "None", "youtube": "None", "website": "None", "summary": "None", "logo": "None", "latitude": 45.05554609245837, "longitude": -73.89034959490711}, "119288918RR0652": {"name": "CONGREGATION DES TEMOINS DE JEHOVAH DE ROCKLAND-EST", "designationCode": "C", "categoryCode": "61", "address": "1250 A CARON", "city": "ROCKLAND", "province": "ON", "country": "CA", "postalCode": "K4K1H2", "twitter": "None", "instagram": "None", "facebook": "None", "youtube": "None", "website": "None", "summary": "None", "logo": "None", "latitude": 45.5468961484795, "longitude": -75.27246348476521}, "119288918RR0800": {"name": "CONGREGATION DES TEMOINS DE JEHOVAH DE SAINT-BRUNO (QUEBEC)", "designationCode": "C", "categoryCode": "61", "address": "525 RUE DE L'ANSE", "city": "ST-MARC-SUR-RICHELIEU", "province": "QC", "country": "CA", "postalCode": "J0L2E0", "twitter": "None", "instagram": "None", "facebook": "None", "youtube": "None", "website": "None", "summary": "None", "logo": "None", "latitude": 45.633997824023396, "longitude": -73.19103672234385}, "130024300RR0001": {"name": "CONGREGATION DES TEMOINS DE JEHOVAH DE SAINT-DAMIEN", "designationCode": "C", "categoryCode": "61", "address": "214 BOUL. METIVIER", "city": "ST-DAMIEN", "province": "QC", "country": "CA", "postalCode": "G0R2Y0", "twitter": "None", "instagram": "None", "facebook": "None", "youtube": "None", "website": "None", "summary": "None", "logo": "None", "latitude": 46.625656695510564, "longitude": -70.65165195594136}, "118873298RR0001": {"name": "CONGREGATION DES TEMOINS DE JEHOVAH DE SAINT-EUSTACHE", "designationCode": "C", "categoryCode": "61", "address": "417 ROCHELEAU", "city": "ST-EUSTACHE", "province": "QC", "country": "CA", "postalCode": "J7R2W9", "twitter": "None", "instagram": "None", "facebook": "None", "youtube": "None", "website": "None", "summary": "None", "logo": "None", "latitude": 45.56636421593854, "longitude": -73.91027033262174}, "101094282RR0001": {"name": "CONGREGATION DES TEMOINS DE JEHOVAH DE SAINT-FELIX-DE-VALOIS", "designationCode": "C", "categoryCode": "61", "address": "5730 CHEMIN ST-JEAN", "city": "ST-FELIX-DE-VALOIS", "province": "QC", "country": "CA", "postalCode": "J0K2M0", "twitter": "None", "instagram": "None", "facebook": "None", "youtube": "None", "website": "None", "summary": "None", "logo": "None", "latitude": 46.168023822667074, "longitude": -73.45384479335227}, "120785993RR0001": {"name": "CONGREGATION DES TEMOINS DE JEHOVAH DE SAINT-GEORGES-DE-BEAUCE", "designationCode": "C", "categoryCode": "61", "address": "18555 BOUL. LACROIX", "city": "SAINT-GEORGES", "province": "QC", "country": "CA", "postalCode": "G5Y5B8", "twitter": "None", "instagram": "None", "facebook": "None", "youtube": "None", "website": "None", "summary": "None", "logo": "None", "latitude": 46.094504340584905, "longitude": -70.62996627145239}, "890431398RR0001": {"name": "CONGREGATION DES TEMOINS DE JEHOVAH DE SAINT-HUBERT-CENTRE/SAINT-HUBERT CENTRE CONGREGATION OF JEHOVAH'S WITNESSES", "designationCode": "C", "categoryCode": "61", "address": "5250 BOUL GRANDE ALLEE", "city": "SAINT-HUBERT", "province": "QC", "country": "CA", "postalCode": "J3Y1A2", "twitter": "None", "instagram": "None", "facebook": "None", "youtube": "None", "website": "None", "summary": "None", "logo": "None", "latitude": 45.479843924259725, "longitude": -73.45062601203213}, "119288918RR1328": {"name": "CONGREGATION DES TEMOINS DE JEHOVAH DE SAINT-HUBERT-EST", "designationCode": "C", "categoryCode": "61", "address": "5250 GRANDE-ALL\u00c9E", "city": "SAINT-HUBERT", "province": "QC", "country": "CA", "postalCode": "J3Y1A2", "twitter": "None", "instagram": "None", "facebook": "None", "youtube": "None", "website": "None", "summary": "None", "logo": "None", "latitude": 45.479843924259725, "longitude": -73.45062601203213}, "119288918RR0770": {"name": "CONGREGATION DES TEMOINS DE JEHOVAH DE SAINT-HUBERT-OUEST (QUEBEC)", "designationCode": "C", "categoryCode": "61", "address": "5250 GRANDE ALLEE", "city": "SAINT-HUBERT", "province": "QC", "country": "CA", "postalCode": "J3Y1A2", "twitter": "None", "instagram": "None", "facebook": "None", "youtube": "None", "website": "None", "summary": "None", "logo": "None", "latitude": 45.479843924259725, "longitude": -73.45062601203213}, "119288918RR1434": {"name": "CONGREGATION DES TEMOINS DE JEHOVAH DE SAINT-HUBERT-RIBERA SUR (QUEBEC)", "designationCode": "C", "categoryCode": "61", "address": "5250 BOUL GRAND-ALLEE", "city": "SAINT-HUBERT", "province": "QC", "country": "CA", "postalCode": "J3Y1A2", "twitter": "None", "instagram": "None", "facebook": "None", "youtube": "None", "website": "None", "summary": "None", "logo": "None", "latitude": 45.479843924259725, "longitude": -73.45062601203213}, "134660034RR0001": {"name": "CONGREGATION DES TEMOINS DE JEHOVAH DE SAINT-HYACINTHE-NORD", "designationCode": "C", "categoryCode": "61", "address": "5725 J-A BERTHIAUME", "city": "ST-HYACINTHE", "province": "QC", "country": "CA", "postalCode": "J2S0B5", "twitter": "None", "instagram": "None", "facebook": "None", "youtube": "None", "website": "None", "summary": "None", "logo": "None", "latitude": 45.60855458338635, "longitude": -72.9870920044434}, "119288918RR1338": {"name": "CONGREGATION DES TEMOINS DE JEHOVAH DE SAINT-HYACINTHE-SUD (QUEBEC)", "designationCode": "C", "categoryCode": "61", "address": "12115 AVENUE PELLETIER", "city": "ST-HYACINTHE", "province": "QC", "country": "CA", "postalCode": "J2T1B3", "twitter": "None", "instagram": "None", "facebook": "None", "youtube": "None", "website": "None", "summary": "None", "logo": "None", "latitude": 45.63872916290621, "longitude": -72.93142045519063}, "119288918RR0609": {"name": "CONGREGATION DES TEMOINS DE JEHOVAH DE SAINT-LEONARD, MONTREAL (QUEBEC)", "designationCode": "C", "categoryCode": "61", "address": "5064 RUE DES GALETS", "city": "SAINT-LEONARD", "province": "QC", "country": "CA", "postalCode": "H1R1S9", "twitter": "None", "instagram": "None", "facebook": "None", "youtube": "None", "website": "None", "summary": "None", "logo": "None", "latitude": 45.58330428114726, "longitude": -73.59930138952056}, "141400028RR0001": {"name": "CONGREGATION DES TEMOINS DE JEHOVAH DE SAINT-LUC", "designationCode": "C", "categoryCode": "61", "address": "2 RUE NEVADA", "city": "ST-JEAN-SUR-RICHELIEU", "province": "QC", "country": "CA", "postalCode": "J2Y1A5", "twitter": "None", "instagram": "None", "facebook": "None", "youtube": "None", "website": "None", "summary": "None", "logo": "None", "latitude": 45.37855922482535, "longitude": -73.38047191075661}, "132241399RR0001": {"name": "CONGREGATION DES TEMOINS DE JEHOVAH DE SAINT-ROMUALD", "designationCode": "C", "categoryCode": "61", "address": "1162 BOUL. DE LA RIVE-SUD", "city": "ST-ROMUALD", "province": "QC", "country": "CA", "postalCode": "G6W2S5", "twitter": "None", "instagram": "None", "facebook": "None", "youtube": "None", "website": "None", "summary": "None", "logo": "None", "latitude": 46.73393962802284, "longitude": -71.26536200784854}, "890419591RR0001": {"name": "CONGREGATION DES TEMOINS DE JEHOVAH DE SAINT-TITE", "designationCode": "C", "categoryCode": "61", "address": "141 RTE 153", "city": "SAINT-TITE", "province": "QC", "country": "CA", "postalCode": "G0X3H0", "twitter": "None", "instagram": "None", "facebook": "None", "youtube": "None", "website": "None", "summary": "None", "logo": "None", "latitude": 46.71194033700967, "longitude": -72.58930848158519}, "133057562RR0001": {"name": "CONGREGATION DES TEMOINS DE JEHOVAH DE SAINTE-ANNE-DES-MONTS", "designationCode": "C", "categoryCode": "61", "address": "188, ROUTE DU PARC", "city": "SAINTE-ANNE-DES-MONTS", "province": "QC", "country": "CA", "postalCode": "G4V2C4", "twitter": "None", "instagram": "None", "facebook": "None", "youtube": "None", "website": "None", "summary": "None", "logo": "None", "latitude": 49.12196563310046, "longitude": -66.48156645276738}, "135898013RR0001": {"name": "CONGREGATION DES TEMOINS DE JEHOVAH DE SAINTE-CATHERINE", "designationCode": "C", "categoryCode": "61", "address": "5165 BOUL. ST-LAURENT", "city": "STE-CATHERINE", "province": "QC", "country": "CA", "postalCode": "J5C1A6", "twitter": "None", "instagram": "None", "facebook": "None", "youtube": "None", "website": "None", "summary": "None", "logo": "None", "latitude": 45.397264550609115, "longitude": -73.56917536655281}, "118872746RR0001": {"name": "CONGREGATION DES TEMOINS DE JEHOVAH DE SAINTE-MARIE-DE BEAUCE", "designationCode": "C", "categoryCode": "61", "address": "1545 KENNEDY NORD", "city": "STE-MARIE BCE", "province": "QC", "country": "CA", "postalCode": "G6E3N8", "twitter": "None", "instagram": "None", "facebook": "None", "youtube": "None", "website": "None", "summary": "None", "logo": "None", "latitude": 46.464963000000054, "longitude": -71.05126399999993}, "118873264RR0001": {"name": "CONGREGATION DES TEMOINS DE JEHOVAH DE SAINTE-THERESE-OUEST", "designationCode": "C", "categoryCode": "61", "address": "164, DE MANTHET", "city": "LAVAL", "province": "QC", "country": "CA", "postalCode": "H7L2P7", "twitter": "None", "instagram": "None", "facebook": "None", "youtube": "None", "website": "None", "summary": "None", "logo": "None", "latitude": 45.6083798834324, "longitude": -73.78150681943576}, "118989151RR0001": {"name": "CONGREGATION DES TEMOINS DE JEHOVAH DE SENNETERRE", "designationCode": "C", "categoryCode": "61", "address": "231 13E AVENUE", "city": "SENNETERRE", "province": "QC", "country": "CA", "postalCode": "J0Y2M0", "twitter": "None", "instagram": "None", "facebook": "None", "youtube": "None", "website": "None", "summary": "None", "logo": "None", "latitude": 48.393520522072784, "longitude": -77.22988166472388}, "119288918RR0723": {"name": "CONGREGATION DES TEMOINS DE JEHOVAH DE SHERBROOKE PARC-VICTORIA (QUEBEC)", "designationCode": "C", "categoryCode": "61", "address": "1600, RUE BRULOTTE            APP. 3", "city": "SHERBROOKE", "province": "QC", "country": "CA", "postalCode": "J1E3P3", "twitter": "None", "instagram": "None", "facebook": "None", "youtube": "None", "website": "None", "summary": "None", "logo": "None", "latitude": 45.428411557851135, "longitude": -71.87147130391251}, "119288918RR0768": {"name": "CONGREGATION DES TEMOINS DE JEHOVAH DE SHERBROOKE-BELLEVUE (QUEBEC)", "designationCode": "C", "categoryCode": "61", "address": "2775 PROSPECT #2", "city": "SHERBROOKE", "province": "QC", "country": "CA", "postalCode": "J1J2J4", "twitter": "None", "instagram": "None", "facebook": "None", "youtube": "None", "website": "None", "summary": "None", "logo": "None", "latitude": 45.40896810062763, "longitude": -71.92292627353625}, "119288918RR1389": {"name": "CONGREGATION DES TEMOINS DE JEHOVAH DE SHERBROOKE-HISPANA (QUEBEC)", "designationCode": "A", "categoryCode": "61", "address": "2775, RUE PROSPECT", "city": "SHERBROOKE", "province": "QC", "country": "CA", "postalCode": "J1L2K1", "twitter": "None", "instagram": "None", "facebook": "None", "youtube": "None", "website": "None", "summary": "None", "logo": "None", "latitude": 45.4107614643659, "longitude": -71.942391}, "118989185RR0001": {"name": "CONGREGATION DES TEMOINS DE JEHOVAH DE SOREL", "designationCode": "C", "categoryCode": "61", "address": "120 RUE PLANTE", "city": "SOREL-TRACY", "province": "QC", "country": "CA", "postalCode": "J3P7P5", "twitter": "None", "instagram": "None", "facebook": "None", "youtube": "None", "website": "None", "summary": "None", "logo": "None", "latitude": 46.03366931891616, "longitude": -73.09847025927604}, "119288918RR0523": {"name": "CONGREGATION DES TEMOINS DE JEHOVAH DE ST SAUVEUR", "designationCode": "C", "categoryCode": "61", "address": "169, CH DOMAINE ST-SAUVEUR", "city": "ST-SAUVEUR", "province": "QC", "country": "CA", "postalCode": "J0R1R2", "twitter": "None", "instagram": "None", "facebook": "None", "youtube": "None", "website": "None", "summary": "None", "logo": "None", "latitude": 45.881876376651725, "longitude": -74.20237714377627}, "119288918RR0727": {"name": "CONGREGATION DES TEMOINS DE JEHOVAH DE ST-JEROME CENTRE", "designationCode": "C", "categoryCode": "61", "address": "398 RUE DES NYMPHES", "city": "SAINT-COLOMBAN", "province": "QC", "country": "CA", "postalCode": "J5K1J2", "twitter": "None", "instagram": "None", "facebook": "None", "youtube": "None", "website": "None", "summary": "None", "logo": "None", "latitude": 45.76238215072985, "longitude": -74.0954668262451}, "134814359RR0001": {"name": "CONGREGATION DES TEMOINS DE JEHOVAH DE STANSTEAD-CENTRAL/STANSTEAD-CENTRAL CONGREGATION OFJEHOVAH'S WITNESSES", "designationCode": "C", "categoryCode": "61", "address": "9 ST JOSEPH", "city": "STANSTEAD", "province": "QC", "country": "CA", "postalCode": "J0B3E0", "twitter": "None", "instagram": "None", "facebook": "None", "youtube": "None", "website": "None", "summary": "None", "logo": "None", "latitude": 45.018454975287824, "longitude": -72.0870809469591}, "119288918RR1133": {"name": "CONGREGATION DES TEMOINS DE JEHOVAH DE STE-THERESE-EST (QUEBEC)", "designationCode": "C", "categoryCode": "61", "address": "28, 46E AVENUE SUD", "city": "BOIS-DES-FILION", "province": "QC", "country": "CA", "postalCode": "J6Z2M5", "twitter": "None", "instagram": "None", "facebook": "None", "youtube": "None", "website": "None", "summary": "None", "logo": "None", "latitude": 45.66208714902775, "longitude": -73.76182739927275}, "119288918RR0644": {"name": "CONGREGATION DES TEMOINS DE JEHOVAH DE TERREBONNE-NORD (QUEBEC)", "designationCode": "C", "categoryCode": "61", "address": "504 RUE POPULAIRE", "city": "TERREBONNE", "province": "QC", "country": "CA", "postalCode": "J6X4E6", "twitter": "None", "instagram": "None", "facebook": "None", "youtube": "None", "website": "None", "summary": "None", "logo": "None", "latitude": 45.72048995141107, "longitude": -73.65364609740904}, "139247043RR0001": {"name": "CONGREGATION DES TEMOINS DE JEHOVAH DE THETFORD MINES", "designationCode": "C", "categoryCode": "61", "address": "2383 BOUL. FRONTENAC EST", "city": "THETFORD-MINES", "province": "QC", "country": "CA", "postalCode": "G6G6P6", "twitter": "None", "instagram": "None", "facebook": "None", "youtube": "None", "website": "None", "summary": "None", "logo": "None", "latitude": 46.117253795101455, "longitude": -71.2706928869121}, "119288918RR0451": {"name": "CONGREGATION DES TEMOINS DE JEHOVAH DE TRACADIE NB", "designationCode": "C", "categoryCode": "61", "address": "11815 ROUTE 11", "city": "VILLAGE BLANCHARD", "province": "NB", "country": "CA", "postalCode": "E8P1P8", "twitter": "None", "instagram": "None", "facebook": "None", "youtube": "None", "website": "None", "summary": "None", "logo": "None", "latitude": 47.708652627872375, "longitude": -64.88774851847265}, "118873736RR0001": {"name": "CONGREGATION DES TEMOINS DE JEHOVAH DE VALLEYFIELD-BELLERIVE", "designationCode": "C", "categoryCode": "61", "address": "3435, BOUL. MGR-LANGLOIS      C.P. 265", "city": "SALABERRY-DE-VALLEYFIELD", "province": "QC", "country": "CA", "postalCode": "J6S4V6", "twitter": "None", "instagram": "None", "facebook": "None", "youtube": "None", "website": "None", "summary": "None", "logo": "None", "latitude": 45.272422483264684, "longitude": -74.095794}, "119288918RR1373": {"name": "CONGREGATION DES TEMOINS DE JEHOVAH DE VARENNES", "designationCode": "C", "categoryCode": "61", "address": "782 DES HIRONDELLES", "city": "CONTRECOEUR", "province": "QC", "country": "CA", "postalCode": "J0L1C0", "twitter": "None", "instagram": "None", "facebook": "None", "youtube": "None", "website": "None", "summary": "None", "logo": "None", "latitude": 45.86729511183575, "longitude": -73.22413954622301}, "119288918RR0743": {"name": "CONGREGATION DES TEMOINS DE JEHOVAH DE VAUCLUSE", "designationCode": "C", "categoryCode": "61", "address": "8 PLACE PRUD'HOMME", "city": "L'ASSOMPTION", "province": "QC", "country": "CA", "postalCode": "J5W3M4", "twitter": "None", "instagram": "None", "facebook": "None", "youtube": "None", "website": "None", "summary": "None", "logo": "None", "latitude": 45.81418144604404, "longitude": -73.4284810269202}, "895724102RR0001": {"name": "CONGREGATION DES TEMOINS DE JEHOVAH DE VILLE-MARIE", "designationCode": "C", "categoryCode": "61", "address": "300 ROUTE 101 SUD", "city": "DUHAMEL OUEST", "province": "QC", "country": "CA", "postalCode": "J9V2E5", "twitter": "None", "instagram": "None", "facebook": "None", "youtube": "None", "website": "None", "summary": "None", "logo": "None", "latitude": 47.30711412676167, "longitude": -79.43580861971499}, "118872522RR0001": {"name": "CONGREGATION DES TEMOINS DE JEHOVAH DES ILES-DE-LA-MADELEINE", "designationCode": "C", "categoryCode": "61", "address": "1-1315 CH DE LA VERNIERE", "city": "L'ETANG-DU-NORD", "province": "QC", "country": "CA", "postalCode": "G4T3G1", "twitter": "None", "instagram": "None", "facebook": "None", "youtube": "None", "website": "None", "summary": "None", "logo": "None", "latitude": 47.37070181204952, "longitude": -61.905920330861385}, "118989094RR0001": {"name": "CONGREGATION DES TEMOINS DE JEHOVAH DES LAURENTIDES", "designationCode": "C", "categoryCode": "61", "address": "5 - 449 MONTEE MASSON", "city": "MASCOUCHE", "province": "QC", "country": "CA", "postalCode": "J7K2L6", "twitter": "None", "instagram": "None", "facebook": "None", "youtube": "None", "website": "None", "summary": "None", "logo": "None", "latitude": 45.73234646792583, "longitude": -73.61463674704935}, "119288918RR0833": {"name": "CONGREGATION DES TEMOINS DE JEHOVAH LAVAL-SAINT-FRANCOIS (QUEBEC)", "designationCode": "C", "categoryCode": "61", "address": "1338 BOUL. DES SEIGNEURS      APP. 2", "city": "TERREBONNE", "province": "QC", "country": "CA", "postalCode": "J6X3C1", "twitter": "None", "instagram": "None", "facebook": "None", "youtube": "None", "website": "None", "summary": "None", "logo": "None", "latitude": 45.700676687460486, "longitude": -73.66507292550045}, "118872696RR0001": {"name": "CONGREGATION DES TEMOINS DE JEHOVAH QUEBEC-LAURENTIEN", "designationCode": "C", "categoryCode": "61", "address": "8230 BOUL DE L'ORMIERE", "city": "QUEBEC", "province": "QC", "country": "CA", "postalCode": "G2C1C3", "twitter": "None", "instagram": "None", "facebook": "None", "youtube": "None", "website": "None", "summary": "None", "logo": "None", "latitude": 46.82939796811681, "longitude": -71.34614308904183}, "866175938RR0001": {"name": "CONGREGATION DES TEMOINS DE JEHOVAH VICTORIAVILLE BOIS-FRANCS", "designationCode": "C", "categoryCode": "61", "address": "49 RANG ALLARD", "city": "VICTORIAVILLE", "province": "QC", "country": "CA", "postalCode": "G6T0S2", "twitter": "None", "instagram": "None", "facebook": "None", "youtube": "None", "website": "None", "summary": "None", "logo": "None", "latitude": 46.08435703288615, "longitude": -71.93637928169622}, "119288918RR0600": {"name": "CONGREGATION DES TEMOINS DE JEHOVAH VICTORIAVILLE,ARTHABASKA", "designationCode": "C", "categoryCode": "61", "address": "49 RANG ALLARD", "city": "VICTORIAVILLE", "province": "QC", "country": "CA", "postalCode": "G6T0S2", "twitter": "None", "instagram": "None", "facebook": "None", "youtube": "None", "website": "None", "summary": "None", "logo": "None", "latitude": 46.08435703288615, "longitude": -71.93637928169622}, "118873496RR0001": {"name": "CONGREGATION DES TEMOINS DE JENOVAH DE ST-JEROME-LAFONTAINE (QUEBEC)", "designationCode": "C", "categoryCode": "61", "address": "312 RUE DES CANARIES", "city": "PREVOST", "province": "QC", "country": "CA", "postalCode": "J0R1T0", "twitter": "None", "instagram": "None", "facebook": "None", "youtube": "None", "website": "None", "summary": "None", "logo": "None", "latitude": 45.82961076908647, "longitude": -74.05128769245214}, "141371344RR0001": {"name": "CONGREGATION DU TRES SAINT-SACREMENT", "designationCode": "C", "categoryCode": "46", "address": "12, BOULEVARD DES \u00c9TUDIANTS", "city": "QU\u00c9BEC", "province": "QC", "country": "CA", "postalCode": "G2A1N5", "twitter": "None", "instagram": "None", "facebook": "None", "youtube": "None", "website": "None", "summary": "None", "logo": "None", "latitude": 46.85535429421766, "longitude": -71.35689560035189}, "891437279RR0001": {"name": "CONGREGATION EITZ CHAIM", "designationCode": "C", "categoryCode": "39", "address": "865 DESLAURIERS", "city": "ST LAURENT", "province": "QC", "country": "CA", "postalCode": "H4N1X3", "twitter": "None", "instagram": "None", "facebook": "None", "youtube": "None", "website": "None", "summary": "None", "logo": "None", "latitude": 45.529729394973565, "longitude": -73.66339243972469}, "890020993RR0001": {"name": "CONGREGATION EMANU-EL", "designationCode": "C", "categoryCode": "42", "address": "1461 BLANSHARD STREET", "city": "VICTORIA", "province": "BC", "country": "CA", "postalCode": "V8W2J3", "twitter": "None", "instagram": "None", "facebook": "None", "youtube": "None", "website": "None", "summary": "None", "logo": "None", "latitude": 48.42740785928215, "longitude": -123.36167563486082}, "871376471RR0001": {"name": "CONGREGATION EMEK TEFILLAH HORNISTEIPEL", "designationCode": "C", "categoryCode": "39", "address": "92 CLANTON PARK ROAD", "city": "TORONTO", "province": "ON", "country": "CA", "postalCode": "M3H2E2", "twitter": "None", "instagram": "None", "facebook": "None", "youtube": "None", "website": "None", "summary": "None", "logo": "None", "latitude": 43.74516122012214, "longitude": -79.44243877728077}, "107915191RR0001": {"name": "CONGREGATION ETZ CHAYIM", "designationCode": "C", "categoryCode": "42", "address": "123 MATHESON AVENUE E", "city": "WINNIPEG", "province": "MB", "country": "CA", "postalCode": "R2W0C3", "twitter": "None", "instagram": "None", "facebook": "None", "youtube": "None", "website": "None", "summary": "None", "logo": "None", "latitude": 49.927580924807984, "longitude": -97.11776141713325}, "118873603RR0001": {"name": "CONGREGATION GATE DAVID OF BOBOV", "designationCode": "C", "categoryCode": "42", "address": "5257 DUROCHER", "city": "MONTR\u00c9AL", "province": "QC", "country": "CA", "postalCode": "H2V3X9", "twitter": "None", "instagram": "None", "facebook": "None", "youtube": "None", "website": "None", "summary": "None", "logo": "None", "latitude": 45.51924819929013, "longitude": -73.59971068483475}, "891513442RR0001": {"name": "CONGREGATION GER OF TORONTO", "designationCode": "C", "categoryCode": "42", "address": "122 BARSE STREET", "city": "TORONTO", "province": "ON", "country": "CA", "postalCode": "M5M4L4", "twitter": "None", "instagram": "None", "facebook": "None", "youtube": "None", "website": "None", "summary": "None", "logo": "None", "latitude": 43.729931022476805, "longitude": -79.4308555720467}, "878884667RR0001": {"name": "CONGREGATION GRUEN OHR SOMAYACH / GRUEN OHR SOMAYACH CONGREGATION", "designationCode": "C", "categoryCode": "49", "address": "6772 AVENUE DE VIMY", "city": "MONTREAL", "province": "QC", "country": "CA", "postalCode": "H3S2R9", "twitter": "None", "instagram": "None", "facebook": "None", "youtube": "None", "website": "None", "summary": "None", "logo": "None", "latitude": 45.51583265471191, "longitude": -73.6261415974377}, "106967706RR0001": {"name": "CONGREGATION HABONIM OF TORONTO, INCORPORATED", "designationCode": "C", "categoryCode": "42", "address": "5 GLEN PARK AVE", "city": "TORONTO", "province": "ON", "country": "CA", "postalCode": "M6B4J2", "twitter": "None", "instagram": "None", "facebook": "None", "youtube": "None", "website": "None", "summary": "None", "logo": "None", "latitude": 43.71295984205681, "longitude": -79.42947598666979}, "106967888RR0001": {"name": "CONGREGATION HOUSE OF JACOB - MIKVEH ISRAEL", "designationCode": "C", "categoryCode": "42", "address": "1613 - 92 AVENUE SW", "city": "CALGARY", "province": "AB", "country": "CA", "postalCode": "T2V5C9", "twitter": "None", "instagram": "None", "facebook": "None", "youtube": "None", "website": "None", "summary": "None", "logo": "None", "latitude": 50.970381517889166, "longitude": -114.09973144463038}, "118873637RR0001": {"name": "CONGREGATION IYR HA-MELECH", "designationCode": "C", "categoryCode": "42", "address": "442 BRIARWOOD DR", "city": "KINGSTON", "province": "ON", "country": "CA", "postalCode": "K7M7V4", "twitter": "None", "instagram": "None", "facebook": "None", "youtube": "None", "website": "None", "summary": "None", "logo": "None", "latitude": 44.23354897587841, "longitude": -76.58427449235394}, "118873645RR0001": {"name": "CONGREGATION JUIVE FRANCOPHONE DE MONTREAL", "designationCode": "C", "categoryCode": "42", "address": "5748, AV. PARKHAVEN", "city": "COTE-ST-LUC", "province": "QC", "country": "CA", "postalCode": "H4W1X5", "twitter": "None", "instagram": "None", "facebook": "None", "youtube": "None", "website": "None", "summary": "None", "logo": "None", "latitude": 45.4685605053957, "longitude": -73.6658314668474}, "873128847RR0001": {"name": "CONGREGATION KAHAL AVREICHIM", "designationCode": "C", "categoryCode": "42", "address": "201 BRIDGELAND AVE", "city": "NORTH YORK", "province": "ON", "country": "CA", "postalCode": "M6A1Y7", "twitter": "None", "instagram": "None", "facebook": "None", "youtube": "None", "website": "None", "summary": "None", "logo": "None", "latitude": 43.724679896445465, "longitude": -79.46720435899367}, "827276874RR0001": {"name": "CONGREGATION KAHAL YEREIM", "designationCode": "C", "categoryCode": "42", "address": "34 STORMONT AVE", "city": "TORONTO", "province": "ON", "country": "CA", "postalCode": "M5N2B9", "twitter": "None", "instagram": "None", "facebook": "None", "youtube": "None", "website": "None", "summary": "None", "logo": "None", "latitude": 43.719441190691796, "longitude": -79.42489687122735}}