{"118972827RR0001": {"name": "Jamia Islamia Ehl-e-Sunnat-Wal-Jama-At South Shore Montreal", "designationCode": "C", "categoryCode": "60", "address": "2144 ST-HELEN", "city": "LONGUEUIL", "province": "QC", "country": "CA", "postalCode": "J4K3T6", "twitter": "None", "instagram": "None", "facebook": "None", "youtube": "None", "website": "None", "summary": "None", "logo": "None", "latitude": 45.51350121397667, "longitude": -73.4854623887125}, "825848724RR0001": {"name": "Jammin' 4 Jay Charitable Society", "designationCode": "C", "categoryCode": "59", "address": "9978 ALLARD CR.", "city": "LANGLEY", "province": "BC", "country": "CA", "postalCode": "V1M3V7", "twitter": "None", "instagram": "None", "facebook": "None", "youtube": "None", "website": "None", "summary": "None", "logo": "None", "latitude": 49.18361496857909, "longitude": -122.59870200328956}, "854616596RR0001": {"name": "Jampa Ling Kadampa Buddhist Centre", "designationCode": "C", "categoryCode": "35", "address": "D - 94 DUNLOP ST W", "city": "BARRIE", "province": "ON", "country": "CA", "postalCode": "L4N1A7", "twitter": "None", "instagram": "None", "facebook": "None", "youtube": "None", "website": "None", "summary": "None", "logo": "None", "latitude": 44.3877812647873, "longitude": -79.69363446156727}, "794019497RR0001": {"name": "Jamyya Islamia Religious & Cultural Centre", "designationCode": "C", "categoryCode": "60", "address": "507 PITT STREET,", "city": "CORNWALL", "province": "ON", "country": "CA", "postalCode": "K6J3R4", "twitter": "None", "instagram": "None", "facebook": "None", "youtube": "None", "website": "None", "summary": "None", "logo": "None", "latitude": 45.023257194010014, "longitude": -74.7314806713603}, "775239296RR0001": {"name": "Jane Finch Mission Building Corporation", "designationCode": "C", "categoryCode": "59", "address": "1830 FINCH AVENUE WEST", "city": "TORONTO", "province": "ON", "country": "CA", "postalCode": "M3N1M8", "twitter": "None", "instagram": "None", "facebook": "None", "youtube": "None", "website": "None", "summary": "None", "logo": "None", "latitude": 43.75818017626506, "longitude": -79.51303905718729}, "810578252RR0001": {"name": "Jane Stock Horticulture Foundation", "designationCode": "C", "categoryCode": "21", "address": "102 - 19289 LANGLEY BYPASS", "city": "SURREY", "province": "BC", "country": "CA", "postalCode": "V3S6K1", "twitter": "None", "instagram": "None", "facebook": "None", "youtube": "None", "website": "None", "summary": "None", "logo": "None", "latitude": 49.10517266242351, "longitude": -122.6887644303089}, "868049149RR0001": {"name": "Jane-Alliance Neighbourhood Services", "designationCode": "C", "categoryCode": "09", "address": "205-909 JANE STREET", "city": "TORONTO", "province": "ON", "country": "CA", "postalCode": "M6N4C6", "twitter": "None", "instagram": "None", "facebook": "None", "youtube": "None", "website": "None", "summary": "None", "logo": "None", "latitude": 43.677763344162926, "longitude": -79.49630154313594}, "827183583RR0001": {"name": "Janet D. Cottrelle Foundation", "designationCode": "B", "categoryCode": "03", "address": "4000-199 BAY STREET           COMMERCE COURT WEST", "city": "TORONTO", "province": "ON", "country": "CA", "postalCode": "M5L1A9", "twitter": "None", "instagram": "None", "facebook": "None", "youtube": "None", "website": "None", "summary": "None", "logo": "None", "latitude": 43.64868300000006, "longitude": -79.38544399999994}, "822839858RR0001": {"name": "Janet Paterson Muir Fund", "designationCode": "B", "categoryCode": "25", "address": "63, SILVERLACE CIRCLE", "city": "WINONA", "province": "ON", "country": "CA", "postalCode": "L8E6A6", "twitter": "None", "instagram": "None", "facebook": "None", "youtube": "None", "website": "None", "summary": "None", "logo": "None", "latitude": 43.20853189563742, "longitude": -79.64816038715463}, "833951833RR0001": {"name": "JaneFinch ReachingUp", "designationCode": "C", "categoryCode": "09", "address": "1830 FINCH AVENUE WEST", "city": "TORONTO", "province": "ON", "country": "CA", "postalCode": "M3N1M8", "twitter": "None", "instagram": "None", "facebook": "None", "youtube": "None", "website": "None", "summary": "None", "logo": "None", "latitude": 43.75818017626506, "longitude": -79.51303905718729}, "776593121RR0001": {"name": "JaneFInch ReachingUp Foundation", "designationCode": "A", "categoryCode": "03", "address": "1830 FINCH AVENUE WEST", "city": "TORONTO", "province": "ON", "country": "CA", "postalCode": "M3N1M8", "twitter": "None", "instagram": "None", "facebook": "None", "youtube": "None", "website": "None", "summary": "None", "logo": "None", "latitude": 43.75818017626506, "longitude": -79.51303905718729}, "825019854RR0001": {"name": "Janis Foligno Foundation", "designationCode": "B", "categoryCode": "03", "address": "2226 SOUTH SHORE ROAD,", "city": "SUDBURY", "province": "ON", "country": "CA", "postalCode": "P3G1M3", "twitter": "None", "instagram": "None", "facebook": "None", "youtube": "None", "website": "None", "summary": "None", "logo": "None", "latitude": 46.381975522882435, "longitude": -81.06135824631608}, "821045598RR0001": {"name": "Janken Charitable Foundation", "designationCode": "B", "categoryCode": "03", "address": "375 PINE AVE", "city": "OAKVILLE", "province": "ON", "country": "CA", "postalCode": "L6J2K2", "twitter": "None", "instagram": "None", "facebook": "None", "youtube": "None", "website": "None", "summary": "None", "logo": "None", "latitude": 43.45798060949848, "longitude": -79.6761236147786}, "120646021RR0001": {"name": "Japanese Cultural Association of Manitoba Inc.", "designationCode": "C", "categoryCode": "22", "address": "180 MCPHILLIPS ST", "city": "WINNIPEG", "province": "MB", "country": "CA", "postalCode": "R3E2J9", "twitter": "None", "instagram": "None", "facebook": "None", "youtube": "None", "website": "None", "summary": "None", "logo": "None", "latitude": 49.90993368665243, "longitude": -97.17110304945432}, "702990128RR0001": {"name": "Japanese Medical Support Network in Canada", "designationCode": "C", "categoryCode": "19", "address": "11 RIVERLANDS AVE", "city": "MARKHAM", "province": "ON", "country": "CA", "postalCode": "L6B1B5", "twitter": "None", "instagram": "None", "facebook": "None", "youtube": "None", "website": "None", "summary": "None", "logo": "None", "latitude": 43.88556883957529, "longitude": -79.23576845992248}, "127281590RR0001": {"name": "Japanese United Church", "designationCode": "C", "categoryCode": "44", "address": "4010 VICTORIA DRIVE", "city": "VANCOUVER", "province": "BC", "country": "CA", "postalCode": "V5N4N2", "twitter": "None", "instagram": "None", "facebook": "None", "youtube": "None", "website": "None", "summary": "None", "logo": "None", "latitude": 49.24910557507647, "longitude": -123.06501045833596}, "810562918RR0001": {"name": "Jarden Consumer Solutions Community Fund Canada", "designationCode": "B", "categoryCode": "03", "address": "B-20 HEREFORD ST", "city": "BRAMPTON", "province": "ON", "country": "CA", "postalCode": "L6Y0M1", "twitter": "None", "instagram": "None", "facebook": "None", "youtube": "None", "website": "None", "summary": "None", "logo": "None", "latitude": 43.62026399999999, "longitude": -79.7783805}, "806728226RR0001": {"name": "Jardin collectif \"La Tomate Joyeuse\"", "designationCode": "C", "categoryCode": "09", "address": "190 76E RUE EST", "city": "QU\u00c9BEC", "province": "QC", "country": "CA", "postalCode": "G1H7K4", "twitter": "None", "instagram": "None", "facebook": "None", "youtube": "None", "website": "None", "summary": "None", "logo": "None", "latitude": 46.85968574127224, "longitude": -71.26564065093231}, "805796281RR0001": {"name": "Jardin d'enfants Cassiop\u00e9e inc.", "designationCode": "C", "categoryCode": "01", "address": "3189, RUE AGN\u00c8S", "city": "LAC-MEGANTIC", "province": "QC", "country": "CA", "postalCode": "G6B1K9", "twitter": "None", "instagram": "None", "facebook": "None", "youtube": "None", "website": "None", "summary": "None", "logo": "None", "latitude": 45.56820658837801, "longitude": -70.88491248150525}, "852278043RR0001": {"name": "Jardin de Fran\u00e7ois", "designationCode": "C", "categoryCode": "49", "address": "10 RUE AMBROISE-FAFARD", "city": "BAIE-SAINT-PAUL", "province": "QC", "country": "CA", "postalCode": "G3Z2J4", "twitter": "None", "instagram": "None", "facebook": "None", "youtube": "None", "website": "None", "summary": "None", "logo": "None", "latitude": 47.43896986678398, "longitude": -70.5066266285415}, "837287648RR0001": {"name": "Jardins du M\u00e9andre", "designationCode": "C", "categoryCode": "01", "address": "3021 BOUL DE L'ANGE-GARDIEN N", "city": "L'ASSOMPTION", "province": "QC", "country": "CA", "postalCode": "J5W4S1", "twitter": "None", "instagram": "None", "facebook": "None", "youtube": "None", "website": "None", "summary": "None", "logo": "None", "latitude": 45.91066264710081, "longitude": -73.42922969293785}, "836839795RR0001": {"name": "Jarislowsky Fraser Partners Foundation / Fondation des associ\u00e9s de Jarislowsky Fraser", "designationCode": "B", "categoryCode": "03", "address": "1010 SHERBROOKE STREET WEST   20TH FLOOR", "city": "MONTREAL", "province": "QC", "country": "CA", "postalCode": "H3A2R7", "twitter": "None", "instagram": "None", "facebook": "None", "youtube": "None", "website": "None", "summary": "None", "logo": "None", "latitude": 45.5023064815339, "longitude": -73.57605998485214}, "826940330RR0001": {"name": "Jasper Ministries", "designationCode": "C", "categoryCode": "39", "address": "9 - 2001 ALBION RD", "city": "ETOBICOKE", "province": "ON", "country": "CA", "postalCode": "M9W6V6", "twitter": "None", "instagram": "None", "facebook": "None", "youtube": "None", "website": "None", "summary": "None", "logo": "None", "latitude": 43.7479487754058, "longitude": -79.62793652971882}, "899835847RR0001": {"name": "Jasper Victims Services Society", "designationCode": "C", "categoryCode": "09", "address": "BOX 2781", "city": "JASPER", "province": "AB", "country": "CA", "postalCode": "T0E1E0", "twitter": "None", "instagram": "None", "facebook": "None", "youtube": "None", "website": "None", "summary": "None", "logo": "None", "latitude": 52.877214088900075, "longitude": -118.08111710055249}, "848099461RR0001": {"name": "Jawid Seniors Services Foundation", "designationCode": "C", "categoryCode": "01", "address": "706-2628 MCCOWAN ROAD", "city": "SCARBOROUGH", "province": "ON", "country": "CA", "postalCode": "M1S5J8", "twitter": "None", "instagram": "None", "facebook": "None", "youtube": "None", "website": "None", "summary": "None", "logo": "None", "latitude": 43.806993391886486, "longitude": -79.26609509524465}, "825467780RR0001": {"name": "Jayu Festival Inc.", "designationCode": "C", "categoryCode": "22", "address": "720 BATHURST STREET,", "city": "TORONTO", "province": "ON", "country": "CA", "postalCode": "M5S2R4", "twitter": "None", "instagram": "None", "facebook": "None", "youtube": "None", "website": "None", "summary": "None", "logo": "None", "latitude": 43.66323143574358, "longitude": -79.41047606191914}, "864292727RR0001": {"name": "Jazz is Society of Alberta", "designationCode": "C", "categoryCode": "22", "address": "PO BOX 22082 RPO BANKERS HALL", "city": "CALGARY", "province": "AB", "country": "CA", "postalCode": "T2P4J1", "twitter": "None", "instagram": "None", "facebook": "None", "youtube": "None", "website": "None", "summary": "None", "logo": "None", "latitude": 51.04531500000006, "longitude": -114.06301099999993}, "842921298RR0001": {"name": "Jazz Performance and Education Centre", "designationCode": "C", "categoryCode": "22", "address": "161 BEECHWOOD AVENUE", "city": "TORONTO", "province": "ON", "country": "CA", "postalCode": "M2L1J9", "twitter": "None", "instagram": "None", "facebook": "None", "youtube": "None", "website": "None", "summary": "None", "logo": "None", "latitude": 43.74626583484344, "longitude": -79.38751692838598}, "836354449RR0001": {"name": "Jazz Sudbury", "designationCode": "C", "categoryCode": "22", "address": "200 - 96 LARCH ST", "city": "SUDBURY", "province": "ON", "country": "CA", "postalCode": "P3E1C1", "twitter": "None", "instagram": "None", "facebook": "None", "youtube": "None", "website": "None", "summary": "None", "logo": "None", "latitude": 46.491409271916, "longitude": -80.99317774341955}, "853852606RR0001": {"name": "JazzWorks", "designationCode": "C", "categoryCode": "22", "address": "1234 RIDGEMONT AVENUE", "city": "OTTAWA", "province": "ON", "country": "CA", "postalCode": "K1V6E7", "twitter": "None", "instagram": "None", "facebook": "None", "youtube": "None", "website": "None", "summary": "None", "logo": "None", "latitude": 45.37664258338636, "longitude": -75.66475026963472}, "838621290RR0001": {"name": "Je Raccroche", "designationCode": "C", "categoryCode": "59", "address": "424, AVENUE ROSS", "city": "RIMOUSKI", "province": "QC", "country": "CA", "postalCode": "G5L7P3", "twitter": "None", "instagram": "None", "facebook": "None", "youtube": "None", "website": "None", "summary": "None", "logo": "None", "latitude": 48.43197897452209, "longitude": -68.52466979190999}, "830582128RR0001": {"name": "Jean Lumb Foundation", "designationCode": "C", "categoryCode": "21", "address": "50 WILLOWBANK BOULEVARD", "city": "TORONTO", "province": "ON", "country": "CA", "postalCode": "M4R1B6", "twitter": "None", "instagram": "None", "facebook": "None", "youtube": "None", "website": "None", "summary": "None", "logo": "None", "latitude": 43.706196197905165, "longitude": -79.40933782015692}, "790795124RR0001": {"name": "Jean-Paul de Moissac Family Foundation", "designationCode": "B", "categoryCode": "03", "address": "2201 - 10088 102 AVE NW", "city": "EDMONTON", "province": "AB", "country": "CA", "postalCode": "T5J2Z1", "twitter": "None", "instagram": "None", "facebook": "None", "youtube": "None", "website": "None", "summary": "None", "logo": "None", "latitude": 53.54326249437317, "longitude": -113.4925225237462}, "850205733RR0001": {"name": "Jean-Pierre Minist\u00e8res d'entraide / Jean-Pierre Mutual Aid Ministries", "designationCode": "C", "categoryCode": "01", "address": "2904 RUE ALEXANDRE-DUMAS", "city": "MASCOUCHE", "province": "QC", "country": "CA", "postalCode": "J7K3X3", "twitter": "None", "instagram": "None", "facebook": "None", "youtube": "None", "website": "None", "summary": "None", "logo": "None", "latitude": 45.74323853482606, "longitude": -73.6126325723065}, "814020152RR0001": {"name": "Jed Foundation", "designationCode": "B", "categoryCode": "03", "address": "1017 KENNY RD", "city": "ABBOTSFORD", "province": "BC", "country": "CA", "postalCode": "V3G1V6", "twitter": "None", "instagram": "None", "facebook": "None", "youtube": "None", "website": "None", "summary": "None", "logo": "None", "latitude": 49.02085982300797, "longitude": -122.2389517227254}, "855035861RR0001": {"name": "Jeeyar Educational Inc.", "designationCode": "B", "categoryCode": "48", "address": "98 AUTUMN CIR", "city": "LIMEHOUSE", "province": "ON", "country": "CA", "postalCode": "L0P1H0", "twitter": "None", "instagram": "None", "facebook": "None", "youtube": "None", "website": "None", "summary": "None", "logo": "None", "latitude": 43.63581934588191, "longitude": -79.94883824657434}, "845438514RR0001": {"name": "Jeff Loewen Ministries", "designationCode": "C", "categoryCode": "47", "address": "BOX 44008 RPO SOUTHCENTRE", "city": "CALGARY", "province": "AB", "country": "CA", "postalCode": "T2J7C5", "twitter": "None", "instagram": "None", "facebook": "None", "youtube": "None", "website": "None", "summary": "None", "logo": "None", "latitude": 50.95135000000005, "longitude": -114.06508999999994}, "839865441RR0001": {"name": "Jeil Korean Presbyterian Church of Calgary", "designationCode": "C", "categoryCode": "37", "address": "46 ROYAL OAK HTS NORTHWEST", "city": "CALGARY", "province": "AB", "country": "CA", "postalCode": "T3G5L8", "twitter": "None", "instagram": "None", "facebook": "None", "youtube": "None", "website": "None", "summary": "None", "logo": "None", "latitude": 51.150718927837744, "longitude": -114.23094030806747}, "849998885RR0001": {"name": "Jennifer and Gregory Louie (JGL) Foundation for Cerebral Palsy", "designationCode": "B", "categoryCode": "03", "address": "900-900 HOWE STREET", "city": "VANCOUVER", "province": "BC", "country": "CA", "postalCode": "V6Z2M4", "twitter": "None", "instagram": "None", "facebook": "None", "youtube": "None", "website": "None", "summary": "None", "logo": "None", "latitude": 49.28059170439736, "longitude": -123.12292408531957}, "844940924RR0001": {"name": "Jericho Love Ministry/Le Ministere d'amour jericho", "designationCode": "C", "categoryCode": "39", "address": "43 FLAGMAN STREET", "city": "TORONTO", "province": "ON", "country": "CA", "postalCode": "M4E3X6", "twitter": "None", "instagram": "None", "facebook": "None", "youtube": "None", "website": "None", "summary": "None", "logo": "None", "latitude": 43.68769498612153, "longitude": -79.29233227214489}, "817816614RR0001": {"name": "Jericho Ridge Community Church", "designationCode": "C", "categoryCode": "34", "address": "225 - 7888 200TH STREET", "city": "LANGLEY", "province": "BC", "country": "CA", "postalCode": "V2Y3J4", "twitter": "None", "instagram": "None", "facebook": "None", "youtube": "None", "website": "None", "summary": "None", "logo": "None", "latitude": 49.145812971580185, "longitude": -122.66815203551853}, "850137233RR0001": {"name": "Jerome Henry Foundation", "designationCode": "B", "categoryCode": "25", "address": "2682 EGLINTON AVENUE          PO BOX 42505 MEDICAL CENTRE PO", "city": "SCARBOROUGH", "province": "ON", "country": "CA", "postalCode": "M1K2S3", "twitter": "None", "instagram": "None", "facebook": "None", "youtube": "None", "website": "None", "summary": "None", "logo": "None", "latitude": 43.73639764259692, "longitude": -79.24989763770199}, "827145301RR0001": {"name": "Jerry Forbes Centre Foundation", "designationCode": "C", "categoryCode": "59", "address": "5204 84 ST", "city": "EDMONTON", "province": "AB", "country": "CA", "postalCode": "T6E5N8", "twitter": "None", "instagram": "None", "facebook": "None", "youtube": "None", "website": "None", "summary": "None", "logo": "None", "latitude": 53.491061883952, "longitude": -113.44812799852811}, "823939483RR0001": {"name": "Jerusalem Christian Mission", "designationCode": "C", "categoryCode": "39", "address": "59 LATANIA BOULEVARD", "city": "BRAMPTON", "province": "ON", "country": "CA", "postalCode": "L6P1T1", "twitter": "None", "instagram": "None", "facebook": "None", "youtube": "None", "website": "None", "summary": "None", "logo": "None", "latitude": 43.781266028016724, "longitude": -79.73129871233186}, "860063346RR0001": {"name": "Jerusalem City Evangelical Church of Edmonton", "designationCode": "C", "categoryCode": "39", "address": "12140 103ST", "city": "EDMONTON", "province": "AB", "country": "CA", "postalCode": "T5G2J9", "twitter": "None", "instagram": "None", "facebook": "None", "youtube": "None", "website": "None", "summary": "None", "logo": "None", "latitude": 53.575749, "longitude": -113.49743926319982}, "755381126RR0001": {"name": "Jesin-Neuberger Charitable Foundation", "designationCode": "B", "categoryCode": "03", "address": "155 WELLINGTON ST W", "city": "TORONTO", "province": "ON", "country": "CA", "postalCode": "M5V3J7", "twitter": "None", "instagram": "None", "facebook": "None", "youtube": "None", "website": "None", "summary": "None", "logo": "None", "latitude": 43.64596585316531, "longitude": -79.38574575644876}, "807352570RR0001": {"name": "Jesse's Gift Foundation", "designationCode": "C", "categoryCode": "01", "address": "2585 ROSSTOWN RD", "city": "NANAIMO", "province": "BC", "country": "CA", "postalCode": "V9T3R9", "twitter": "None", "instagram": "None", "facebook": "None", "youtube": "None", "website": "None", "summary": "None", "logo": "None", "latitude": 49.19557654558877, "longitude": -124.01395102553522}, "810172403RR0001": {"name": "Jessica's Wish Foundation", "designationCode": "B", "categoryCode": "13", "address": "18507 84 AVE NW", "city": "EDMONTON", "province": "AB", "country": "CA", "postalCode": "T5T1G4", "twitter": "None", "instagram": "None", "facebook": "None", "youtube": "None", "website": "None", "summary": "None", "logo": "None", "latitude": 53.517564525102536, "longitude": -113.64247255689882}, "118973734RR0001": {"name": "Jessie's, The June Callwood Centre for Young Women", "designationCode": "C", "categoryCode": "09", "address": "205 PARLIAMENT STREET", "city": "TORONTO", "province": "ON", "country": "CA", "postalCode": "M5A2Z4", "twitter": "None", "instagram": "None", "facebook": "None", "youtube": "None", "website": "None", "summary": "None", "logo": "None", "latitude": 43.65636811241269, "longitude": -79.36471755173427}, "828254037RR0001": {"name": "Jesuit Community of Guelph", "designationCode": "C", "categoryCode": "46", "address": "5420 HIGHWAY 6 NORTH,", "city": "GUELPH", "province": "ON", "country": "CA", "postalCode": "N1H6J2", "twitter": "None", "instagram": "None", "facebook": "None", "youtube": "None", "website": "None", "summary": "None", "logo": "None", "latitude": 43.57296517735107, "longitude": -80.28245636726805}, "811033463RR0001": {"name": "Jesus is our Salvation Society", "designationCode": "C", "categoryCode": "39", "address": "101-14188 103A AVE", "city": "SURREY", "province": "BC", "country": "CA", "postalCode": "V3T5S6", "twitter": "None", "instagram": "None", "facebook": "None", "youtube": "None", "website": "None", "summary": "None", "logo": "None", "latitude": 49.190485485140584, "longitude": -122.83007252262104}, "833736580RR0001": {"name": "Jesus is Light Ministries, Calgary", "designationCode": "C", "categoryCode": "39", "address": "118 TARALAKE WAY NE", "city": "CALGARY", "province": "AB", "country": "CA", "postalCode": "T3J0A7", "twitter": "None", "instagram": "None", "facebook": "None", "youtube": "None", "website": "None", "summary": "None", "logo": "None", "latitude": 51.1189794676841, "longitude": -113.93218277699232}, "138792379RR0001": {"name": "Jesus is Lord Church Canada East", "designationCode": "C", "categoryCode": "39", "address": "83 CHRISTIE STREET", "city": "TORONTO", "province": "ON", "country": "CA", "postalCode": "M6G3B1", "twitter": "None", "instagram": "None", "facebook": "None", "youtube": "None", "website": "None", "summary": "None", "logo": "None", "latitude": 43.66540558979163, "longitude": -79.41912896361607}, "812812469RR0001": {"name": "Jesus is Lord Global Ministry", "designationCode": "C", "categoryCode": "39", "address": "84 YARROW ROAD", "city": "YORK", "province": "ON", "country": "CA", "postalCode": "M6M4E3", "twitter": "None", "instagram": "None", "facebook": "None", "youtube": "None", "website": "None", "summary": "None", "logo": "None", "latitude": 43.689472732442745, "longitude": -79.4759435295746}, "825128242RR0001": {"name": "Jesus the Anointed One Church of Edmonton", "designationCode": "C", "categoryCode": "39", "address": "17636 94 AVE NW", "city": "EDMONTON", "province": "AB", "country": "CA", "postalCode": "T5T3M7", "twitter": "None", "instagram": "None", "facebook": "None", "youtube": "None", "website": "None", "summary": "None", "logo": "None", "latitude": 53.52857030725942, "longitude": -113.62558886539897}, "823084132RR0001": {"name": "Jesus the Anointed One Church Ontario", "designationCode": "C", "categoryCode": "39", "address": "101 - 11 GOLDFINCH CRT", "city": "NORTH YORK", "province": "ON", "country": "CA", "postalCode": "M2R2C2", "twitter": "None", "instagram": "None", "facebook": "None", "youtube": "None", "website": "None", "summary": "None", "logo": "None", "latitude": 43.77180951930281, "longitude": -79.45066676524958}, "850232109RR0001": {"name": "Jesus the Good Shepherd Church", "designationCode": "C", "categoryCode": "39", "address": "PO BOX 110", "city": "NEWPORT STATION", "province": "NS", "country": "CA", "postalCode": "B0N2B0", "twitter": "None", "instagram": "None", "facebook": "None", "youtube": "None", "website": "None", "summary": "None", "logo": "None", "latitude": 44.96348000000006, "longitude": -64.05887999999999}, "832043111RR0001": {"name": "Jesus the Living Gospel (British Columbia) International Church", "designationCode": "C", "categoryCode": "39", "address": "1037 CHARLAND AVE", "city": "COQUITLAM", "province": "BC", "country": "CA", "postalCode": "V3K3K8", "twitter": "None", "instagram": "None", "facebook": "None", "youtube": "None", "website": "None", "summary": "None", "logo": "None", "latitude": 49.24802450432784, "longitude": -122.86370392786638}, "801756362RR0001": {"name": "Jesus the Rock of Ages Global Ministries, St. Paul, Alberta", "designationCode": "C", "categoryCode": "39", "address": "5134 55 AVE", "city": "ST PAUL", "province": "AB", "country": "CA", "postalCode": "T0A3A1", "twitter": "None", "instagram": "None", "facebook": "None", "youtube": "None", "website": "None", "summary": "None", "logo": "None", "latitude": 53.99639045325739, "longitude": -111.30184252553522}, "799116322RR0001": {"name": "Jesus Alive Gospel Outreach Canada", "designationCode": "C", "categoryCode": "47", "address": "11613 BRAMALEA ROAD N.", "city": "BRAMPTON", "province": "ON", "country": "CA", "postalCode": "L6R0C2", "twitter": "None", "instagram": "None", "facebook": "None", "youtube": "None", "website": "None", "summary": "None", "logo": "None", "latitude": 43.768907315886416, "longitude": -79.77735514871061}, "136347630RR0001": {"name": "Jesus Baptist Church Calgary Fellowship", "designationCode": "C", "categoryCode": "31", "address": "123 ELBOW RIDGE BLUFFS", "city": "CALGARY", "province": "AB", "country": "CA", "postalCode": "T3Z3T1", "twitter": "None", "instagram": "None", "facebook": "None", "youtube": "None", "website": "None", "summary": "None", "logo": "None", "latitude": 51.021065707367015, "longitude": -114.27357120623809}, "822651642RR0001": {"name": "Jesus Baptist Toronto Church", "designationCode": "C", "categoryCode": "39", "address": "9550 LESLIE ST", "city": "RICHMOND HILL", "province": "ON", "country": "CA", "postalCode": "L4B3Y5", "twitter": "None", "instagram": "None", "facebook": "None", "youtube": "None", "website": "None", "summary": "None", "logo": "None", "latitude": 43.869697628080154, "longitude": -79.38862528564798}, "822240768RR0001": {"name": "Jesus Christ Everlasting Kingdom", "designationCode": "C", "categoryCode": "39", "address": "10 WANTANOPA CRES", "city": "TORONTO", "province": "ON", "country": "CA", "postalCode": "M1H2B3", "twitter": "None", "instagram": "None", "facebook": "None", "youtube": "None", "website": "None", "summary": "None", "logo": "None", "latitude": 43.76466722898029, "longitude": -79.23376334612483}, "826063513RR0001": {"name": "Jesus Christ International Ministries", "designationCode": "C", "categoryCode": "39", "address": "8257 SHEAVES ROAD", "city": "DELTA", "province": "BC", "country": "CA", "postalCode": "V4C7R5", "twitter": "None", "instagram": "None", "facebook": "None", "youtube": "None", "website": "None", "summary": "None", "logo": "None", "latitude": 49.1532179630678, "longitude": -122.93704726397922}, "850383068RR0001": {"name": "Jesus Christ Tabernacle (Windsor)", "designationCode": "C", "categoryCode": "39", "address": "3370 WILDWOOD DR", "city": "WINDSOR", "province": "ON", "country": "CA", "postalCode": "N8R1X2", "twitter": "None", "instagram": "None", "facebook": "None", "youtube": "None", "website": "None", "summary": "None", "logo": "None", "latitude": 42.29922893202133, "longitude": -82.9157712634023}, "811061241RR0001": {"name": "Jesus Christ's Humility Church ( JCHC )", "designationCode": "C", "categoryCode": "39", "address": "320 ATLAS AVENUE", "city": "TORONTO", "province": "ON", "country": "CA", "postalCode": "M6C3P9", "twitter": "None", "instagram": "None", "facebook": "None", "youtube": "None", "website": "None", "summary": "None", "logo": "None", "latitude": 43.69108512600267, "longitude": -79.43501433210213}, "824558233RR0001": {"name": "Jesus Christ's Humility Church (Calgary)", "designationCode": "C", "categoryCode": "39", "address": "325 EVERGLEN RISE SW", "city": "CALGARY", "province": "AB", "country": "CA", "postalCode": "T2Y5G4", "twitter": "None", "instagram": "None", "facebook": "None", "youtube": "None", "website": "None", "summary": "None", "logo": "None", "latitude": 50.91181143435862, "longitude": -114.12418533986376}, "898182811RR0001": {"name": "Jesus Family Church International", "designationCode": "C", "categoryCode": "39", "address": "161 DEERHIDE CRESCENT         UNIT 5 & 6", "city": "NORTH YORK", "province": "ON", "country": "CA", "postalCode": "M9M2Z2", "twitter": "None", "instagram": "None", "facebook": "None", "youtube": "None", "website": "None", "summary": "None", "logo": "None", "latitude": 43.746938637198106, "longitude": -79.53358941857556}, "839460151RR0001": {"name": "Jesus First Christian Ministries", "designationCode": "C", "categoryCode": "39", "address": "98 LEGACY DRIVE", "city": "MARKHAM", "province": "ON", "country": "CA", "postalCode": "L3S4B5", "twitter": "None", "instagram": "None", "facebook": "None", "youtube": "None", "website": "None", "summary": "None", "logo": "None", "latitude": 43.86447039745509, "longitude": -79.23556755816823}, "820863868RR0001": {"name": "Jesus First Christian Ministries of Calgary", "designationCode": "C", "categoryCode": "39", "address": "433 SKYVIEW RANCH WAY NE", "city": "CALGARY", "province": "AB", "country": "CA", "postalCode": "T3N0C7", "twitter": "None", "instagram": "None", "facebook": "None", "youtube": "None", "website": "None", "summary": "None", "logo": "None", "latitude": 51.15803332944776, "longitude": -113.96595525021635}, "826812711RR0001": {"name": "Jesus Grace International Church", "designationCode": "C", "categoryCode": "39", "address": "712 CAMPBELL AVE", "city": "VANCOUVER", "province": "BC", "country": "CA", "postalCode": "V6A3K1", "twitter": "None", "instagram": "None", "facebook": "None", "youtube": "None", "website": "None", "summary": "None", "logo": "None", "latitude": 49.278167009836, "longitude": -123.08483080109909}, "802743864RR0001": {"name": "Jesus Is Lord Global Ministry Canada", "designationCode": "C", "categoryCode": "39", "address": "263 ADDINGTON DR", "city": "RED DEER", "province": "AB", "country": "CA", "postalCode": "T4R3N4", "twitter": "None", "instagram": "None", "facebook": "None", "youtube": "None", "website": "None", "summary": "None", "logo": "None", "latitude": 52.24082064888352, "longitude": -113.77642700028845}, "732784491RR0001": {"name": "Jesus King Of Glory Church", "designationCode": "C", "categoryCode": "39", "address": "712 - 70 TOWN CENTRE CRT", "city": "SCARBOROUGH", "province": "ON", "country": "CA", "postalCode": "M1P0B2", "twitter": "None", "instagram": "None", "facebook": "None", "youtube": "None", "website": "None", "summary": "None", "logo": "None", "latitude": 43.77377991312254, "longitude": -79.25520547380094}, "821176641RR0001": {"name": "Jesus Light of the World Arabic Evangelical Church", "designationCode": "C", "categoryCode": "39", "address": "132 - 1769 ST. LAURENT BLVD", "city": "OTTAWA", "province": "ON", "country": "CA", "postalCode": "K1G5X7", "twitter": "None", "instagram": "None", "facebook": "None", "youtube": "None", "website": "None", "summary": "None", "logo": "None", "latitude": 45.40455198892016, "longitude": -75.62619291346925}, "829185719RR0001": {"name": "Jesus Ministry of Israelite Church Inc.", "designationCode": "C", "categoryCode": "39", "address": "UNIT 401                      330 DIXON ROAD", "city": "TORONTO", "province": "ON", "country": "CA", "postalCode": "M9R1S9", "twitter": "None", "instagram": "None", "facebook": "None", "youtube": "None", "website": "None", "summary": "None", "logo": "None", "latitude": 43.69557107412417, "longitude": -79.55323681528083}, "829722594RR0001": {"name": "Jesus Miracle Crusade Int'l Ministry (JMCIM) Winnipeg, Manitoba Canada Outreach Inc.", "designationCode": "B", "categoryCode": "39", "address": "911 - 601 OSBORNE ST", "city": "WINNIPEG", "province": "MB", "country": "CA", "postalCode": "R3L2P9", "twitter": "None", "instagram": "None", "facebook": "None", "youtube": "None", "website": "None", "summary": "None", "logo": "None", "latitude": 49.864490999999994, "longitude": -97.1339355}, "801380106RR0001": {"name": "Jesus New Convenant International Ministries (Markham)", "designationCode": "C", "categoryCode": "39", "address": "81 - 2220 MIDLAND AVE", "city": "SCARBOROUGH", "province": "ON", "country": "CA", "postalCode": "M1P3E6", "twitter": "None", "instagram": "None", "facebook": "None", "youtube": "None", "website": "None", "summary": "None", "logo": "None", "latitude": 43.77428025810259, "longitude": -79.27363298214279}, "707766721RR0001": {"name": "Jesus New Creation International Church Millwoods", "designationCode": "C", "categoryCode": "39", "address": "3808 89 ST NW", "city": "EDMONTON", "province": "AB", "country": "CA", "postalCode": "T6K0J6", "twitter": "None", "instagram": "None", "facebook": "None", "youtube": "None", "website": "None", "summary": "None", "logo": "None", "latitude": 53.47276200000002, "longitude": -113.46448819265369}, "855727210RR0001": {"name": "Jesus Our Rock Christian Church", "designationCode": "C", "categoryCode": "31", "address": "6880 190 ST", "city": "SURREY", "province": "BC", "country": "CA", "postalCode": "V4N5P1", "twitter": "None", "instagram": "None", "facebook": "None", "youtube": "None", "website": "None", "summary": "None", "logo": "None", "latitude": 49.12814582653357, "longitude": -122.69617954994527}, "799768494RR0001": {"name": "Jesus Our Shepherd Ministries", "designationCode": "C", "categoryCode": "39", "address": "185 BELGRAVIA AVENUE,", "city": "YORK", "province": "ON", "country": "CA", "postalCode": "M6E2M6", "twitter": "None", "instagram": "None", "facebook": "None", "youtube": "None", "website": "None", "summary": "None", "logo": "None", "latitude": 43.697920820416726, "longitude": -79.44736417262972}, "814130845RR0001": {"name": "Jesus Reigns Community Church Inc.", "designationCode": "C", "categoryCode": "39", "address": "41 ROCKROSE DRIVE", "city": "BRAMPTON", "province": "ON", "country": "CA", "postalCode": "L6R2Z8", "twitter": "None", "instagram": "None", "facebook": "None", "youtube": "None", "website": "None", "summary": "None", "logo": "None", "latitude": 43.753434000000055, "longitude": -79.75445749999993}, "801167636RR0001": {"name": "Jesus Reigns Forever International Ministry", "designationCode": "C", "categoryCode": "39", "address": "15627 95 AVENUE NORTHWEST", "city": "EDMONTON", "province": "AB", "country": "CA", "postalCode": "T5P0A3", "twitter": "None", "instagram": "None", "facebook": "None", "youtube": "None", "website": "None", "summary": "None", "logo": "None", "latitude": 53.53139451788917, "longitude": -113.59136266763807}, "846808004RR0001": {"name": "Jesus Reigns Forever International Ministry", "designationCode": "C", "categoryCode": "39", "address": "26 VIRGILWOOD DR", "city": "NORTH YORK", "province": "ON", "country": "CA", "postalCode": "M2R2B2", "twitter": "None", "instagram": "None", "facebook": "None", "youtube": "None", "website": "None", "summary": "None", "logo": "None", "latitude": 43.774063868717214, "longitude": -79.44876180073852}, "803628841RR0001": {"name": "Jesus Reigns Forever International Ministry Calgary", "designationCode": "C", "categoryCode": "39", "address": "20 AUBURN GLEN LANE SOUTHEAST", "city": "CALGARY", "province": "AB", "country": "CA", "postalCode": "T3M0M8", "twitter": "None", "instagram": "None", "facebook": "None", "youtube": "None", "website": "None", "summary": "None", "logo": "None", "latitude": 50.897268429915194, "longitude": -113.95676233859434}, "842653883RR0001": {"name": "Jesus Reigns Ministries Durham Region", "designationCode": "C", "categoryCode": "39", "address": "2 CATER AVENUE", "city": "AJAX", "province": "ON", "country": "CA", "postalCode": "L1Z0G2", "twitter": "None", "instagram": "None", "facebook": "None", "youtube": "None", "website": "None", "summary": "None", "logo": "None", "latitude": 43.890461223440376, "longitude": -79.01201601471517}, "806587333RR0001": {"name": "Jesus Reigns Mission To The Nations (JRM Canada)", "designationCode": "C", "categoryCode": "39", "address": "35 TRIPLE CROWN DR", "city": "BRAMPTON", "province": "ON", "country": "CA", "postalCode": "L6S0A4", "twitter": "None", "instagram": "None", "facebook": "None", "youtube": "None", "website": "None", "summary": "None", "logo": "None", "latitude": 43.76324497861972, "longitude": -79.7162591540194}, "803124882RR0001": {"name": "Jesus Rock of Ages Ministries", "designationCode": "C", "categoryCode": "39", "address": "15130-61A AVE", "city": "SURREY", "province": "BC", "country": "CA", "postalCode": "V3S5J7", "twitter": "None", "instagram": "None", "facebook": "None", "youtube": "None", "website": "None", "summary": "None", "logo": "None", "latitude": 49.11392750346245, "longitude": -122.80278505689884}, "808172621RR0001": {"name": "Jesus Saves Charitable Foundation", "designationCode": "B", "categoryCode": "03", "address": "5271 NAUVOO ROAD", "city": "WATFORD", "province": "ON", "country": "CA", "postalCode": "N0M2S0", "twitter": "None", "instagram": "None", "facebook": "None", "youtube": "None", "website": "None", "summary": "None", "logo": "None"}, "849795414RR0001": {"name": "Jesus Sovereign Lord Ministries", "designationCode": "C", "categoryCode": "39", "address": "UNIT 86 - 84 BR               2220 MIDLAND AVENUE", "city": "TORONTO", "province": "ON", "country": "CA", "postalCode": "M1P3E6", "twitter": "None", "instagram": "None", "facebook": "None", "youtube": "None", "website": "None", "summary": "None", "logo": "None", "latitude": 43.76292091626382, "longitude": -79.26938719870061}, "842897050RR0001": {"name": "Jesus The Anointed One Church, Fort McMurray", "designationCode": "C", "categoryCode": "39", "address": "109 SWANSON CRES.", "city": "FORT MCMURRAY", "province": "AB", "country": "CA", "postalCode": "T9K2T3", "twitter": "None", "instagram": "None", "facebook": "None", "youtube": "None", "website": "None", "summary": "None", "logo": "None", "latitude": 56.747288312081366, "longitude": -111.48348573834848}, "820223857RR0001": {"name": "Jesus The Good Shepherd International Pentecostal Church", "designationCode": "C", "categoryCode": "36", "address": "50 MOUTRAY STREET", "city": "TORONTO", "province": "ON", "country": "CA", "postalCode": "M6K1W5", "twitter": "None", "instagram": "None", "facebook": "None", "youtube": "None", "website": "None", "summary": "None", "logo": "None", "latitude": 43.65151088354243, "longitude": -79.43440141532777}, "807856802RR0001": {"name": "Jesus Touch Church", "designationCode": "C", "categoryCode": "39", "address": "412-2085 ISLINGTON AVE", "city": "ETOBICOKE", "province": "ON", "country": "CA", "postalCode": "M9P3R1", "twitter": "None", "instagram": "None", "facebook": "None", "youtube": "None", "website": "None", "summary": "None", "logo": "None", "latitude": 43.70337035527143, "longitude": -79.54956953866387}, "863771432RR0001": {"name": "Jesus Way Fellowship", "designationCode": "C", "categoryCode": "39", "address": "8250 161 STREET", "city": "SURREY", "province": "BC", "country": "CA", "postalCode": "V4N0M9", "twitter": "None", "instagram": "None", "facebook": "None", "youtube": "None", "website": "None", "summary": "None", "logo": "None", "latitude": 49.15268952844943, "longitude": -122.77597798776631}, "817717820RR0001": {"name": "Jesus Word of Life International Fellowship", "designationCode": "C", "categoryCode": "39", "address": "13 REDSTONE DR NE", "city": "CALGARY", "province": "AB", "country": "CA", "postalCode": "T3N0N1", "twitter": "None", "instagram": "None", "facebook": "None", "youtube": "None", "website": "None", "summary": "None", "logo": "None", "latitude": 51.168259248867685, "longitude": -113.96836401310205}, "852024447RR0001": {"name": "Jesus Your Christ (JYC) Ministries Association", "designationCode": "C", "categoryCode": "39", "address": "543 WHITE ROCK RD", "city": "CANAAN.", "province": "NS", "country": "CA", "postalCode": "B4N4K1", "twitter": "None", "instagram": "None", "facebook": "None", "youtube": "None", "website": "None", "summary": "None", "logo": "None", "latitude": 45.03725340746705, "longitude": -64.4528123570891}, "852086867RR0001": {"name": "Jesus-The Humble Servant Ministries (Edmonton)", "designationCode": "C", "categoryCode": "39", "address": "10145 157 ST NW", "city": "EDMONTON", "province": "AB", "country": "CA", "postalCode": "T5P2T9", "twitter": "None", "instagram": "None", "facebook": "None", "youtube": "None", "website": "None", "summary": "None", "logo": "None", "latitude": 53.542755, "longitude": -113.592035260171}, "826163362RR0001": {"name": "Jesus, La Vid Verdadera, Spanish Pentecostal Church", "designationCode": "C", "categoryCode": "39", "address": "2331 RUE 66ST                 SUITE 420, PO BOX 32204", "city": "EDMONTON", "province": "AB", "country": "CA", "postalCode": "T6K4C2", "twitter": "None", "instagram": "None", "facebook": "None", "youtube": "None", "website": "None", "summary": "None", "logo": "None", "latitude": 53.45438801760409, "longitude": -113.43445172970887}, "752421891RR0001": {"name": "Jesus, The Hope of Glory Pentecostal Church", "designationCode": "C", "categoryCode": "36", "address": "1346 NEW BRIGHTON PK SE", "city": "CALGARY", "province": "AB", "country": "CA", "postalCode": "T2Z0Y2", "twitter": "None", "instagram": "None", "facebook": "None", "youtube": "None", "website": "None", "summary": "None", "logo": "None", "latitude": 50.91555701610016, "longitude": -113.93696928988983}, "832767198RR0001": {"name": "Jesus, The Only Way - Arabic Evangelical Mission", "designationCode": "C", "categoryCode": "39", "address": "1367 BOYER ROAD", "city": "OTTAWA", "province": "ON", "country": "CA", "postalCode": "K1C1P9", "twitter": "None", "instagram": "None", "facebook": "None", "youtube": "None", "website": "None", "summary": "None", "logo": "None", "latitude": 45.46629713434121, "longitude": -75.53253349844212}, "820138337RR0001": {"name": "Jesus' Disciples Christian Church ( JDCC )", "designationCode": "C", "categoryCode": "39", "address": "21 - 1110 FINCH AVE W", "city": "NORTH YORK", "province": "ON", "country": "CA", "postalCode": "M3J2T2", "twitter": "None", "instagram": "None", "facebook": "None", "youtube": "None", "website": "None", "summary": "None", "logo": "None", "latitude": 43.764423902088836, "longitude": -79.48682251720832}}