{"119055549RR0001": {"name": "NEW LEAF: LIVING AND LEARNING TOGETHER INC.", "designationCode": "C", "categoryCode": "10", "address": "19601 LESLIE ST", "city": "QUEENSVILLE", "province": "ON", "country": "CA", "postalCode": "L0G1R0", "twitter": "None", "instagram": "None", "facebook": "None", "youtube": "None", "website": "None", "summary": "None", "logo": "None", "latitude": 44.15050983991104, "longitude": -79.4535105930936}, "131849564RR0001": {"name": "NEW LEARNING SOCIETY", "designationCode": "C", "categoryCode": "20", "address": "PO BOX 34058 STN D", "city": "VANCOUVER", "province": "BC", "country": "CA", "postalCode": "V6J4M1", "twitter": "None", "instagram": "None", "facebook": "None", "youtube": "None", "website": "None", "summary": "None", "logo": "None", "latitude": 49.26077700000006, "longitude": -123.14626099999992}, "130565963RR0018": {"name": "NEW LIFE ALLIANCE CHURCH", "designationCode": "C", "categoryCode": "39", "address": "PO BOX 16099 RPO              3017 MOUNTAIN HWY", "city": "VANCOUVER", "province": "BC", "country": "CA", "postalCode": "V7J3S9", "twitter": "None", "instagram": "None", "facebook": "None", "youtube": "None", "website": "None", "summary": "None", "logo": "None", "latitude": 49.33629247428603, "longitude": -123.03807714137083}, "107770638RR0001": {"name": "NEW LIFE ASSEMBLY", "designationCode": "C", "categoryCode": "36", "address": "BOX 2290", "city": "HEARST", "province": "ON", "country": "CA", "postalCode": "P0L1N0", "twitter": "None", "instagram": "None", "facebook": "None", "youtube": "None", "website": "None", "summary": "None", "logo": "None", "latitude": 49.68503700000005, "longitude": -83.65433749999994}, "107770679RR0001": {"name": "NEW LIFE ASSEMBLY", "designationCode": "C", "categoryCode": "36", "address": "BOX 712", "city": "TUMBLER RIDGE", "province": "BC", "country": "CA", "postalCode": "V0C2W0", "twitter": "None", "instagram": "None", "facebook": "None", "youtube": "None", "website": "None", "summary": "None", "logo": "None", "latitude": 55.12436000000008, "longitude": -120.99868999999995}, "119055556RR0001": {"name": "NEW LIFE ASSEMBLY", "designationCode": "C", "categoryCode": "36", "address": "421 OOZLOFFSKY ST", "city": "PETROLIA", "province": "ON", "country": "CA", "postalCode": "N0N1R0", "twitter": "None", "instagram": "None", "facebook": "None", "youtube": "None", "website": "None", "summary": "None", "logo": "None", "latitude": 42.87982397307979, "longitude": -82.16104996551972}, "119055614RR0001": {"name": "NEW LIFE ASSEMBLY", "designationCode": "C", "categoryCode": "39", "address": "BOX 196", "city": "PORT HARDY", "province": "BC", "country": "CA", "postalCode": "V0N2P0", "twitter": "None", "instagram": "None", "facebook": "None", "youtube": "None", "website": "None", "summary": "None", "logo": "None", "latitude": 50.72153001889881, "longitude": -127.5011199316182}, "131637274RR0001": {"name": "NEW LIFE ASSEMBLY", "designationCode": "C", "categoryCode": "36", "address": "BOX 1564", "city": "KILLARNEY", "province": "MB", "country": "CA", "postalCode": "R0K1G0", "twitter": "None", "instagram": "None", "facebook": "None", "youtube": "None", "website": "None", "summary": "None", "logo": "None", "latitude": 49.18482000000006, "longitude": -99.66915999999998}, "138484571RR0001": {"name": "NEW LIFE ASSEMBLY", "designationCode": "C", "categoryCode": "36", "address": "28 FIRST AVE", "city": "SIOUX LOOKOUT", "province": "ON", "country": "CA", "postalCode": "P8T1E8", "twitter": "None", "instagram": "None", "facebook": "None", "youtube": "None", "website": "None", "summary": "None", "logo": "None", "latitude": 50.101367722806216, "longitude": -91.9085547228062}, "888008240RR0001": {"name": "NEW LIFE ASSEMBLY SOCIETY", "designationCode": "C", "categoryCode": "39", "address": "6294 ICARUS DRIVE", "city": "NANAIMO", "province": "BC", "country": "CA", "postalCode": "V9V1B5", "twitter": "None", "instagram": "None", "facebook": "None", "youtube": "None", "website": "None", "summary": "None", "logo": "None", "latitude": 49.24727049653755, "longitude": -124.03972311226845}, "107770703RR0001": {"name": "NEW LIFE ASSOCIATION", "designationCode": "C", "categoryCode": "47", "address": "276-13888 70TH AVE", "city": "SURREY", "province": "BC", "country": "CA", "postalCode": "V3W0R8", "twitter": "None", "instagram": "None", "facebook": "None", "youtube": "None", "website": "None", "summary": "None", "logo": "None", "latitude": 49.12987571417493, "longitude": -122.83683664529453}, "119055663RR0001": {"name": "NEW LIFE BAPTIST CHURCH INC.", "designationCode": "C", "categoryCode": "31", "address": "BOX 905", "city": "STONEWALL", "province": "MB", "country": "CA", "postalCode": "R0C2Z0", "twitter": "None", "instagram": "None", "facebook": "None", "youtube": "None", "website": "None", "summary": "None", "logo": "None", "latitude": 50.36947800000006, "longitude": -96.84479599999993}, "118830389RR0005": {"name": "NEW LIFE BRETHREN IN CHRIST CHURCH", "designationCode": "C", "categoryCode": "39", "address": "P.O BOX 125", "city": "COLLINGWOOD", "province": "ON", "country": "CA", "postalCode": "L9Y3Z4", "twitter": "None", "instagram": "None", "facebook": "None", "youtube": "None", "website": "None", "summary": "None", "logo": "None", "latitude": 44.49987600000006, "longitude": -80.21683249999994}, "886978394RR0001": {"name": "NEW LIFE CAMP", "designationCode": "C", "categoryCode": "56", "address": "515 PLEASANT BAY CRT", "city": "WATERLOO", "province": "ON", "country": "CA", "postalCode": "N2K4N5", "twitter": "None", "instagram": "None", "facebook": "None", "youtube": "None", "website": "None", "summary": "None", "logo": "None", "latitude": 43.51045208961877, "longitude": -80.51035518982641}, "107387193RR0002": {"name": "NEW LIFE CENTRE", "designationCode": "C", "categoryCode": "36", "address": "916 BROWN ST", "city": "MOOSE JAW", "province": "SK", "country": "CA", "postalCode": "S6H2Z2", "twitter": "None", "instagram": "None", "facebook": "None", "youtube": "None", "website": "None", "summary": "None", "logo": "None", "latitude": 50.3994146059966, "longitude": -105.5581088064471}, "119277929RR0001": {"name": "NEW LIFE CENTRE UNITED PENTECOSTAL CHURCH", "designationCode": "C", "categoryCode": "36", "address": "698 MILLWOOD DRIVE", "city": "KINGSTON", "province": "ON", "country": "CA", "postalCode": "K7M8Z1", "twitter": "None", "instagram": "None", "facebook": "None", "youtube": "None", "website": "None", "summary": "None", "logo": "None", "latitude": 44.23557420843673, "longitude": -76.58866113491814}, "886320639RR0001": {"name": "NEW LIFE CENTRES SOCIETY", "designationCode": "C", "categoryCode": "49", "address": "3900 2ND STREET NE", "city": "CALGARY", "province": "AB", "country": "CA", "postalCode": "T2E9C1", "twitter": "None", "instagram": "None", "facebook": "None", "youtube": "None", "website": "None", "summary": "None", "logo": "None", "latitude": 51.08741857507647, "longitude": -114.0573882897456}, "119055747RR0001": {"name": "NEW LIFE CHINESE LUTHERAN CHURCH", "designationCode": "C", "categoryCode": "32", "address": "6215 MAIN ST", "city": "VANCOUVER", "province": "BC", "country": "CA", "postalCode": "V5W2T9", "twitter": "None", "instagram": "None", "facebook": "None", "youtube": "None", "website": "None", "summary": "None", "logo": "None", "latitude": 49.228226025535236, "longitude": -123.10157255998591}, "891623860RR0001": {"name": "NEW LIFE CHRISTIAN ASSEMBLY", "designationCode": "C", "categoryCode": "39", "address": "8975 ROUTE 3", "city": "OLD RIDGE", "province": "NB", "country": "CA", "postalCode": "E3L4W4", "twitter": "None", "instagram": "None", "facebook": "None", "youtube": "None", "website": "None", "summary": "None", "logo": "None", "latitude": 45.250075157459094, "longitude": -67.28734508645793}, "140925892RR0001": {"name": "NEW LIFE CHRISTIAN ASSEMBLY OF TORONTO", "designationCode": "C", "categoryCode": "47", "address": "573 ALBION ROAD", "city": "REXDALE", "province": "ON", "country": "CA", "postalCode": "M9V1A1", "twitter": "None", "instagram": "None", "facebook": "None", "youtube": "None", "website": "None", "summary": "None", "logo": "None", "latitude": 43.730406325004346, "longitude": -79.55427572525804}, "107770802RR0001": {"name": "NEW LIFE CHRISTIAN CENTRE", "designationCode": "C", "categoryCode": "36", "address": "16 DAKIN DR", "city": "HALIFAX", "province": "NS", "country": "CA", "postalCode": "B3M2C8", "twitter": "None", "instagram": "None", "facebook": "None", "youtube": "None", "website": "None", "summary": "None", "logo": "None", "latitude": 44.683294275318886, "longitude": -63.66351407969274}, "119055762RR0001": {"name": "NEW LIFE CHRISTIAN CENTRE", "designationCode": "C", "categoryCode": "39", "address": "4032 REGIONAL RD 35", "city": "CHELMSFORD", "province": "ON", "country": "CA", "postalCode": "P0M1L0", "twitter": "None", "instagram": "None", "facebook": "None", "youtube": "None", "website": "None", "summary": "None", "logo": "None", "latitude": 46.565039242202275, "longitude": -81.17281956948145}, "891584377RR0001": {"name": "NEW LIFE CHRISTIAN CENTRE", "designationCode": "C", "categoryCode": "39", "address": "58 I MANITOBA DRIVE", "city": "CLARENVILLE", "province": "NL", "country": "CA", "postalCode": "A5A1K5", "twitter": "None", "instagram": "None", "facebook": "None", "youtube": "None", "website": "None", "summary": "None", "logo": "None", "latitude": 48.16421100000001, "longitude": -53.9851365}, "886805795RR0001": {"name": "NEW LIFE CHRISTIAN CENTRE CANMORE", "designationCode": "C", "categoryCode": "39", "address": "216- THREE SISTERS DRIVE      UNIT 28", "city": "CANMORE", "province": "AB", "country": "CA", "postalCode": "T1W2M2", "twitter": "None", "instagram": "None", "facebook": "None", "youtube": "None", "website": "None", "summary": "None", "logo": "None", "latitude": 51.08302788104656, "longitude": -115.36896920184563}, "119055770RR0001": {"name": "NEW LIFE CHRISTIAN CENTRE OF TABER", "designationCode": "C", "categoryCode": "39", "address": "5120-47 AVE", "city": "TABER", "province": "AB", "country": "CA", "postalCode": "T1G1R1", "twitter": "None", "instagram": "None", "facebook": "None", "youtube": "None", "website": "None", "summary": "None", "logo": "None", "latitude": 49.783317747706185, "longitude": -112.14647772661435}, "119055788RR0001": {"name": "NEW LIFE CHRISTIAN CENTRE SOCIETY", "designationCode": "C", "categoryCode": "39", "address": "2800 MOUNTAIN HIGHWAY", "city": "NORTH VANCOUVER", "province": "BC", "country": "CA", "postalCode": "V7J2N6", "twitter": "None", "instagram": "None", "facebook": "None", "youtube": "None", "website": "None", "summary": "None", "logo": "None", "latitude": 49.33446196280801, "longitude": -123.03782096165418}, "107770844RR0001": {"name": "NEW LIFE CHRISTIAN CHURCH", "designationCode": "C", "categoryCode": "36", "address": "PO BOX 134", "city": "BRIDGEWATER", "province": "NS", "country": "CA", "postalCode": "B4V2W8", "twitter": "None", "instagram": "None", "facebook": "None", "youtube": "None", "website": "None", "summary": "None", "logo": "None", "latitude": 44.38048200000006, "longitude": -64.52305099999994}, "130490865RR0001": {"name": "NEW LIFE CHRISTIAN CHURCH", "designationCode": "C", "categoryCode": "36", "address": "8111 WESTON ROAD", "city": "WOODBRIDGE", "province": "ON", "country": "CA", "postalCode": "L4L1A6", "twitter": "None", "instagram": "None", "facebook": "None", "youtube": "None", "website": "None", "summary": "None", "logo": "None", "latitude": 43.79942279768011, "longitude": -79.5498238677945}, "119055820RR0001": {"name": "NEW LIFE CHRISTIAN FELLOWSHIP", "designationCode": "C", "categoryCode": "36", "address": "BOX 123", "city": "THORSLY", "province": "AB", "country": "CA", "postalCode": "T0C2P0", "twitter": "None", "instagram": "None", "facebook": "None", "youtube": "None", "website": "None", "summary": "None", "logo": "None", "latitude": 53.07519149999999, "longitude": -113.99293349999999}, "858762487RR0001": {"name": "NEW LIFE CHRISTIAN FELLOWSHIP", "designationCode": "C", "categoryCode": "34", "address": "3659 GOODREAU LINE            RR 1", "city": "COATSWORTH STATION", "province": "ON", "country": "CA", "postalCode": "N0P1H0", "twitter": "None", "instagram": "None", "facebook": "None", "youtube": "None", "website": "None", "summary": "None", "logo": "None", "latitude": 42.18938343883066, "longitude": -82.32144024992787}, "132796384RR0001": {"name": "NEW LIFE CHRISTIAN FELLOWSHIP ASSOCIATION", "designationCode": "C", "categoryCode": "39", "address": "RR 1                          SOUTH BROOKFIELD", "city": "QUEENS COUNTY", "province": "NS", "country": "CA", "postalCode": "B0T1X0", "twitter": "None", "instagram": "None", "facebook": "None", "youtube": "None", "website": "None", "summary": "None", "logo": "None", "latitude": 44.374353000000056, "longitude": -64.97143549999993}, "107771024RR0001": {"name": "NEW LIFE CHRISTIAN FELLOWSHIP FOUNDATION", "designationCode": "C", "categoryCode": "39", "address": "5895 REEF", "city": "SECHELT", "province": "BC", "country": "CA", "postalCode": "V0N3A6", "twitter": "None", "instagram": "None", "facebook": "None", "youtube": "None", "website": "None", "summary": "None", "logo": "None", "latitude": 49.485998085204024, "longitude": -123.77061374493529}, "882849029RR0001": {"name": "NEW LIFE CHRISTIAN FELLOWSHIP OF THUNDER BAY", "designationCode": "C", "categoryCode": "39", "address": "203 OGDEN ST", "city": "THUNDER BAY", "province": "ON", "country": "CA", "postalCode": "P7C2N2", "twitter": "None", "instagram": "None", "facebook": "None", "youtube": "None", "website": "None", "summary": "None", "logo": "None", "latitude": 48.39250664392051, "longitude": -89.23875136121538}, "118967926RR0001": {"name": "NEW LIFE CHRISTIAN MINISTRIES", "designationCode": "C", "categoryCode": "47", "address": "6945 MEADOWVALE TOWN CENTRE   CIRCLE", "city": "MISSISASUGA", "province": "ON", "country": "CA", "postalCode": "L5N2W7", "twitter": "None", "instagram": "None", "facebook": "None", "youtube": "None", "website": "None", "summary": "None", "logo": "None", "latitude": 43.58247034641329, "longitude": -79.75725768269902}, "119055861RR0001": {"name": "NEW LIFE CHRISTIAN REFORMED CHURCH", "designationCode": "C", "categoryCode": "39", "address": "35270 DELAIR ROAD", "city": "ABBOTSFORD", "province": "BC", "country": "CA", "postalCode": "V3G2E2", "twitter": "None", "instagram": "None", "facebook": "None", "youtube": "None", "website": "None", "summary": "None", "logo": "None", "latitude": 49.03538467658312, "longitude": -122.2481775459059}, "871977302RR0001": {"name": "NEW LIFE CHRISTIAN REFORMED CHURCH OF GUELPH", "designationCode": "C", "categoryCode": "39", "address": "400 VICTORIA ROAD NORTH", "city": "GUELPH", "province": "ON", "country": "CA", "postalCode": "N1E5J7", "twitter": "None", "instagram": "None", "facebook": "None", "youtube": "None", "website": "None", "summary": "None", "logo": "None", "latitude": 43.576789538692545, "longitude": -80.25864744993916}, "119132892RR0001": {"name": "NEW LIFE CHURCH", "designationCode": "C", "categoryCode": "39", "address": "PO BOX 547", "city": "YARMOUTH", "province": "NS", "country": "CA", "postalCode": "B5A4B4", "twitter": "None", "instagram": "None", "facebook": "None", "youtube": "None", "website": "None", "summary": "None", "logo": "None", "latitude": 43.841274000000055, "longitude": -66.11887249999994}, "848981148RR0001": {"name": "NEW LIFE CHURCH KELOWNA", "designationCode": "C", "categoryCode": "49", "address": "100 - 2041 HARVEY AVE", "city": "KELOWNA", "province": "BC", "country": "CA", "postalCode": "V1Y6G7", "twitter": "None", "instagram": "None", "facebook": "None", "youtube": "None", "website": "None", "summary": "None", "logo": "None", "latitude": 49.88175435545494, "longitude": -119.44758285545494}, "107409310RR0001": {"name": "NEW LIFE CHURCH QUESNEL", "designationCode": "C", "categoryCode": "39", "address": "2244 ASH AVENUE", "city": "QUESNEL", "province": "BC", "country": "CA", "postalCode": "V2J3X7", "twitter": "None", "instagram": "None", "facebook": "None", "youtube": "None", "website": "None", "summary": "None", "logo": "None", "latitude": 52.97475945383431, "longitude": -122.44382197446478}, "131435711RR0001": {"name": "NEW LIFE COMMUNITY BAPTIST CHURCH", "designationCode": "C", "categoryCode": "31", "address": "1839 TZOUHALEM RD", "city": "DUNCAN", "province": "BC", "country": "CA", "postalCode": "V9L5L6", "twitter": "None", "instagram": "None", "facebook": "None", "youtube": "None", "website": "None", "summary": "None", "logo": "None", "latitude": 48.78069251269503, "longitude": -123.65955156119799}, "880800602RR0001": {"name": "NEW LIFE COMMUNITY BAPTIST CHURCH", "designationCode": "C", "categoryCode": "31", "address": "BOX 382", "city": "GRIMSBY", "province": "ON", "country": "CA", "postalCode": "L3M4H8", "twitter": "None", "instagram": "None", "facebook": "None", "youtube": "None", "website": "None", "summary": "None", "logo": "None", "latitude": 43.199079000000054, "longitude": -79.58552299999994}, "859544694RR0001": {"name": "NEW LIFE COMMUNITY CHRISTIAN CHURCH", "designationCode": "C", "categoryCode": "39", "address": "32 ROBERT STREET              RR#3", "city": "THORNTON", "province": "ON", "country": "CA", "postalCode": "L0L2N0", "twitter": "None", "instagram": "None", "facebook": "None", "youtube": "None", "website": "None", "summary": "None", "logo": "None", "latitude": 44.26963183229326, "longitude": -79.72734810547543}, "107770976RR0001": {"name": "NEW LIFE COMMUNITY CHURCH", "designationCode": "C", "categoryCode": "36", "address": "7642 - 22ND STREET, S. E.", "city": "CALGARY", "province": "AB", "country": "CA", "postalCode": "T2C0W8", "twitter": "None", "instagram": "None", "facebook": "None", "youtube": "None", "website": "None", "summary": "None", "logo": "None", "latitude": 50.98339892200934, "longitude": -114.00586689909986}, "131801417RR0001": {"name": "NEW LIFE COMMUNITY CHURCH", "designationCode": "C", "categoryCode": "39", "address": "8765 GOVERNMENT STREET", "city": "BURNABY", "province": "BC", "country": "CA", "postalCode": "V3N4G9", "twitter": "None", "instagram": "None", "facebook": "None", "youtube": "None", "website": "None", "summary": "None", "logo": "None", "latitude": 49.250275549941755, "longitude": -122.91040867382547}, "871629341RR0001": {"name": "NEW LIFE COMMUNITY CHURCH", "designationCode": "C", "categoryCode": "36", "address": "PO BOX 227", "city": "NAICAM", "province": "SK", "country": "CA", "postalCode": "S0K2Z0", "twitter": "None", "instagram": "None", "facebook": "None", "youtube": "None", "website": "None", "summary": "None", "logo": "None", "latitude": 52.42007000000007, "longitude": -104.49704999999994}, "889523775RR0001": {"name": "NEW LIFE COMMUNITY CHURCH", "designationCode": "C", "categoryCode": "36", "address": "12140 103 ST NW", "city": "EDMONTON", "province": "AB", "country": "CA", "postalCode": "T5G2J9", "twitter": "None", "instagram": "None", "facebook": "None", "youtube": "None", "website": "None", "summary": "None", "logo": "None", "latitude": 53.575749, "longitude": -113.49743926319982}, "893673921RR0001": {"name": "NEW LIFE COMMUNITY CHURCH", "designationCode": "C", "categoryCode": "36", "address": "PO BOX 188                    14152 BELMONT RD", "city": "BELMONT", "province": "ON", "country": "CA", "postalCode": "N0L1B0", "twitter": "None", "instagram": "None", "facebook": "None", "youtube": "None", "website": "None", "summary": "None", "logo": "None", "latitude": 42.88754522255691, "longitude": -81.08900333056225}, "132080342RR0001": {"name": "NEW LIFE COMMUNITY CHURCH INC", "designationCode": "C", "categoryCode": "39", "address": "P O BOX 134", "city": "WHITEWOOD", "province": "SK", "country": "CA", "postalCode": "S0G5C0", "twitter": "None", "instagram": "None", "facebook": "None", "youtube": "None", "website": "None", "summary": "None", "logo": "None", "latitude": 50.332580000000064, "longitude": -102.25940999999995}, "894152537RR0001": {"name": "NEW LIFE COMMUNITY CHURCH OF PETAWAWA, INC.", "designationCode": "C", "categoryCode": "39", "address": "2777 PETAWAWA BLVD", "city": "PETAWAWA", "province": "ON", "country": "CA", "postalCode": "K9H1Y2", "twitter": "None", "instagram": "None", "facebook": "None", "youtube": "None", "website": "None", "summary": "None", "logo": "None", "latitude": 45.8801692464941, "longitude": -77.25026133605553}, "852870575RR0001": {"name": "NEW LIFE COMMUNITY CHURCH OF STONY PLAIN", "designationCode": "C", "categoryCode": "39", "address": "5009 51 AVE", "city": "STONY PLAIN", "province": "AB", "country": "CA", "postalCode": "T7Z1C2", "twitter": "None", "instagram": "None", "facebook": "None", "youtube": "None", "website": "None", "summary": "None", "logo": "None", "latitude": 53.52865543493554, "longitude": -114.00833452706442}, "889570974RR0001": {"name": "NEW LIFE COMMUNITY CHURCH PORT COQUITLAM", "designationCode": "C", "categoryCode": "39", "address": "8765 GOVERNMENT ST.", "city": "BURNABY", "province": "BC", "country": "CA", "postalCode": "V3N4G9", "twitter": "None", "instagram": "None", "facebook": "None", "youtube": "None", "website": "None", "summary": "None", "logo": "None", "latitude": 49.250275549941755, "longitude": -122.91040867382547}, "890306046RR0001": {"name": "NEW LIFE COMMUNITY CHURCH TRUST FUND", "designationCode": "B", "categoryCode": "45", "address": "1010-789 WEST PENDER STREET", "city": "VANCOUVER", "province": "BC", "country": "CA", "postalCode": "V6C1H2", "twitter": "None", "instagram": "None", "facebook": "None", "youtube": "None", "website": "None", "summary": "None", "logo": "None", "latitude": 49.285177521524524, "longitude": -123.11559838354796}, "896323458RR0001": {"name": "NEW LIFE COMMUNITY FELLOWSHIP", "designationCode": "C", "categoryCode": "39", "address": "3900 CAREY ROAD", "city": "VICTORIA", "province": "BC", "country": "CA", "postalCode": "V8Z4E2", "twitter": "None", "instagram": "None", "facebook": "None", "youtube": "None", "website": "None", "summary": "None", "logo": "None", "latitude": 48.46363715624109, "longitude": -123.38628828463837}, "893514729RR0001": {"name": "NEW LIFE DEAF CHURCH", "designationCode": "C", "categoryCode": "36", "address": "3 - 43 KING ST E", "city": "BOWMANVILLE", "province": "ON", "country": "CA", "postalCode": "L1C1N1", "twitter": "None", "instagram": "None", "facebook": "None", "youtube": "None", "website": "None", "summary": "None", "logo": "None", "latitude": 43.91186617595491, "longitude": -78.68805087273843}, "897386249RR0001": {"name": "NEW LIFE EVANGELICAL FREE CHURCH", "designationCode": "C", "categoryCode": "39", "address": "4712 21 AVENUE N.W.", "city": "CALGARY", "province": "AB", "country": "CA", "postalCode": "T3B0W7", "twitter": "None", "instagram": "None", "facebook": "None", "youtube": "None", "website": "None", "summary": "None", "logo": "None", "latitude": 51.07460307689413, "longitude": -114.15765544168754}, "119250793RR0001": {"name": "NEW LIFE FELLOWSHIP", "designationCode": "C", "categoryCode": "36", "address": "PO BOX 899", "city": "MADOC", "province": "ON", "country": "CA", "postalCode": "K0K2K0", "twitter": "None", "instagram": "None", "facebook": "None", "youtube": "None", "website": "None", "summary": "None", "logo": "None", "latitude": 44.506080000000054, "longitude": -77.47461999999996}, "875004822RR0001": {"name": "NEW LIFE FELLOWSHIP", "designationCode": "C", "categoryCode": "36", "address": "455 HIGH ST.                  P.O. BOX 13", "city": "MACTIER", "province": "ON", "country": "CA", "postalCode": "P0C1H0", "twitter": "None", "instagram": "None", "facebook": "None", "youtube": "None", "website": "None", "summary": "None", "logo": "None", "latitude": 45.13502200222172, "longitude": -79.77009904720396}, "135459733RR0001": {"name": "NEW LIFE FELLOWSHIP BAPTIST CHURCH", "designationCode": "C", "categoryCode": "31", "address": "6881 YONGE STREET", "city": "INNISFIL", "province": "ON", "country": "CA", "postalCode": "L9S4N7", "twitter": "None", "instagram": "None", "facebook": "None", "youtube": "None", "website": "None", "summary": "None", "logo": "None", "latitude": 44.278358592590266, "longitude": -79.60776455361113}, "895986339RR0001": {"name": "NEW LIFE FELLOWSHIP CENTRE OF SAN CLARA, INCORPORATED", "designationCode": "C", "categoryCode": "39", "address": "P.O. BOX 66", "city": "SAN CLARA", "province": "MB", "country": "CA", "postalCode": "R0L1T0", "twitter": "None", "instagram": "None", "facebook": "None", "youtube": "None", "website": "None", "summary": "None", "logo": "None", "latitude": 51.493400000000065, "longitude": -101.42772999999994}, "130235526RR0001": {"name": "NEW LIFE FELLOWSHIP CHRISTIAN REFORMED CHURCH", "designationCode": "C", "categoryCode": "39", "address": "20 KELLOWAY CRESCENT          P.O. BOX 1053", "city": "RED DEER", "province": "AB", "country": "CA", "postalCode": "T4N6S5", "twitter": "None", "instagram": "None", "facebook": "None", "youtube": "None", "website": "None", "summary": "None", "logo": "None", "latitude": 52.30724467055225, "longitude": -113.81648894258157}, "118860436RR0001": {"name": "NEW LIFE FELLOWSHIP CHURCH", "designationCode": "C", "categoryCode": "39", "address": "C1A - 918 DUNDAS ST E", "city": "MISSISSAUGA", "province": "ON", "country": "CA", "postalCode": "L4Y4H9", "twitter": "None", "instagram": "None", "facebook": "None", "youtube": "None", "website": "None", "summary": "None", "logo": "None", "latitude": 43.59924409850555, "longitude": -79.59486943473397}, "891127144RR0001": {"name": "NEW LIFE FELLOWSHIP CHURCH (TAMIL)", "designationCode": "C", "categoryCode": "36", "address": "1012 ST CLARE RD", "city": "VILLE MONT ROYAL", "province": "QC", "country": "CA", "postalCode": "H3R2N1", "twitter": "None", "instagram": "None", "facebook": "None", "youtube": "None", "website": "None", "summary": "None", "logo": "None", "latitude": 45.50638698084142, "longitude": -73.64628718679664}, "894113372RR0018": {"name": "NEW LIFE FELLOWSHIP CHURCH OF THE NAZARENE", "designationCode": "C", "categoryCode": "39", "address": "9012 160 ST", "city": "SURREY", "province": "BC", "country": "CA", "postalCode": "V4N3A5", "twitter": "None", "instagram": "None", "facebook": "None", "youtube": "None", "website": "None", "summary": "None", "logo": "None", "latitude": 49.166765999999996, "longitude": -122.77883998776632}, "860765296RR0001": {"name": "NEW LIFE FELLOWSHIP INTERNATIONAL", "designationCode": "C", "categoryCode": "39", "address": "100 COSBURN AVENUE APT 205", "city": "TORONTO", "province": "ON", "country": "CA", "postalCode": "M4K2G7", "twitter": "None", "instagram": "None", "facebook": "None", "youtube": "None", "website": "None", "summary": "None", "logo": "None", "latitude": 43.68921423454887, "longitude": -79.34994886831316}, "107396905RR0022": {"name": "NEW LIFE FOURSQUARE GOSPEL CHURCH OF EDMONTON", "designationCode": "C", "categoryCode": "39", "address": "11316 130 AVE NW", "city": "EDMONTON", "province": "AB", "country": "CA", "postalCode": "T5E0T5", "twitter": "None", "instagram": "None", "facebook": "None", "youtube": "None", "website": "None", "summary": "None", "logo": "None", "latitude": 53.589737376651705, "longitude": -113.51729902816096}, "891194573RR0001": {"name": "NEW LIFE GOSPEL CHURCH", "designationCode": "C", "categoryCode": "39", "address": "2940 MARKHAM ROAD", "city": "SCARBOROUGH", "province": "ON", "country": "CA", "postalCode": "M1X1E6", "twitter": "None", "instagram": "None", "facebook": "None", "youtube": "None", "website": "None", "summary": "None", "logo": "None", "latitude": 43.82688473244276, "longitude": -79.24924306953653}, "865443956RR0001": {"name": "NEW LIFE GOSPEL TEMPLE", "designationCode": "C", "categoryCode": "39", "address": "4242 VIA RUSSO COURT", "city": "MISSISSAUGA", "province": "ON", "country": "CA", "postalCode": "L5B3P1", "twitter": "None", "instagram": "None", "facebook": "None", "youtube": "None", "website": "None", "summary": "None", "logo": "None", "latitude": 43.587784394656445, "longitude": -79.65392692174954}, "854341047RR0001": {"name": "NEW LIFE IN CHRIST BAPTIST CHURCH", "designationCode": "C", "categoryCode": "39", "address": "100 CITY CENTRE DRIVE         P.O.BOX 2149", "city": "MISSISSAUGA", "province": "ON", "country": "CA", "postalCode": "L5B3C7", "twitter": "None", "instagram": "None", "facebook": "None", "youtube": "None", "website": "None", "summary": "None", "logo": "None", "latitude": 43.5949848353917, "longitude": -79.64038587610345}, "894878362RR0001": {"name": "NEW LIFE INDIAN ALLIANCE FELLOWSHIP", "designationCode": "C", "categoryCode": "39", "address": "1779 17 STREET WEST", "city": "PRINCE ALBERT", "province": "SK", "country": "CA", "postalCode": "S6V3T6", "twitter": "None", "instagram": "None", "facebook": "None", "youtube": "None", "website": "None", "summary": "None", "logo": "None", "latitude": 53.19682217180962, "longitude": -105.79437634971434}, "852034941RR0001": {"name": "NEW LIFE KOREAN CHURCH", "designationCode": "C", "categoryCode": "39", "address": "35270 DELAIR RD", "city": "ABBOTSFORD", "province": "BC", "country": "CA", "postalCode": "V3G2E2", "twitter": "None", "instagram": "None", "facebook": "None", "youtube": "None", "website": "None", "summary": "None", "logo": "None", "latitude": 49.03538467658312, "longitude": -122.2481775459059}, "107832271RR0001": {"name": "NEW LIFE MINISTRIES", "designationCode": "C", "categoryCode": "36", "address": "8868 128TH ST", "city": "SURREY", "province": "BC", "country": "CA", "postalCode": "V3V5M7", "twitter": "None", "instagram": "None", "facebook": "None", "youtube": "None", "website": "None", "summary": "None", "logo": "None", "latitude": 49.16374200000001, "longitude": -122.86800995501773}, "886370998RR0001": {"name": "NEW LIFE MINISTRIES", "designationCode": "C", "categoryCode": "43", "address": "PO BOX 18017 RPO SHAWNESSY", "city": "CALGARY", "province": "AB", "country": "CA", "postalCode": "T2Y0K3", "twitter": "None", "instagram": "None", "facebook": "None", "youtube": "None", "website": "None", "summary": "None", "logo": "None", "latitude": 50.914087943142, "longitude": -114.09993986782452}, "890036197RR0001": {"name": "NEW LIFE MINISTRIES", "designationCode": "C", "categoryCode": "39", "address": "PO BOX 18                     NEW HARBOUR", "city": "TRINITY BAY", "province": "NL", "country": "CA", "postalCode": "A0B2P0", "twitter": "None", "instagram": "None", "facebook": "None", "youtube": "None", "website": "None", "summary": "None", "logo": "None", "latitude": 48.04142100000006, "longitude": -53.10215899999993}, "135081982RR0001": {"name": "NEW LIFE MINISTRIES INC", "designationCode": "C", "categoryCode": "39", "address": "514 MARYLAND ST", "city": "WINNIPEG", "province": "MB", "country": "CA", "postalCode": "R3G1M5", "twitter": "None", "instagram": "None", "facebook": "None", "youtube": "None", "website": "None", "summary": "None", "logo": "None", "latitude": 49.89432715237461, "longitude": -97.1601428586183}, "867515587RR0001": {"name": "NEW LIFE MINISTRIES INT", "designationCode": "C", "categoryCode": "39", "address": "3638 LAWRENCE AVENUE EAST", "city": "SCARBOROUGH", "province": "ON", "country": "CA", "postalCode": "M1G1P6", "twitter": "None", "instagram": "None", "facebook": "None", "youtube": "None", "website": "None", "summary": "None", "logo": "None", "latitude": 43.76049315462499, "longitude": -79.22223768916257}, "831158548RR0001": {"name": "NEW LIFE MINISTRIES THUNDER BAY", "designationCode": "C", "categoryCode": "49", "address": "107 JOHNSON AVE", "city": "THUNDER BAY", "province": "ON", "country": "CA", "postalCode": "P7B2V9", "twitter": "None", "instagram": "None", "facebook": "None", "youtube": "None", "website": "None", "summary": "None", "logo": "None", "latitude": 48.430253430875176, "longitude": -89.22673173768571}, "857055206RR0001": {"name": "NEW LIFE MINISTRIES UNITED PENTECOSTAL CHURCH", "designationCode": "C", "categoryCode": "39", "address": "35 GRANDVIEW DRIVE", "city": "WOLFVILLE", "province": "NS", "country": "CA", "postalCode": "B4P1W9", "twitter": "None", "instagram": "None", "facebook": "None", "youtube": "None", "website": "None", "summary": "None", "logo": "None", "latitude": 45.07961790758263, "longitude": -64.37043771922811}, "107771081RR0001": {"name": "NEW LIFE MISSION", "designationCode": "C", "categoryCode": "39", "address": "P.O. BOX 712 STN MAIN", "city": "KAMLOOPS", "province": "BC", "country": "CA", "postalCode": "V2C5L7", "twitter": "None", "instagram": "None", "facebook": "None", "youtube": "None", "website": "None", "summary": "None", "logo": "None", "latitude": 50.675883000000056, "longitude": -120.33898099999993}, "140423187RR0001": {"name": "NEW LIFE MISSION INC", "designationCode": "C", "categoryCode": "49", "address": "PO BOX 2", "city": "MONCTON", "province": "NB", "country": "CA", "postalCode": "E1C8R9", "twitter": "None", "instagram": "None", "facebook": "None", "youtube": "None", "website": "None", "summary": "None", "logo": "None", "latitude": 46.08834900000005, "longitude": -64.77824149999994}, "132188566RR0001": {"name": "NEW LIFE MISSIONARY BAPTIST CHURCH", "designationCode": "C", "categoryCode": "31", "address": "P5-1701 MCCOWAN RD", "city": "TORONTO", "province": "ON", "country": "CA", "postalCode": "M1S2Y3", "twitter": "None", "instagram": "None", "facebook": "None", "youtube": "None", "website": "None", "summary": "None", "logo": "None", "latitude": 43.78773061010406, "longitude": -79.25745531418524}, "890636392RR0001": {"name": "NEW LIFE OUTREACH", "designationCode": "C", "categoryCode": "49", "address": "287 MARGATE CLOSE NE", "city": "CALGARY", "province": "AB", "country": "CA", "postalCode": "T2A3E5", "twitter": "None", "instagram": "None", "facebook": "None", "youtube": "None", "website": "None", "summary": "None", "logo": "None", "latitude": 51.06036653318127, "longitude": -113.97425383236194}, "899585087RR0001": {"name": "NEW LIFE OUTREACH FELLOWSHIP", "designationCode": "C", "categoryCode": "39", "address": "4409 TRANS CANADA HWY", "city": "TAPPEN", "province": "BC", "country": "CA", "postalCode": "V0E2X2", "twitter": "None", "instagram": "None", "facebook": "None", "youtube": "None", "website": "None", "summary": "None", "logo": "None", "latitude": 50.80549328312771, "longitude": -119.32228192173017}, "119056125RR0001": {"name": "NEW LIFE PENTECOSTAL ASSEMBLY", "designationCode": "C", "categoryCode": "36", "address": "352 COUNTY RD  NO.2           R,R,#2", "city": "BELLE RIVER", "province": "ON", "country": "CA", "postalCode": "N0R1A0", "twitter": "None", "instagram": "None", "facebook": "None", "youtube": "None", "website": "None", "summary": "None", "logo": "None", "latitude": 42.28923300000005, "longitude": -82.71911149999994}, "124089012RR0001": {"name": "NEW LIFE PENTECOSTAL ASSEMBLY", "designationCode": "C", "categoryCode": "36", "address": "20 ESTEN DR S                 BARRY HUNTER(TRESURER)", "city": "ELLIOT LAKE", "province": "ON", "country": "CA", "postalCode": "P5A3N8", "twitter": "None", "instagram": "None", "facebook": "None", "youtube": "None", "website": "None", "summary": "None", "logo": "None", "latitude": 46.366152000000056, "longitude": -82.62101599999994}, "131135303RR0001": {"name": "NEW LIFE PENTECOSTAL ASSEMBLY", "designationCode": "C", "categoryCode": "36", "address": "85 CLENCH AVENUE", "city": "BRANTFORD", "province": "ON", "country": "CA", "postalCode": "N3T1C1", "twitter": "None", "instagram": "None", "facebook": "None", "youtube": "None", "website": "None", "summary": "None", "logo": "None", "latitude": 43.12567968171807, "longitude": -80.2684396957121}, "893771121RR0001": {"name": "NEW LIFE PENTECOSTAL ASSEMBLY", "designationCode": "C", "categoryCode": "36", "address": "BOX 656", "city": "DAVIDSON", "province": "SK", "country": "CA", "postalCode": "S0G1A0", "twitter": "None", "instagram": "None", "facebook": "None", "youtube": "None", "website": "None", "summary": "None", "logo": "None", "latitude": 51.26742000000007, "longitude": -105.99597999999997}, "888211844RR0001": {"name": "NEW LIFE PENTECOSTAL ASSEMBLY OF KITCHENER", "designationCode": "C", "categoryCode": "36", "address": "100 CASTLEWOOD PL", "city": "CAMBRIDGE", "province": "ON", "country": "CA", "postalCode": "N1R8K7", "twitter": "None", "instagram": "None", "facebook": "None", "youtube": "None", "website": "None", "summary": "None", "logo": "None", "latitude": 43.34346773189448, "longitude": -80.2983697406084}, "107771156RR0001": {"name": "NEW LIFE PENTECOSTAL CHURCH", "designationCode": "C", "categoryCode": "36", "address": "824 THOMPSON RD .S.", "city": "MILTON", "province": "ON", "country": "CA", "postalCode": "L9T2X5", "twitter": "None", "instagram": "None", "facebook": "None", "youtube": "None", "website": "None", "summary": "None", "logo": "None", "latitude": 43.51185719868349, "longitude": -79.84509298330806}, "867918781RR0001": {"name": "NEW LIFE PENTECOSTAL CHURCH", "designationCode": "C", "categoryCode": "39", "address": "PO BOX 21043 RPO CRESCENT HTS", "city": "MEDICINE HAT", "province": "AB", "country": "CA", "postalCode": "T1A8M3", "twitter": "None", "instagram": "None", "facebook": "None", "youtube": "None", "website": "None", "summary": "None", "logo": "None", "latitude": 50.049769988891526, "longitude": -110.6874100366437}, "871638144RR0001": {"name": "NEW LIFE PENTECOSTAL CHURCH", "designationCode": "C", "categoryCode": "36", "address": "200 INDUSTRIAL DRIVE", "city": "GRAVENHURST", "province": "ON", "country": "CA", "postalCode": "P1P1X4", "twitter": "None", "instagram": "None", "facebook": "None", "youtube": "None", "website": "None", "summary": "None", "logo": "None", "latitude": 44.93619479713185, "longitude": -79.36188367678466}, "896886496RR0001": {"name": "NEW LIFE PENTECOSTAL CHURCH", "designationCode": "C", "categoryCode": "39", "address": "33668 MCDOUGALL AVENUE", "city": "ABBOTSFORD", "province": "BC", "country": "CA", "postalCode": "V2S1W4", "twitter": "None", "instagram": "None", "facebook": "None", "youtube": "None", "website": "None", "summary": "None", "logo": "None", "latitude": 49.04556248845881, "longitude": -122.29164938773155}, "890936875RR0001": {"name": "NEW LIFE PENTECOSTAL CHURCH OF DOWNSVIEW", "designationCode": "C", "categoryCode": "39", "address": "3975 JANE ST                  PO BOX 21120", "city": "DOWNSVIEW", "province": "ON", "country": "CA", "postalCode": "M3N3A3", "twitter": "None", "instagram": "None", "facebook": "None", "youtube": "None", "website": "None", "summary": "None", "logo": "None", "latitude": 43.75645356832767, "longitude": -79.51741267626893}, "871310827RR0001": {"name": "NEW LIFE PENTECOSTAL FELLOWSHIP", "designationCode": "C", "categoryCode": "36", "address": "PO BOX 318", "city": "ELKFORD", "province": "BC", "country": "CA", "postalCode": "V0B1H0", "twitter": "None", "instagram": "None", "facebook": "None", "youtube": "None", "website": "None", "summary": "None", "logo": "None", "latitude": 50.02091000000007, "longitude": -114.91669999999999}, "850019415RR0001": {"name": "NEW LIFE PRISON MINISTRY", "designationCode": "C", "categoryCode": "47", "address": "PO BOX 123", "city": "ARVA", "province": "ON", "country": "CA", "postalCode": "N0M1C0", "twitter": "None", "instagram": "None", "facebook": "None", "youtube": "None", "website": "None", "summary": "None", "logo": "None", "latitude": 43.05022943867636, "longitude": -81.29159978618908}, "107797383RR0063": {"name": "NEW LIFE SEVENTH-DAY ADVENTIST CHURCH", "designationCode": "C", "categoryCode": "39", "address": "33 OLIVE AVENUE", "city": "OSHAWA", "province": "ON", "country": "CA", "postalCode": "L1H2N7", "twitter": "None", "instagram": "None", "facebook": "None", "youtube": "None", "website": "None", "summary": "None", "logo": "None", "latitude": 43.888824439969255, "longitude": -78.85827541327572}, "118818491RR0071": {"name": "NEW LIFE SEVENTH-DAY ADVENTIST CHURCH", "designationCode": "C", "categoryCode": "41", "address": "PO 1000", "city": "ABBOTSFORD", "province": "BC", "country": "CA", "postalCode": "V2S4P5", "twitter": "None", "instagram": "None", "facebook": "None", "youtube": "None", "website": "None", "summary": "None", "logo": "None", "latitude": 49.03851300000005, "longitude": -122.29441549999993}, "140037706RR0001": {"name": "NEW LIFE TABERNACLE OF RED DEER CHURCH", "designationCode": "C", "categoryCode": "36", "address": "4801 48 ST", "city": "RED DEER", "province": "AB", "country": "CA", "postalCode": "T4N1S6", "twitter": "None", "instagram": "None", "facebook": "None", "youtube": "None", "website": "None", "summary": "None", "logo": "None", "latitude": 52.26707754674263, "longitude": -113.8092615}, "119056182RR0001": {"name": "NEW LIFE TABERNACLE U.P.C. INC.", "designationCode": "C", "categoryCode": "39", "address": "2ND AVE NE BOX 1262", "city": "PREECEVILLE", "province": "SK", "country": "CA", "postalCode": "S0A3B0", "twitter": "None", "instagram": "None", "facebook": "None", "youtube": "None", "website": "None", "summary": "None", "logo": "None", "latitude": 51.956075831552745, "longitude": -102.66441332123136}, "107771180RR0001": {"name": "NEW LIFE UNITED PENTECOSTAL CHURCH", "designationCode": "C", "categoryCode": "39", "address": "17  CHURCH STREET", "city": "BLACKVILLE", "province": "NB", "country": "CA", "postalCode": "E9B1M7", "twitter": "None", "instagram": "None", "facebook": "None", "youtube": "None", "website": "None", "summary": "None", "logo": "None", "latitude": 46.727346681603436, "longitude": -65.83534680356581}, "858740046RR0001": {"name": "NEW LIFE UNITED PENTECOSTAL CHURCH", "designationCode": "C", "categoryCode": "39", "address": "PO BOX 150", "city": "TRINITY B-V", "province": "NL", "country": "CA", "postalCode": "A0G4L0", "twitter": "None", "instagram": "None", "facebook": "None", "youtube": "None", "website": "None", "summary": "None", "logo": "None", "latitude": 49.18741800000005, "longitude": -54.38943799999993}}