{"119239861RR0001": {"name": "THE JOSEPH FRIEBERG FAMILY CHARITABLE FOUNDATION", "designationCode": "B", "categoryCode": "03", "address": "3300 HIGHWAY NO 7, 7TH FLOOR", "city": "CONDORD", "province": "ON", "country": "CA", "postalCode": "L4K4M3", "twitter": "None", "instagram": "None", "facebook": "None", "youtube": "None", "website": "None", "summary": "None", "logo": "None", "latitude": 43.792710000000056, "longitude": -79.53130249999994}, "869193110RR0001": {"name": "THE JOSEPH H. M. WOOD FOUNDATION", "designationCode": "B", "categoryCode": "03", "address": "17 JENNIFER CRESCENT", "city": "SHARON", "province": "ON", "country": "CA", "postalCode": "L0G1V0", "twitter": "None", "instagram": "None", "facebook": "None", "youtube": "None", "website": "None", "summary": "None", "logo": "None", "latitude": 44.101729688845474, "longitude": -79.43522810768081}, "119239838RR0001": {"name": "THE JOSEPH LEBOVIC CHARITABLE FOUNDATION", "designationCode": "B", "categoryCode": "03", "address": "PO BOX 1240 STN MAIN", "city": "STOUFFVILLE", "province": "ON", "country": "CA", "postalCode": "L4A8A2", "twitter": "None", "instagram": "None", "facebook": "None", "youtube": "None", "website": "None", "summary": "None", "logo": "None", "latitude": 43.97028268018356, "longitude": -79.251601854151}, "119239903RR0001": {"name": "THE JOSEPH PARSHAN CHARITABLE FOUNDATION", "designationCode": "B", "categoryCode": "23", "address": "3636 BATHURST STREET #2001", "city": "TORONTO", "province": "ON", "country": "CA", "postalCode": "M6A2Y5", "twitter": "None", "instagram": "None", "facebook": "None", "youtube": "None", "website": "None", "summary": "None", "logo": "None", "latitude": 43.73255129003406, "longitude": -79.4328971049395}, "877513184RR0001": {"name": "THE JOSEPH RUBIN FOUNDATION", "designationCode": "B", "categoryCode": "03", "address": "25 YORKDOWNS DR", "city": "DOWNSVIEW", "province": "ON", "country": "CA", "postalCode": "M3H1H7", "twitter": "None", "instagram": "None", "facebook": "None", "youtube": "None", "website": "None", "summary": "None", "logo": "None", "latitude": 43.74666314019827, "longitude": -79.43219597887952}, "119239911RR0001": {"name": "THE JOSEPH SEGAL FAMILY FOUNDATION", "designationCode": "B", "categoryCode": "03", "address": "520-701 WEST GEORGIA STREET", "city": "VANCOUVER", "province": "BC", "country": "CA", "postalCode": "V7Y1A1", "twitter": "None", "instagram": "None", "facebook": "None", "youtube": "None", "website": "None", "summary": "None", "logo": "None", "latitude": 49.28255433294714, "longitude": -123.11815347507613}, "108085564RR0001": {"name": "THE JOSEPH TANENBAUM CHARITABLE FOUNDATION", "designationCode": "B", "categoryCode": "03", "address": "1051 TAPSCOTT ROAD", "city": "SCARBOROUGH", "province": "ON", "country": "CA", "postalCode": "M1X1A1", "twitter": "None", "instagram": "None", "facebook": "None", "youtube": "None", "website": "None", "summary": "None", "logo": "None", "latitude": 43.82487783461231, "longitude": -79.24262752622865}, "819160011RR0001": {"name": "THE JOSEPH WILLIAM AND MARGARET WALSH FAMILY FOUNDATION", "designationCode": "B", "categoryCode": "03", "address": "67 GENERAL MANSON WAY         P.O. BOX 369", "city": "MIRAMICHI", "province": "NB", "country": "CA", "postalCode": "E1N3A7", "twitter": "None", "instagram": "None", "facebook": "None", "youtube": "None", "website": "None", "summary": "None", "logo": "None", "latitude": 47.01416366022892, "longitude": -65.4447442961148}, "825681547RR0001": {"name": "THE JOSEPHINE HENDERSON FOUNDATION", "designationCode": "B", "categoryCode": "03", "address": "130 KING ST W 20TH FLR", "city": "TORONTO", "province": "ON", "country": "CA", "postalCode": "M5X1K1", "twitter": "None", "instagram": "None", "facebook": "None", "youtube": "None", "website": "None", "summary": "None", "logo": "None", "latitude": 43.64798216515656, "longitude": -79.38336717805407}, "894434703RR0001": {"name": "THE JOSH PLATZER SOCIETY FOR TEEN SUICIDE PREVENTION AND AWARENESS", "designationCode": "C", "categoryCode": "09", "address": "2663 WEST 10TH AVE", "city": "VANCOUVER", "province": "BC", "country": "CA", "postalCode": "V6K2J8", "twitter": "None", "instagram": "None", "facebook": "None", "youtube": "None", "website": "None", "summary": "None", "logo": "None", "latitude": 49.26323536369319, "longitude": -123.16565172292653}, "881987705RR0001": {"name": "THE JOSHUA AND CALEB TRUST", "designationCode": "C", "categoryCode": "45", "address": "30 GOODFELLOW CRES.", "city": "BOLTON", "province": "ON", "country": "CA", "postalCode": "L7E5X4", "twitter": "None", "instagram": "None", "facebook": "None", "youtube": "None", "website": "None", "summary": "None", "logo": "None", "latitude": 43.896477309481114, "longitude": -79.73911024482065}, "895579829RR0001": {"name": "THE JOSHUA FOUNDATION INC.", "designationCode": "B", "categoryCode": "03", "address": "1504-201 PORTAGE AVE", "city": "WINNIPEG", "province": "MB", "country": "CA", "postalCode": "R3B3K6", "twitter": "None", "instagram": "None", "facebook": "None", "youtube": "None", "website": "None", "summary": "None", "logo": "None", "latitude": 49.895359615067065, "longitude": -97.13919299627776}, "862138161RR0001": {"name": "THE JOSHUA GROUP INC.", "designationCode": "C", "categoryCode": "09", "address": "P.O. BOX 4436", "city": "ROTHESAY", "province": "NB", "country": "CA", "postalCode": "E2E5X3", "twitter": "None", "instagram": "None", "facebook": "None", "youtube": "None", "website": "None", "summary": "None", "logo": "None", "latitude": 45.380919929916686, "longitude": -65.99681338202436}, "863730180RR0001": {"name": "THE JOURNEY CHRISTIAN REFORMED CHURCH", "designationCode": "C", "categoryCode": "39", "address": "16 EBY ST N", "city": "KITCHENER", "province": "ON", "country": "CA", "postalCode": "N2H2V6", "twitter": "None", "instagram": "None", "facebook": "None", "youtube": "None", "website": "None", "summary": "None", "logo": "None", "latitude": 43.44833664363204, "longitude": -80.4841569476888}, "804500064RR0001": {"name": "THE JOURNEY CHURCH INC.", "designationCode": "C", "categoryCode": "31", "address": "1539 SALISBURY ROAD", "city": "MONCTON", "province": "NB", "country": "CA", "postalCode": "E1E4P5", "twitter": "None", "instagram": "None", "facebook": "None", "youtube": "None", "website": "None", "summary": "None", "logo": "None", "latitude": 46.056325688724534, "longitude": -64.88594373352035}, "865946107RR0001": {"name": "THE JOURNEY CHURCH OF GOD", "designationCode": "C", "categoryCode": "39", "address": "10162 152 STREET", "city": "EDMONTON", "province": "AB", "country": "CA", "postalCode": "T5P1X9", "twitter": "None", "instagram": "None", "facebook": "None", "youtube": "None", "website": "None", "summary": "None", "logo": "None", "latitude": 53.54311427699233, "longitude": -113.58331720376219}, "851694166RR0001": {"name": "THE JOURNEY WITH CHRIST CHURCH (NORTH EDMONTON)", "designationCode": "C", "categoryCode": "31", "address": "15420 132 ST NW", "city": "EDMONTON", "province": "AB", "country": "CA", "postalCode": "T6V1B9", "twitter": "None", "instagram": "None", "facebook": "None", "youtube": "None", "website": "None", "summary": "None", "logo": "None", "latitude": 53.6160804940274, "longitude": -113.54817305277254}, "891163347RR0001": {"name": "THE JOVAN DUCIC CANADIAN-SERBIAN CHARITABLE SOCIETY", "designationCode": "C", "categoryCode": "01", "address": "511 THE WEST MALL #1211", "city": "ETOBICOKE", "province": "ON", "country": "CA", "postalCode": "M9C1G5", "twitter": "None", "instagram": "None", "facebook": "None", "youtube": "None", "website": "None", "summary": "None", "logo": "None", "latitude": 43.65053800888681, "longitude": -79.56913829167884}, "875940124RR0001": {"name": "THE JOY FM NETWORK INC", "designationCode": "C", "categoryCode": "47", "address": "778 MACLAREN AVE", "city": "FREDERICTON", "province": "NB", "country": "CA", "postalCode": "E3A3L7", "twitter": "None", "instagram": "None", "facebook": "None", "youtube": "None", "website": "None", "summary": "None", "logo": "None", "latitude": 45.96546291006413, "longitude": -66.61766606662235}, "896726353RR0001": {"name": "THE JOY LIVING SOCIETY", "designationCode": "C", "categoryCode": "01", "address": "3036 EAST GEORGIA STREET", "city": "VANCOUVER", "province": "BC", "country": "CA", "postalCode": "V5K2K7", "twitter": "None", "instagram": "None", "facebook": "None", "youtube": "None", "website": "None", "summary": "None", "logo": "None", "latitude": 49.278247513994046, "longitude": -123.04059244463039}, "888364676RR0001": {"name": "THE JOYCE STATION AREA PLANNING ASSOCIATION", "designationCode": "C", "categoryCode": "59", "address": "5160 JOYCE ST", "city": "VANCOUVER", "province": "BC", "country": "CA", "postalCode": "V5R4H1", "twitter": "None", "instagram": "None", "facebook": "None", "youtube": "None", "website": "None", "summary": "None", "logo": "None", "latitude": 49.237633069652105, "longitude": -123.03242831040473}, "119239945RR0001": {"name": "THE JOYRIDERS THERAPEUTIC RIDING ASSOCIATION OF P E I INC", "designationCode": "C", "categoryCode": "56", "address": "P.O. BOX 20149", "city": "CHARLOTTETOWN", "province": "PE", "country": "CA", "postalCode": "C1A9E3", "twitter": "None", "instagram": "None", "facebook": "None", "youtube": "None", "website": "None", "summary": "None", "logo": "None", "latitude": 46.23659700000006, "longitude": -63.12815449999994}, "889391793RR0001": {"name": "THE JUBILEE CHARITABLE TRUST", "designationCode": "B", "categoryCode": "05", "address": "906-10 ELLEN ST. E.", "city": "KITCHENER", "province": "ON", "country": "CA", "postalCode": "N2H6R8", "twitter": "None", "instagram": "None", "facebook": "None", "youtube": "None", "website": "None", "summary": "None", "logo": "None", "latitude": 43.455022813520465, "longitude": -80.48423908739704}, "867585481RR0001": {"name": "THE JUBILEE FUND INC", "designationCode": "C", "categoryCode": "09", "address": "207 FORT STREET               SUITE 210", "city": "WINNIPEG", "province": "MB", "country": "CA", "postalCode": "R3C1E8", "twitter": "None", "instagram": "None", "facebook": "None", "youtube": "None", "website": "None", "summary": "None", "logo": "None", "latitude": 49.8918426386404, "longitude": -97.1380482877837}, "871663696RR0001": {"name": "THE JUBILO TRUST", "designationCode": "B", "categoryCode": "45", "address": "2900-550 BURRARD ST", "city": "VANCOUVER", "province": "BC", "country": "CA", "postalCode": "V6C0A3", "twitter": "None", "instagram": "None", "facebook": "None", "youtube": "None", "website": "None", "summary": "None", "logo": "None", "latitude": 49.28596391921073, "longitude": -123.11870289255033}, "849179544RR0001": {"name": "THE JUDY CARDIFF FOUNDATION FOR ARTS EDUCATION", "designationCode": "C", "categoryCode": "21", "address": "363 LEE CIRCLE", "city": "WATERLOO", "province": "ON", "country": "CA", "postalCode": "N2K2L8", "twitter": "None", "instagram": "None", "facebook": "None", "youtube": "None", "website": "None", "summary": "None", "logo": "None", "latitude": 43.49770841078528, "longitude": -80.50437311616358}, "866080484RR0001": {"name": "THE JUNCTION, SMITHS FALLS AND DISTRICT CLUB FOR YOUTH", "designationCode": "C", "categoryCode": "09", "address": "41 MAIN ST W", "city": "SMITHS FALLS", "province": "ON", "country": "CA", "postalCode": "K7A1M7", "twitter": "None", "instagram": "None", "facebook": "None", "youtube": "None", "website": "None", "summary": "None", "logo": "None", "latitude": 44.899427965583705, "longitude": -76.02310269479909}, "887501211RR0001": {"name": "THE JUNIOR ACHIEVEMENT OF CANADA FOUNDATION", "designationCode": "A", "categoryCode": "23", "address": "161 BAY ST, 27TH FLOOR", "city": "TORONTO", "province": "ON", "country": "CA", "postalCode": "M5J2S1", "twitter": "None", "instagram": "None", "facebook": "None", "youtube": "None", "website": "None", "summary": "None", "logo": "None", "latitude": 43.64642022038195, "longitude": -79.37926790766953}, "107554446RR0001": {"name": "THE JUNIOR LEAGUE OF CALGARY", "designationCode": "C", "categoryCode": "29", "address": "511 22 AVE S.W.", "city": "CALGARY", "province": "AB", "country": "CA", "postalCode": "T2S0H5", "twitter": "None", "instagram": "None", "facebook": "None", "youtube": "None", "website": "None", "summary": "None", "logo": "None", "latitude": 51.03333147792724, "longitude": -114.07225436081136}, "107554453RR0001": {"name": "THE JUNIOR LEAGUE OF EDMONTON", "designationCode": "C", "categoryCode": "53", "address": "1101-10250 101ST", "city": "EDMONTON", "province": "AB", "country": "CA", "postalCode": "T5J3P4", "twitter": "None", "instagram": "None", "facebook": "None", "youtube": "None", "website": "None", "summary": "None", "logo": "None", "latitude": 53.54405270774424, "longitude": -113.49371002891075}, "135275931RR0002": {"name": "THE JUNIOR LEAGUE OF HAMILTON-BURLINGTON INC.", "designationCode": "C", "categoryCode": "59", "address": "1424 PLAINS ROAD WEST", "city": "BURLINGTON", "province": "ON", "country": "CA", "postalCode": "L7T1H6", "twitter": "None", "instagram": "None", "facebook": "None", "youtube": "None", "website": "None", "summary": "None", "logo": "None", "latitude": 43.29596902466985, "longitude": -79.89230931741561}, "119240042RR0001": {"name": "THE JUNIOR LEAGUE OF TORONTO", "designationCode": "C", "categoryCode": "29", "address": "539A MT PLEASANT ROAD", "city": "TORONTO", "province": "ON", "country": "CA", "postalCode": "M4S2M5", "twitter": "None", "instagram": "None", "facebook": "None", "youtube": "None", "website": "None", "summary": "None", "logo": "None", "latitude": 43.70266367591128, "longitude": -79.38782271962053}, "119240075RR0001": {"name": "THE JUR-ED FOUNDATION", "designationCode": "C", "categoryCode": "20", "address": "31 PRINCE ARTHUR AVE", "city": "TORONTO", "province": "ON", "country": "CA", "postalCode": "M5R1B2", "twitter": "None", "instagram": "None", "facebook": "None", "youtube": "None", "website": "None", "summary": "None", "logo": "None", "latitude": 43.669418794881494, "longitude": -79.39685731473256}, "806765673RR0001": {"name": "THE JUST SOCIETY", "designationCode": "C", "categoryCode": "59", "address": "1500 WEST GEORGIA STREET      SUITE 1250, BOX 62", "city": "VANCOUVER", "province": "BC", "country": "CA", "postalCode": "V6G2Z6", "twitter": "None", "instagram": "None", "facebook": "None", "youtube": "None", "website": "None", "summary": "None", "logo": "None", "latitude": 49.2900638104334, "longitude": -123.12989899362336}, "887283463RR0001": {"name": "THE JUSTICE EMMETT HALL MEMORIAL FOUNDATION, INC.", "designationCode": "C", "categoryCode": "21", "address": "201-2206 EAST MALL", "city": "VANCOUVER", "province": "BC", "country": "CA", "postalCode": "V6T1Z3", "twitter": "None", "instagram": "None", "facebook": "None", "youtube": "None", "website": "None", "summary": "None", "logo": "None", "latitude": 49.26415080151593, "longitude": -123.24909142170006}, "885359620RR0001": {"name": "THE JUSTIN EVES FOUNDATION", "designationCode": "C", "categoryCode": "03", "address": "BAY-ADELAIDE CENTRE           1700-333 BAY ST", "city": "TORONTO", "province": "ON", "country": "CA", "postalCode": "M5H2R2", "twitter": "None", "instagram": "None", "facebook": "None", "youtube": "None", "website": "None", "summary": "None", "logo": "None", "latitude": 43.65163000000007, "longitude": -79.37915999999996}, "119240984RR0001": {"name": "THE K M HUNTER CHARITABLE FOUNDATION", "designationCode": "B", "categoryCode": "03", "address": "PO BOX 38 STATION E", "city": "TORONTO", "province": "ON", "country": "CA", "postalCode": "M6H4E1", "twitter": "None", "instagram": "None", "facebook": "None", "youtube": "None", "website": "None", "summary": "None", "logo": "None", "latitude": 43.66506300000006, "longitude": -79.43870599999994}, "886472992RR0001": {"name": "THE K OF C FOREIGN MISSION FUND INC", "designationCode": "C", "categoryCode": "21", "address": "P.O. BOX 3055", "city": "CHARLOTTETOWN", "province": "PE", "country": "CA", "postalCode": "C1A1N9", "twitter": "None", "instagram": "None", "facebook": "None", "youtube": "None", "website": "None", "summary": "None", "logo": "None", "latitude": 46.23661500000006, "longitude": -63.12685399999994}, "119241255RR0001": {"name": "THE K-W LUTHERAN SCHOOL SOCIETY", "designationCode": "C", "categoryCode": "20", "address": "137 QUEEN ST S", "city": "KITCHENER", "province": "ON", "country": "CA", "postalCode": "N2G1W2", "twitter": "None", "instagram": "None", "facebook": "None", "youtube": "None", "website": "None", "summary": "None", "logo": "None", "latitude": 43.44837578876465, "longitude": -80.49066355811091}, "119252625RR0001": {"name": "THE KABBALAH LEARNING CENTRE (CANADA)", "designationCode": "C", "categoryCode": "49", "address": "678 SHEPPARD AVENUE WEST", "city": "TORONTO", "province": "ON", "country": "CA", "postalCode": "M3H2S5", "twitter": "None", "instagram": "None", "facebook": "None", "youtube": "None", "website": "None", "summary": "None", "logo": "None", "latitude": 43.75466716905171, "longitude": -79.44276576908646}, "883591117RR0001": {"name": "THE KAHANOFF CENTRE FOR CHARITABLE ACTIVITIES", "designationCode": "A", "categoryCode": "03", "address": "200-105 12 AVENUE SE", "city": "CALGARY", "province": "AB", "country": "CA", "postalCode": "T2G1A1", "twitter": "None", "instagram": "None", "facebook": "None", "youtube": "None", "website": "None", "summary": "None", "logo": "None", "latitude": 51.04136053621104, "longitude": -114.06274186372553}, "804884427RR0001": {"name": "THE KALGIDHAR TRUST", "designationCode": "C", "categoryCode": "39", "address": "79 PENNY ROYAL CRESCENT", "city": "BRAMPTON", "province": "ON", "country": "CA", "postalCode": "L6S6J4", "twitter": "None", "instagram": "None", "facebook": "None", "youtube": "None", "website": "None", "summary": "None", "logo": "None", "latitude": 43.75755600000005, "longitude": -79.72572499999994}, "858203904RR0001": {"name": "THE KALIMIN FOUNDATION", "designationCode": "B", "categoryCode": "03", "address": "27 AYLESBURY ROAD", "city": "ETOBICOKE", "province": "ON", "country": "CA", "postalCode": "M9A2M3", "twitter": "None", "instagram": "None", "facebook": "None", "youtube": "None", "website": "None", "summary": "None", "logo": "None", "latitude": 43.66615658338635, "longitude": -79.53659378143571}, "129893715RR0001": {"name": "THE KAMLOOPS & DISTRICT SOCIETY FOR PEOPLE IN MOTION", "designationCode": "C", "categoryCode": "59", "address": "182B TRANQUILLE ROAD", "city": "KAMLOOPS", "province": "BC", "country": "CA", "postalCode": "V2B3G1", "twitter": "None", "instagram": "None", "facebook": "None", "youtube": "None", "website": "None", "summary": "None", "logo": "None", "latitude": 50.68516700991374, "longitude": -120.35506376744401}, "107556086RR0001": {"name": "THE KAMLOOPS AND DISTRICT ELIZABETH FRY SOCIETY", "designationCode": "C", "categoryCode": "59", "address": "827 SEYMOUR ST", "city": "KAMLOOPS", "province": "BC", "country": "CA", "postalCode": "V2C2H6", "twitter": "None", "instagram": "None", "facebook": "None", "youtube": "None", "website": "None", "summary": "None", "logo": "None", "latitude": 50.6748894740321, "longitude": -120.32052130252754}, "892934365RR0001": {"name": "THE KAMLOOPS CAMPUS MINISTRIES SOCIETY", "designationCode": "C", "categoryCode": "39", "address": "691 BELMONT CRES", "city": "KAMLOOPS", "province": "BC", "country": "CA", "postalCode": "V2B1X4", "twitter": "None", "instagram": "None", "facebook": "None", "youtube": "None", "website": "None", "summary": "None", "logo": "None", "latitude": 50.7039919114491, "longitude": -120.36038779185174}, "132712670RR0001": {"name": "THE KAMLOOPS COMMUNITY VOLUNTEER SERVICE SOCIETY", "designationCode": "C", "categoryCode": "59", "address": "705 SEYMOUR STREET", "city": "KAMLOOPS", "province": "BC", "country": "CA", "postalCode": "V2C2H4", "twitter": "None", "instagram": "None", "facebook": "None", "youtube": "None", "website": "None", "summary": "None", "logo": "None", "latitude": 50.67489847403208, "longitude": -120.32402302553523}, "119298149RR0001": {"name": "THE KAMLOOPS WILDLIFE PARK SOCIETY", "designationCode": "C", "categoryCode": "50", "address": "9077 DALLAS DR", "city": "KAMLOOPS", "province": "BC", "country": "CA", "postalCode": "V2C6V1", "twitter": "None", "instagram": "None", "facebook": "None", "youtube": "None", "website": "None", "summary": "None", "logo": "None", "latitude": 50.6547765905997, "longitude": -120.07557744338962}, "140768672RR0001": {"name": "THE KAMSACK PLAYHOUSE INC", "designationCode": "C", "categoryCode": "22", "address": "BOX 2005", "city": "KAMSACK", "province": "SK", "country": "CA", "postalCode": "S0A1S0", "twitter": "None", "instagram": "None", "facebook": "None", "youtube": "None", "website": "None", "summary": "None", "logo": "None", "latitude": 51.63817289172365, "longitude": -101.65758543154911}, "892424144RR0001": {"name": "THE KANATA ORTHODOX CHURCH FOUNDATION", "designationCode": "B", "categoryCode": "43", "address": "44 CRAIGHURST AVE", "city": "TORONTO", "province": "ON", "country": "CA", "postalCode": "M4R1J8", "twitter": "None", "instagram": "None", "facebook": "None", "youtube": "None", "website": "None", "summary": "None", "logo": "None", "latitude": 43.7151911579432, "longitude": -79.4015057035893}, "867314049RR0001": {"name": "THE KANATA SENIORS COUNCIL INC./CONSEIL DES AINES DE KANATA INC.", "designationCode": "C", "categoryCode": "59", "address": "2500, CAMPEAU DRIVE", "city": "KANATA", "province": "ON", "country": "CA", "postalCode": "K2K2W3", "twitter": "None", "instagram": "None", "facebook": "None", "youtube": "None", "website": "None", "summary": "None", "logo": "None", "latitude": 45.31930572857625, "longitude": -75.89645120194452}, "119288918RR0812": {"name": "THE KAPUSKASING CONGREGATION OF JEHOVAH'S WITNESSES", "designationCode": "C", "categoryCode": "61", "address": "452 GOVERNMENT RD.", "city": "KAPUSKASING", "province": "ON", "country": "CA", "postalCode": "P5N2X7", "twitter": "None", "instagram": "None", "facebook": "None", "youtube": "None", "website": "None", "summary": "None", "logo": "None", "latitude": 49.3953616548703, "longitude": -82.36581781760314}, "893170761RR0001": {"name": "THE KAREN L. COLUSSI FOUNDATION", "designationCode": "A", "categoryCode": "23", "address": "PO BOX 5575", "city": "VICTORIA", "province": "BC", "country": "CA", "postalCode": "V8R6S4", "twitter": "None", "instagram": "None", "facebook": "None", "youtube": "None", "website": "None", "summary": "None", "logo": "None", "latitude": 48.42854700000005, "longitude": -123.36445249999994}, "888449444RR0001": {"name": "THE KATHLEEN AND WILLIAM DAVIS SCHOLARSHIP-BURSARY FUND", "designationCode": "A", "categoryCode": "25", "address": "330 BAY STREET                SUITE 505", "city": "TORONTO", "province": "ON", "country": "CA", "postalCode": "M5H2S8", "twitter": "None", "instagram": "None", "facebook": "None", "youtube": "None", "website": "None", "summary": "None", "logo": "None", "latitude": 43.65015448819902, "longitude": -79.38088577479927}, "865231369RR0001": {"name": "THE KATHLEEN CHARITABLE TRUST", "designationCode": "B", "categoryCode": "03", "address": "35-413 LINWELL RD", "city": "ST.CATHARINES", "province": "ON", "country": "CA", "postalCode": "L2M7Y2", "twitter": "None", "instagram": "None", "facebook": "None", "youtube": "None", "website": "None", "summary": "None", "logo": "None", "latitude": 43.20055449027555, "longitude": -79.22333004616476}, "119240166RR0001": {"name": "THE KATHLEEN COATES MEMORIAL STAR FUND", "designationCode": "C", "categoryCode": "03", "address": "26-1771 MALEY DR.", "city": "SUDBURY", "province": "ON", "country": "CA", "postalCode": "P3A4R7", "twitter": "None", "instagram": "None", "facebook": "None", "youtube": "None", "website": "None", "summary": "None", "logo": "None", "latitude": 46.53717094710393, "longitude": -80.93415827549009}, "119240174RR0001": {"name": "THE KATHLEEN COLLINS EDUCATION FOUNDATION", "designationCode": "C", "categoryCode": "21", "address": "401 - 2275 ATKINSON ST", "city": "PENTICTON", "province": "BC", "country": "CA", "postalCode": "V2A8R7", "twitter": "None", "instagram": "None", "facebook": "None", "youtube": "None", "website": "None", "summary": "None", "logo": "None", "latitude": 49.4719815961683, "longitude": -119.58602042091283}, "859116931RR0001": {"name": "THE KATHLEEN-MARY AND WALTER BARRON FAMILY FOUNDATION", "designationCode": "B", "categoryCode": "05", "address": "2588 ANDOVER ROAD", "city": "OAKVILLE", "province": "ON", "country": "CA", "postalCode": "L6H6C4", "twitter": "None", "instagram": "None", "facebook": "None", "youtube": "None", "website": "None", "summary": "None", "logo": "None", "latitude": 43.47702474686948, "longitude": -79.72893192674121}, "892807165RR0001": {"name": "THE KATHOK GONPA DRUB DEY OD SEL LING SOCIETY", "designationCode": "C", "categoryCode": "39", "address": "2800 GRAFTON AVENUE", "city": "QUALICUM BEACH", "province": "BC", "country": "CA", "postalCode": "V9K1W8", "twitter": "None", "instagram": "None", "facebook": "None", "youtube": "None", "website": "None", "summary": "None", "logo": "None", "latitude": 49.28853666065999, "longitude": -124.45751636767868}, "891370140RR0001": {"name": "THE KATZ FAMILY FOUNDATION", "designationCode": "B", "categoryCode": "03", "address": "6-720 PROUDFOOT LANE", "city": "LONDON", "province": "ON", "country": "CA", "postalCode": "N6H5G5", "twitter": "None", "instagram": "None", "facebook": "None", "youtube": "None", "website": "None", "summary": "None", "logo": "None", "latitude": 42.987203906779925, "longitude": -81.28889134677262}, "843174418RR0001": {"name": "THE KAVELMAN FONN FOUNDATION", "designationCode": "B", "categoryCode": "03", "address": "64 FOREST HILL ROAD", "city": "TORONTO", "province": "ON", "country": "CA", "postalCode": "M4V2L5", "twitter": "None", "instagram": "None", "facebook": "None", "youtube": "None", "website": "None", "summary": "None", "logo": "None", "latitude": 43.68882662891688, "longitude": -79.4042772623058}, "133628891RR0001": {"name": "THE KAWARTHA JAZZ SOCIETY", "designationCode": "C", "categoryCode": "22", "address": "233 ENGLEBURN AVENUE", "city": "PETERBOROUGH", "province": "ON", "country": "CA", "postalCode": "K9H1S5", "twitter": "None", "instagram": "None", "facebook": "None", "youtube": "None", "website": "None", "summary": "None", "logo": "None", "latitude": 44.30124861226844, "longitude": -78.31404837916186}, "107559676RR0001": {"name": "THE KAWARTHA-HALIBURTON CHILDREN'S AID SOCIETY", "designationCode": "C", "categoryCode": "01", "address": "FINANCIAL SERVICES SUPERVISOR 1100 CHEMONG RD", "city": "PETERBOROUGH", "province": "ON", "country": "CA", "postalCode": "K9H7S2", "twitter": "None", "instagram": "None", "facebook": "None", "youtube": "None", "website": "None", "summary": "None", "logo": "None", "latitude": 44.326477775728485, "longitude": -78.33859513909228}, "873382311RR0001": {"name": "THE KAY FAMILY CHARITABLE FOUNDATION", "designationCode": "B", "categoryCode": "05", "address": "151 BLOOR STREET WEST         12TH FLOOR", "city": "TORONTO", "province": "ON", "country": "CA", "postalCode": "M5A1S4", "twitter": "None", "instagram": "None", "facebook": "None", "youtube": "None", "website": "None", "summary": "None", "logo": "None", "latitude": 43.66886577266448, "longitude": -79.39323632915928}, "888264116RR0001": {"name": "THE KEG SPIRIT FOUNDATION", "designationCode": "B", "categoryCode": "03", "address": "10100 SHELLBRIDGE WAY", "city": "RICHMOND", "province": "BC", "country": "CA", "postalCode": "V6X2W7", "twitter": "None", "instagram": "None", "facebook": "None", "youtube": "None", "website": "None", "summary": "None", "logo": "None", "latitude": 49.18688941326678, "longitude": -123.10474048329426}, "868548934RR0001": {"name": "THE KEHILA JEWISH DAY SCHOOL", "designationCode": "C", "categoryCode": "20", "address": "215 CLINE AVE N", "city": "HAMILTON", "province": "ON", "country": "CA", "postalCode": "L8S4A2", "twitter": "None", "instagram": "None", "facebook": "None", "youtube": "None", "website": "None", "summary": "None", "logo": "None", "latitude": 43.2636491912687, "longitude": -79.90366809212891}, "892965369RR0001": {"name": "THE KEHILA SOCIETY OF RICHMOND", "designationCode": "C", "categoryCode": "50", "address": "130-10691 SHELLBRIDGE WAY", "city": "RICHMOND", "province": "BC", "country": "CA", "postalCode": "V6X2W8", "twitter": "None", "instagram": "None", "facebook": "None", "youtube": "None", "website": "None", "summary": "None", "logo": "None", "latitude": 49.18744050490474, "longitude": -123.10683202553523}, "119240216RR0001": {"name": "THE KEITH GILMORE FOUNDATION", "designationCode": "C", "categoryCode": "21", "address": "CANADIAN HEREFORD ASSOCIATION 5160 SKYLINE WAY NE", "city": "CALGARY", "province": "AB", "country": "CA", "postalCode": "T2E6V1", "twitter": "None", "instagram": "None", "facebook": "None", "youtube": "None", "website": "None", "summary": "None", "logo": "None", "latitude": 51.098564670840716, "longitude": -114.04158829251556}, "867165292RR0001": {"name": "THE KELLI FOUNDATION", "designationCode": "B", "categoryCode": "05", "address": "820 - 2 CARLTON ST", "city": "TORONTO", "province": "ON", "country": "CA", "postalCode": "M5B1J3", "twitter": "None", "instagram": "None", "facebook": "None", "youtube": "None", "website": "None", "summary": "None", "logo": "None", "latitude": 43.66142348211082, "longitude": -79.38282201832186}, "858462591RR0001": {"name": "THE KELLY FAMILY FOUNDATION", "designationCode": "B", "categoryCode": "53", "address": "2620 SHERBROOKE STREET WEST", "city": "PETERBOROUGH", "province": "ON", "country": "CA", "postalCode": "K9J6X4", "twitter": "None", "instagram": "None", "facebook": "None", "youtube": "None", "website": "None", "summary": "None", "logo": "None", "latitude": 44.28021613572621, "longitude": -78.4129387209302}, "895376614RR0001": {"name": "THE KELLY SHIRES BREAST CANCER SNOW RUN FOR FUN TRUST", "designationCode": "C", "categoryCode": "11", "address": "523 ELIZABETH STREET          SUITE 203", "city": "MIDLAND", "province": "ON", "country": "CA", "postalCode": "L4R2A2", "twitter": "None", "instagram": "None", "facebook": "None", "youtube": "None", "website": "None", "summary": "None", "logo": "None", "latitude": 44.74804523147064, "longitude": -79.88484166591437}, "893150961RR0001": {"name": "THE KELMAN CHARITABLE FOUNDATION", "designationCode": "B", "categoryCode": "99", "address": "116 ROSEDALE HEIGHTS DRIVE", "city": "THORNHILL", "province": "ON", "country": "CA", "postalCode": "L4J4V9", "twitter": "None", "instagram": "None", "facebook": "None", "youtube": "None", "website": "None", "summary": "None", "logo": "None", "latitude": 43.81284943493552, "longitude": -79.44769038328816}, "108085713RR0001": {"name": "THE KELOWNA & DISTRICT SAFETY COUNCIL SOCIETY", "designationCode": "C", "categoryCode": "59", "address": "395 HARTMAN RD", "city": "KELOWNA", "province": "BC", "country": "CA", "postalCode": "V1X2M9", "twitter": "None", "instagram": "None", "facebook": "None", "youtube": "None", "website": "None", "summary": "None", "logo": "None", "latitude": 49.89983532233212, "longitude": -119.38044289847551}, "129149340RR0001": {"name": "THE KELOWNA & DISTRICT SOCIETY FOR PEOPLE IN MOTION", "designationCode": "C", "categoryCode": "11", "address": "23-1720 ETHEL ST", "city": "KELOWNA", "province": "BC", "country": "CA", "postalCode": "V1Y2Y7", "twitter": "None", "instagram": "None", "facebook": "None", "youtube": "None", "website": "None", "summary": "None", "logo": "None", "latitude": 49.88326298834323, "longitude": -119.48282305568672}, "864429790RR0001": {"name": "THE KELOWNA BREAST CANCER PADDLING TEAM", "designationCode": "A", "categoryCode": "56", "address": "118 - 3175 DE MONTREUIL CRT", "city": "KELOWNA", "province": "BC", "country": "CA", "postalCode": "V1W3W2", "twitter": "None", "instagram": "None", "facebook": "None", "youtube": "None", "website": "None", "summary": "None", "logo": "None", "latitude": 49.86031369996995, "longitude": -119.4808282382984}, "107562225RR0001": {"name": "THE KELSEY SCHOOL DIVISION NO. 45", "designationCode": "C", "categoryCode": "20", "address": "PO BOX 4700", "city": "THE PAS", "province": "MB", "country": "CA", "postalCode": "R9A1R4", "twitter": "None", "instagram": "None", "facebook": "None", "youtube": "None", "website": "None", "summary": "None", "logo": "None", "latitude": 53.81342700000006, "longitude": -101.25038149999993}, "881227110RR0001": {"name": "THE KELTY PATRICK DENNEHY FOUNDATION", "designationCode": "A", "categoryCode": "03", "address": "PO BOX 35", "city": "WHISTLER", "province": "BC", "country": "CA", "postalCode": "V0N1B0", "twitter": "None", "instagram": "None", "facebook": "None", "youtube": "None", "website": "None", "summary": "None", "logo": "None", "latitude": 50.11956600000006, "longitude": -122.95408399999994}, "118787613RR0001": {"name": "THE KEN AND ANN WATTS MEMORIAL SCHOLARSHIP FOUNDATION", "designationCode": "C", "categoryCode": "21", "address": "110 CROSTHWAITE AVE S", "city": "HAMILTON", "province": "ON", "country": "CA", "postalCode": "L8K2V3", "twitter": "None", "instagram": "None", "facebook": "None", "youtube": "None", "website": "None", "summary": "None", "logo": "None", "latitude": 43.23671864807544, "longitude": -79.81047622664302}, "872768106RR0001": {"name": "THE KEN PAGE MEMORIAL TRUST", "designationCode": "A", "categoryCode": "22", "address": "55 CHARLES STREET WEST        SUITE 3104", "city": "TORONTO", "province": "ON", "country": "CA", "postalCode": "M5S2W9", "twitter": "None", "instagram": "None", "facebook": "None", "youtube": "None", "website": "None", "summary": "None", "logo": "None", "latitude": 43.667751217035075, "longitude": -79.38870541260295}, "135325751RR0001": {"name": "THE KENNEBECASIS VALLEY FOOD BASKET INC", "designationCode": "C", "categoryCode": "09", "address": "346 OLD HAMPTON ROAD", "city": "QUISPAMSIS", "province": "NB", "country": "CA", "postalCode": "E2E4S9", "twitter": "None", "instagram": "None", "facebook": "None", "youtube": "None", "website": "None", "summary": "None", "logo": "None", "latitude": 45.41735699027648, "longitude": -65.95355814943177}, "121989255RR0001": {"name": "THE KENNETH E. SPENCER MEMORIAL HOME INC.", "designationCode": "C", "categoryCode": "01", "address": "35 ATLANTIC BAPTIST AVE", "city": "MONCTON", "province": "NB", "country": "CA", "postalCode": "E1E4N3", "twitter": "None", "instagram": "None", "facebook": "None", "youtube": "None", "website": "None", "summary": "None", "logo": "None", "latitude": 46.05999327145241, "longitude": -64.85879860263182}, "119086817RR0001": {"name": "THE KENNETH G. MILLS FOUNDATION", "designationCode": "C", "categoryCode": "29", "address": "P0 BOX 790 STATION F", "city": "TORONTO", "province": "ON", "country": "CA", "postalCode": "M4Y2N7", "twitter": "None", "instagram": "None", "facebook": "None", "youtube": "None", "website": "None", "summary": "None", "logo": "None", "latitude": 43.666332000000054, "longitude": -79.38025549999993}, "874003817RR0001": {"name": "THE KENSINGTON CONSERVANCY", "designationCode": "C", "categoryCode": "52", "address": "TANNA ELLIOTT                 P.O.BOX 127", "city": "DESBARATS", "province": "ON", "country": "CA", "postalCode": "P0R1E0", "twitter": "None", "instagram": "None", "facebook": "None", "youtube": "None", "website": "None", "summary": "None", "logo": "None", "latitude": 46.302099084085796, "longitude": -83.79029912888505}, "872408109RR0001": {"name": "THE KENSINGTON EYE INSTITUTE", "designationCode": "C", "categoryCode": "11", "address": "340 COLLEGE ST. SUITE 602", "city": "TORONTO", "province": "ON", "country": "CA", "postalCode": "M5T3A9", "twitter": "None", "instagram": "None", "facebook": "None", "youtube": "None", "website": "None", "summary": "None", "logo": "None", "latitude": 43.65738619069178, "longitude": -79.40333842951117}, "119230092RR0001": {"name": "THE KENSINGTON FOUNDATION", "designationCode": "A", "categoryCode": "13", "address": "340 COLLEGE STREET            SUITE 602", "city": "TORONTO", "province": "ON", "country": "CA", "postalCode": "M5T3A9", "twitter": "None", "instagram": "None", "facebook": "None", "youtube": "None", "website": "None", "summary": "None", "logo": "None", "latitude": 43.65738619069178, "longitude": -79.40333842951117}, "108079856RR0001": {"name": "THE KENSINGTON HEALTH CENTRE", "designationCode": "C", "categoryCode": "10", "address": "25 BRUNSWICK AVENUE", "city": "TORONTO", "province": "ON", "country": "CA", "postalCode": "M5S2L9", "twitter": "None", "instagram": "None", "facebook": "None", "youtube": "None", "website": "None", "summary": "None", "logo": "None", "latitude": 43.6581776364187, "longitude": -79.4043671041897}, "888233848RR0001": {"name": "THE KENSINGTON SINFONIA SOCIETY", "designationCode": "C", "categoryCode": "22", "address": "BOX 82024, CONNAUGHT PO       1508 8TH STREET SW", "city": "CALGARY", "province": "AB", "country": "CA", "postalCode": "T2R0X1", "twitter": "None", "instagram": "None", "facebook": "None", "youtube": "None", "website": "None", "summary": "None", "logo": "None", "latitude": 51.038789395781635, "longitude": -114.08168068330554}, "865475719RR0001": {"name": "THE KERI CHASE FOUNDATION", "designationCode": "A", "categoryCode": "53", "address": "2003 HOLLENDER ROAD", "city": "GORHAM", "province": "ON", "country": "CA", "postalCode": "P7G0Z5", "twitter": "None", "instagram": "None", "facebook": "None", "youtube": "None", "website": "None", "summary": "None", "logo": "None", "latitude": 48.570702000000054, "longitude": -89.33435899999994}, "107565343RR0001": {"name": "THE KERMODE FRIENDSHIP SOCIETY", "designationCode": "C", "categoryCode": "09", "address": "3313 KALUM ST", "city": "TERRACE", "province": "BC", "country": "CA", "postalCode": "V8G2N7", "twitter": "None", "instagram": "None", "facebook": "None", "youtube": "None", "website": "None", "summary": "None", "logo": "None", "latitude": 54.51945729000117, "longitude": -128.5865868922743}, "119240331RR0001": {"name": "THE KERRISDALE COMMUNITY CENTRE SOCIETY", "designationCode": "C", "categoryCode": "56", "address": "5851 WEST BOULEVARD", "city": "VANCOUVER", "province": "BC", "country": "CA", "postalCode": "V6M3W9", "twitter": "None", "instagram": "None", "facebook": "None", "youtube": "None", "website": "None", "summary": "None", "logo": "None", "latitude": 49.233157836805354, "longitude": -123.15567553344015}, "895316206RR0001": {"name": "THE KESHO TRUST", "designationCode": "C", "categoryCode": "53", "address": "CARE OF OUNSTED & COMPANY     260-4460 CHATTERTON WAY", "city": "VICTORIA", "province": "BC", "country": "CA", "postalCode": "V8X5J2", "twitter": "None", "instagram": "None", "facebook": "None", "youtube": "None", "website": "None", "summary": "None", "logo": "None", "latitude": 48.4906204232501, "longitude": -123.38381692206667}, "861107324RR0001": {"name": "THE KESWICK RIDGE HISTORICAL SOCIETY", "designationCode": "C", "categoryCode": "50", "address": "112 ROUTE 616", "city": "KESWICK RIDGE", "province": "NB", "country": "CA", "postalCode": "E6L1R8", "twitter": "None", "instagram": "None", "facebook": "None", "youtube": "None", "website": "None", "summary": "None", "logo": "None", "latitude": 45.97619752933276, "longitude": -66.8607792142421}, "119240349RR0001": {"name": "THE KETCHEN LAKE BIBLE CAMP", "designationCode": "C", "categoryCode": "56", "address": "PO BOX 792", "city": "PREECEVILLE", "province": "SK", "country": "CA", "postalCode": "S0A3B0", "twitter": "None", "instagram": "None", "facebook": "None", "youtube": "None", "website": "None", "summary": "None", "logo": "None", "latitude": 51.95420000000007, "longitude": -102.64748999999995}, "119240356RR0001": {"name": "THE KETTLE FRIENDSHIP SOCIETY", "designationCode": "C", "categoryCode": "09", "address": "1725 VENABLES ST", "city": "VANCOUVER", "province": "BC", "country": "CA", "postalCode": "V5L2H3", "twitter": "None", "instagram": "None", "facebook": "None", "youtube": "None", "website": "None", "summary": "None", "logo": "None", "latitude": 49.27670549321932, "longitude": -123.0701037485429}, "869167288RR0001": {"name": "THE KETTLE VALLEY RAILWAY SOCIETY", "designationCode": "C", "categoryCode": "52", "address": "BOX 1288", "city": "SUMMERLAND", "province": "BC", "country": "CA", "postalCode": "V0H1Z0", "twitter": "None", "instagram": "None", "facebook": "None", "youtube": "None", "website": "None", "summary": "None", "logo": "None", "latitude": 49.60131900000006, "longitude": -119.67899299999993}, "119240364RR0001": {"name": "THE KEVISVILLE COMMUNITY CHURCH AND CENTRE", "designationCode": "C", "categoryCode": "39", "address": "3360 TOWNSHIP RD 360", "city": "RED DEER COUNTY", "province": "AB", "country": "CA", "postalCode": "T4G0L2", "twitter": "None", "instagram": "None", "facebook": "None", "youtube": "None", "website": "None", "summary": "None", "logo": "None", "latitude": 52.057172501009624, "longitude": -114.376842}, "119240372RR0001": {"name": "THE KEYANO COLLEGE FOUNDATION", "designationCode": "A", "categoryCode": "23", "address": "8115 FRANKLIN AVENUE          BOX 60", "city": "FORT MCMURRAY", "province": "AB", "country": "CA", "postalCode": "T9H2H7", "twitter": "None", "instagram": "None", "facebook": "None", "youtube": "None", "website": "None", "summary": "None", "logo": "None", "latitude": 56.714339089041836, "longitude": -111.34734336684127}, "890879281RR0001": {"name": "THE KHALSA DIWAN SOCIETY OF VICTORIA", "designationCode": "C", "categoryCode": "62", "address": "1210 TOPAZ AVE", "city": "VICTORIA", "province": "BC", "country": "CA", "postalCode": "V8T2N1", "twitter": "None", "instagram": "None", "facebook": "None", "youtube": "None", "website": "None", "summary": "None", "logo": "None", "latitude": 48.44328145715252, "longitude": -123.35430449584506}, "820603272RR0001": {"name": "THE KHANDELWAL FOUNDATION", "designationCode": "B", "categoryCode": "05", "address": "147 YUKON COURT", "city": "SASKATOON", "province": "SK", "country": "CA", "postalCode": "S7K4G4", "twitter": "None", "instagram": "None", "facebook": "None", "youtube": "None", "website": "None", "summary": "None", "logo": "None", "latitude": 52.164810419095176, "longitude": -106.61873575780507}, "889081550RR0001": {"name": "THE KHYBER ARTS SOCIETY", "designationCode": "C", "categoryCode": "22", "address": "1880 HOLLIS ST", "city": "HALIFAX", "province": "NS", "country": "CA", "postalCode": "B3J1W6", "twitter": "None", "instagram": "None", "facebook": "None", "youtube": "None", "website": "None", "summary": "None", "logo": "None", "latitude": 44.65004063696694, "longitude": -63.57412207911583}}