{"118892538RR0001": {"name": "ECOLE PLEIN SOLEIL L'ASSOCIATION COOPERATIVE", "designationCode": "C", "categoryCode": "20", "address": "300 RUE DE MONTREAL", "city": "SHERBROOKE", "province": "QC", "country": "CA", "postalCode": "J1H1E5", "twitter": "None", "instagram": "None", "facebook": "None", "youtube": "None", "website": "None", "summary": "None", "logo": "None", "latitude": 45.40579007380705, "longitude": -71.89788798193794}, "892204991RR0001": {"name": "ECOLE PRE-MATERNELLE BOBINO BOBINETTE SOCIETE", "designationCode": "C", "categoryCode": "20", "address": "15425 91 AVE NW", "city": "EDMONTON", "province": "AB", "country": "CA", "postalCode": "T5R4Z7", "twitter": "None", "instagram": "None", "facebook": "None", "youtube": "None", "website": "None", "summary": "None", "logo": "None", "latitude": 53.52489053058515, "longitude": -113.58852202553523}, "135880441RR0001": {"name": "ECOLE PREMIERE MESIFTA DU CANADA", "designationCode": "C", "categoryCode": "20", "address": "2355 AVENUE EKERS", "city": "MONT-ROYAL", "province": "QC", "country": "CA", "postalCode": "H3S1C6", "twitter": "None", "instagram": "None", "facebook": "None", "youtube": "None", "website": "None", "summary": "None", "logo": "None", "latitude": 45.514682213168584, "longitude": -73.62876971775621}, "141655258RR0001": {"name": "ECOLE PRIMAIRE, LES TROIS SAISONS INC", "designationCode": "C", "categoryCode": "20", "address": "570 BOUL. DE MORTAGNE", "city": "BOUCHERVILLE", "province": "QC", "country": "CA", "postalCode": "J4B5E4", "twitter": "None", "instagram": "None", "facebook": "None", "youtube": "None", "website": "None", "summary": "None", "logo": "None", "latitude": 45.5938994929022, "longitude": -73.43292587105447}, "107902850RR0001": {"name": "ECOLE ROBERT H. SMITH SCHOOL PARENTS' ADVISORY GROUP INC.", "designationCode": "C", "categoryCode": "21", "address": "315 OAK ST", "city": "WINNIPEG", "province": "MB", "country": "CA", "postalCode": "R3M3P8", "twitter": "None", "instagram": "None", "facebook": "None", "youtube": "None", "website": "None", "summary": "None", "logo": "None", "latitude": 49.869369513185966, "longitude": -97.18136626484461}, "101562841RR0001": {"name": "ECOLE RUDOLF STEINER DE MONTREAL INC.", "designationCode": "C", "categoryCode": "20", "address": "4855 RUE KENSINGTON", "city": "MONTR\u00c9AL", "province": "QC", "country": "CA", "postalCode": "H3X3S6", "twitter": "None", "instagram": "None", "facebook": "None", "youtube": "None", "website": "None", "summary": "None", "logo": "None", "latitude": 45.47142323593386, "longitude": -73.63578886689953}, "107280133RR0001": {"name": "ECOLE SAINT-JOSEPH (1985) INC.", "designationCode": "C", "categoryCode": "20", "address": "4080 AV DE LORIMIER", "city": "MONTREAL", "province": "QC", "country": "CA", "postalCode": "H2K3X7", "twitter": "None", "instagram": "None", "facebook": "None", "youtube": "None", "website": "None", "summary": "None", "logo": "None", "latitude": 45.532248760171015, "longitude": -73.56630222081463}, "129898854RR0001": {"name": "ECOLE SAINTE-ANNE", "designationCode": "C", "categoryCode": "20", "address": "6855 13E AVE", "city": "MONTR\u00c9AL", "province": "QC", "country": "CA", "postalCode": "H1X2Z3", "twitter": "None", "instagram": "None", "facebook": "None", "youtube": "None", "website": "None", "summary": "None", "logo": "None", "latitude": 45.55839486652417, "longitude": -73.59168560309318}, "133985556RR0001": {"name": "ECOLE SAINTE-FAMILLE (FRATERNITE ST-PIE X) INC", "designationCode": "C", "categoryCode": "20", "address": "10425 BOUL DE LA RIVE SUD", "city": "LEVIS", "province": "QC", "country": "CA", "postalCode": "G6V9R6", "twitter": "None", "instagram": "None", "facebook": "None", "youtube": "None", "website": "None", "summary": "None", "logo": "None", "latitude": 46.825395116229224, "longitude": -71.0881806436212}, "118892579RR0001": {"name": "ECOLE SECONDAIRE ALGONQUIN", "designationCode": "C", "categoryCode": "20", "address": "555, AVENUE ALGONQUIN", "city": "NORTH BAY", "province": "ON", "country": "CA", "postalCode": "P1B4W8", "twitter": "None", "instagram": "None", "facebook": "None", "youtube": "None", "website": "None", "summary": "None", "logo": "None", "latitude": 46.318706413266796, "longitude": -79.46616327855018}, "118782135RR0001": {"name": "ECOLE SECONDAIRE CATHOLIQUE L'ALLIANCE - COMITE DE BOURSES", "designationCode": "C", "categoryCode": "21", "address": "C.P. 223, 1333 CHEMIN VICTORIA", "city": "IROQUOIS FALLS", "province": "ON", "country": "CA", "postalCode": "P0K1E0", "twitter": "None", "instagram": "None", "facebook": "None", "youtube": "None", "website": "None", "summary": "None", "logo": "None", "latitude": 48.769137279538676, "longitude": -80.69193676576774}, "107279895RR0001": {"name": "ECOLE SECONDAIRE DE BROMPTONVILLE", "designationCode": "C", "categoryCode": "20", "address": "125 RUE DU FRERE-THEODE", "city": "SHERBROOKE", "province": "QC", "country": "CA", "postalCode": "J1C0S3", "twitter": "None", "instagram": "None", "facebook": "None", "youtube": "None", "website": "None", "summary": "None", "logo": "None", "latitude": 45.47260017056607, "longitude": -71.95131900284434}, "104780986RR0001": {"name": "ECOLE SECONDAIRE DU VERBE DIVIN INC.", "designationCode": "C", "categoryCode": "20", "address": "1021 RUE COWIE                C P 786", "city": "GRANBY", "province": "QC", "country": "CA", "postalCode": "J2G8W8", "twitter": "None", "instagram": "None", "facebook": "None", "youtube": "None", "website": "None", "summary": "None", "logo": "None", "latitude": 45.394696298122206, "longitude": -72.77278233686074}, "107279929RR0001": {"name": "ECOLE SECONDAIRE FRANCOIS-BOURRIN", "designationCode": "C", "categoryCode": "20", "address": "50 AV DES CASCADES", "city": "QUEBEC", "province": "QC", "country": "CA", "postalCode": "G1E2J7", "twitter": "None", "instagram": "None", "facebook": "None", "youtube": "None", "website": "None", "summary": "None", "logo": "None", "latitude": 46.86261587148717, "longitude": -71.19601668818161}, "107279960RR0001": {"name": "ECOLE SECONDAIRE MARCELLIN-CHAMPAGNAT", "designationCode": "C", "categoryCode": "20", "address": "14 CHEMIN DES PATRIOTES EST", "city": "ST-JEAN-SUR-RICHELIEU", "province": "QC", "country": "CA", "postalCode": "J2X5P9", "twitter": "None", "instagram": "None", "facebook": "None", "youtube": "None", "website": "None", "summary": "None", "logo": "None", "latitude": 45.318141236196375, "longitude": -73.24952703825896}, "107279887RR0001": {"name": "ECOLE SECONDAIRE MONT SAINT-SACREMENT INC.", "designationCode": "C", "categoryCode": "20", "address": "200 BOUL ST-SACREMENT", "city": "ST-GABRIEL-DE-VALCARTIER", "province": "QC", "country": "CA", "postalCode": "G0A4S0", "twitter": "None", "instagram": "None", "facebook": "None", "youtube": "None", "website": "None", "summary": "None", "logo": "None", "latitude": 46.97296730961897, "longitude": -71.50179618861407}, "107279945RR0001": {"name": "ECOLE SECONDAIRE PRIVEE DE BAIE-COMEAU INC.", "designationCode": "C", "categoryCode": "20", "address": "3075 CH DES QUATRE-BOURGEOIS  BUREAU 200", "city": "QUEBEC", "province": "QC", "country": "CA", "postalCode": "G1W5C4", "twitter": "None", "instagram": "None", "facebook": "None", "youtube": "None", "website": "None", "summary": "None", "logo": "None", "latitude": 46.77017295527754, "longitude": -71.30573554088558}, "107280034RR0001": {"name": "ECOLE SECONDAIRE SAINT-JOSEPH DE SAINT-HYACINTHE", "designationCode": "C", "categoryCode": "20", "address": "2875 AV BOURDAGES NORD", "city": "SAINT-HYACINTHE", "province": "QC", "country": "CA", "postalCode": "J2S5S3", "twitter": "None", "instagram": "None", "facebook": "None", "youtube": "None", "website": "None", "summary": "None", "logo": "None", "latitude": 45.63355690319486, "longitude": -72.96340935410664}, "101562874RR0001": {"name": "ECOLE SECONDAIRE SAINT-PAUL DE VARENNES", "designationCode": "C", "categoryCode": "20", "address": "235 RUE SAINTE-ANNE", "city": "VARENNES", "province": "QC", "country": "CA", "postalCode": "J3X1P9", "twitter": "None", "instagram": "None", "facebook": "None", "youtube": "None", "website": "None", "summary": "None", "logo": "None", "latitude": 45.68493984595195, "longitude": -73.44249075558336}, "141186627RR0001": {"name": "ECOLE SPIRITUELLE INTERNATIONALE DE LA ROSE-CROIX D'OR", "designationCode": "C", "categoryCode": "39", "address": "2520 LA FONTAINE", "city": "MONTREAL", "province": "QC", "country": "CA", "postalCode": "H2K2A5", "twitter": "None", "instagram": "None", "facebook": "None", "youtube": "None", "website": "None", "summary": "None", "logo": "None", "latitude": 45.5315278992441, "longitude": -73.550146904784}, "890873912RR0001": {"name": "ECOLE VAL MARIE INC.", "designationCode": "C", "categoryCode": "20", "address": "88 CH. DU PASSAGE", "city": "TROIS-RIVIERES", "province": "QC", "country": "CA", "postalCode": "G8T2M3", "twitter": "None", "instagram": "None", "facebook": "None", "youtube": "None", "website": "None", "summary": "None", "logo": "None", "latitude": 46.36971534332622, "longitude": -72.54045657438397}, "860977016RR0001": {"name": "ECOLE WESTGATE SCHOOL PARENTS' SOCIETY", "designationCode": "C", "categoryCode": "23", "address": "150 WESTMINSTER DR SW", "city": "CALGARY", "province": "AB", "country": "CA", "postalCode": "T3C2T3", "twitter": "None", "instagram": "None", "facebook": "None", "youtube": "None", "website": "None", "summary": "None", "logo": "None", "latitude": 51.044410089647414, "longitude": -114.15988833692091}, "857460471RR0001": {"name": "ECOLE-O-VILLAGE", "designationCode": "C", "categoryCode": "21", "address": "72 ROUTE  237 NORD", "city": "FRELIGHSBURG", "province": "QC", "country": "CA", "postalCode": "J0J1C0", "twitter": "None", "instagram": "None", "facebook": "None", "youtube": "None", "website": "None", "summary": "None", "logo": "None", "latitude": 45.06752985405772, "longitude": -72.86467434721659}, "880746532RR0001": {"name": "ECOLOGICAL FARMERS ASSOCIATION OF ONTARIO", "designationCode": "C", "categoryCode": "59", "address": "5420 HIGHWAY 6 NORTH RR5", "city": "GUELPH", "province": "ON", "country": "CA", "postalCode": "N1H6J2", "twitter": "None", "instagram": "None", "facebook": "None", "youtube": "None", "website": "None", "summary": "None", "logo": "None", "latitude": 43.57296517735107, "longitude": -80.28245636726805}, "888599594RR0001": {"name": "ECOLOGIE SANS FRONTIERE DE L'UNIVERSITE DE SHERBROOKE", "designationCode": "C", "categoryCode": "21", "address": "2500 BOUL DE L'UNIVERSITE", "city": "SHERBROOKE", "province": "QC", "country": "CA", "postalCode": "J1K2R1", "twitter": "None", "instagram": "None", "facebook": "None", "youtube": "None", "website": "None", "summary": "None", "logo": "None", "latitude": 45.381356656245536, "longitude": -71.93111333807403}, "877193821RR0001": {"name": "ECOLOGOS ENVIRONMENTAL ORGANIZATION", "designationCode": "C", "categoryCode": "52", "address": "2137 HWY 630", "city": "MATTAWA", "province": "ON", "country": "CA", "postalCode": "P0H1V0", "twitter": "None", "instagram": "None", "facebook": "None", "youtube": "None", "website": "None", "summary": "None", "logo": "None", "latitude": 46.31369972122743, "longitude": -78.70932154236566}, "107280224RR0001": {"name": "ECOLOGY ACTION CENTRE", "designationCode": "C", "categoryCode": "59", "address": "2705 FERN LANE", "city": "HALIFAX", "province": "NS", "country": "CA", "postalCode": "B3K4L3", "twitter": "None", "instagram": "None", "facebook": "None", "youtube": "None", "website": "None", "summary": "None", "logo": "None", "latitude": 44.6566225700848, "longitude": -63.5963531128167}, "118892736RR0001": {"name": "ECOLOGY NORTH", "designationCode": "C", "categoryCode": "59", "address": "PO BOX 1684 STN MAIN", "city": "YELLOWKNIFE", "province": "NT", "country": "CA", "postalCode": "X1A2P3", "twitter": "None", "instagram": "None", "facebook": "None", "youtube": "None", "website": "None", "summary": "None", "logo": "None", "latitude": 62.45446200000005, "longitude": -114.37092349999993}, "891440885RR0001": {"name": "ECOMUSEE DE L'AU-DELA", "designationCode": "C", "categoryCode": "50", "address": "2170,RUE DARLING", "city": "MONTREAL", "province": "QC", "country": "CA", "postalCode": "H1W2W8", "twitter": "None", "instagram": "None", "facebook": "None", "youtube": "None", "website": "None", "summary": "None", "logo": "None", "latitude": 45.54305511904913, "longitude": -73.54889062712786}, "888932571RR0001": {"name": "ECONOMY CEMETERY COMPANY", "designationCode": "C", "categoryCode": "59", "address": "RR 1", "city": "ECONOMY", "province": "NS", "country": "CA", "postalCode": "B0M1J0", "twitter": "None", "instagram": "None", "facebook": "None", "youtube": "None", "website": "None", "summary": "None", "logo": "None", "latitude": 45.41092491261039, "longitude": -63.81211201843635}, "889651170RR0001": {"name": "ECONOMY RECREATION CENTER", "designationCode": "C", "categoryCode": "56", "address": "3801 HIGHWAY #2", "city": "ECONOMY", "province": "NS", "country": "CA", "postalCode": "B0M1J0", "twitter": "None", "instagram": "None", "facebook": "None", "youtube": "None", "website": "None", "summary": "None", "logo": "None", "latitude": 45.38875632594574, "longitude": -63.883015037107256}, "118892769RR0001": {"name": "ECONOMY UNITED CHURCH OF CANADA", "designationCode": "C", "categoryCode": "44", "address": "3289 HWY 2 ECONOMY", "city": "ECONOMY", "province": "NS", "country": "CA", "postalCode": "B0M1J0", "twitter": "None", "instagram": "None", "facebook": "None", "youtube": "None", "website": "None", "summary": "None", "logo": "None", "latitude": 45.384877377002155, "longitude": -63.91345193052686}, "119245645RR0001": {"name": "ECOSOURCE MISSISSAUGA", "designationCode": "C", "categoryCode": "59", "address": "6600 FALCONER DR", "city": "MISSISSAUGA", "province": "ON", "country": "CA", "postalCode": "L5N1M2", "twitter": "None", "instagram": "None", "facebook": "None", "youtube": "None", "website": "None", "summary": "None", "logo": "None", "latitude": 43.605673437157215, "longitude": -79.72983238069108}, "865058721RR0001": {"name": "ECOSPARK ENVIRONMENTAL ORGANIZATION", "designationCode": "C", "categoryCode": "21", "address": "174 - 601 CHRISTIE ST", "city": "TORONTO", "province": "ON", "country": "CA", "postalCode": "M6G4C7", "twitter": "None", "instagram": "None", "facebook": "None", "youtube": "None", "website": "None", "summary": "None", "logo": "None", "latitude": 43.67978587067912, "longitude": -79.42488115174038}, "894749969RR0001": {"name": "ECOTRUST CANADA", "designationCode": "C", "categoryCode": "52", "address": "90 - 425 CARRALL ST", "city": "VANCOUVER", "province": "BC", "country": "CA", "postalCode": "V6B6E3", "twitter": "None", "instagram": "None", "facebook": "None", "youtube": "None", "website": "None", "summary": "None", "logo": "None", "latitude": 49.28107458090486, "longitude": -123.10442464770009}, "859245102RR0001": {"name": "ECSSEN CAREER SCHOOL", "designationCode": "C", "categoryCode": "20", "address": "112 EDGEDALE DR NW", "city": "CALGARY", "province": "AB", "country": "CA", "postalCode": "T3A2R5", "twitter": "None", "instagram": "None", "facebook": "None", "youtube": "None", "website": "None", "summary": "None", "logo": "None", "latitude": 51.121160287812366, "longitude": -114.15854425047615}, "118892785RR0001": {"name": "ECUHOME CORPORATION", "designationCode": "C", "categoryCode": "01", "address": "73 SIMCOE ST SUITE 308", "city": "TORONTO", "province": "ON", "country": "CA", "postalCode": "M5J1W9", "twitter": "None", "instagram": "None", "facebook": "None", "youtube": "None", "website": "None", "summary": "None", "logo": "None", "latitude": 43.64672158979165, "longitude": -79.38577946361607}, "868567314RR0001": {"name": "ECUMENICAL \"70\" COUNCIL NO. 6246 CHARITABLE WELFARE TRUST", "designationCode": "A", "categoryCode": "65", "address": "PO BOX 32052                  NORTHLAND RPO", "city": "LONDON", "province": "ON", "country": "CA", "postalCode": "N5V5K4", "twitter": "None", "instagram": "None", "facebook": "None", "youtube": "None", "website": "None", "summary": "None", "logo": "None", "latitude": 42.98689500000006, "longitude": -81.24624349999993}, "899169494RR0001": {"name": "ECUMENICAL CAMPUS MINISTRY", "designationCode": "C", "categoryCode": "49", "address": "2406 11 AVE S", "city": "LETHBRIDGE", "province": "AB", "country": "CA", "postalCode": "T1K0K8", "twitter": "None", "instagram": "None", "facebook": "None", "youtube": "None", "website": "None", "summary": "None", "logo": "None", "latitude": 49.68181052120739, "longitude": -112.80686069455827}, "882543408RR0001": {"name": "ECUMENICAL CHRISTIAN CHURCH OF EDMONTON", "designationCode": "C", "categoryCode": "39", "address": "3530 - 91 STREET", "city": "EDMONTON", "province": "AB", "country": "CA", "postalCode": "T6E6P1", "twitter": "None", "instagram": "None", "facebook": "None", "youtube": "None", "website": "None", "summary": "None", "logo": "None", "latitude": 53.4690897485429, "longitude": -113.4677391821221}, "872216098RR0001": {"name": "ECZEMA SOCIETY OF CANADA/SOCI\u00c9T\u00c9 CANADIENNE DE L'ECZ\u00c9MA", "designationCode": "C", "categoryCode": "11", "address": "411 THE QUEENSWAY SOUTH       POST OFFICE BOX 25009", "city": "KESWICK", "province": "ON", "country": "CA", "postalCode": "L4P4C2", "twitter": "None", "instagram": "None", "facebook": "None", "youtube": "None", "website": "None", "summary": "None", "logo": "None", "latitude": 44.21656326449884, "longitude": -79.46435571518873}, "871280640RR0001": {"name": "ED TERRIS MEMORIAL SCHOLARSHIP FUND", "designationCode": "C", "categoryCode": "21", "address": "UNIT 210,7888-200TH STREET", "city": "LANGLEY", "province": "BC", "country": "CA", "postalCode": "V2Y3J4", "twitter": "None", "instagram": "None", "facebook": "None", "youtube": "None", "website": "None", "summary": "None", "logo": "None", "latitude": 49.145812971580185, "longitude": -122.66815203551853}, "127507226RR0001": {"name": "ED VIDEO INCORPORATED", "designationCode": "C", "categoryCode": "22", "address": "404 YORK RD", "city": "GUELPH", "province": "ON", "country": "CA", "postalCode": "N1E3H4", "twitter": "None", "instagram": "None", "facebook": "None", "youtube": "None", "website": "None", "summary": "None", "logo": "None", "latitude": 43.549496213168595, "longitude": -80.22723940510112}, "868263922RR0001": {"name": "EDAM FIRST RESPONDERS", "designationCode": "C", "categoryCode": "59", "address": "BOX 381", "city": "EDAM", "province": "SK", "country": "CA", "postalCode": "S0M0V0", "twitter": "None", "instagram": "None", "facebook": "None", "youtube": "None", "website": "None", "summary": "None", "logo": "None", "latitude": 53.18347000000006, "longitude": -108.76810999999998}, "118892843RR0001": {"name": "EDAM PERFORMING ARTS SOCIETY", "designationCode": "C", "categoryCode": "22", "address": "303 E 8TH AVE", "city": "VANCOUVER", "province": "BC", "country": "CA", "postalCode": "V5T1S1", "twitter": "None", "instagram": "None", "facebook": "None", "youtube": "None", "website": "None", "summary": "None", "logo": "None", "latitude": 49.263700493219325, "longitude": -123.09869182944774}, "884852823RR0001": {"name": "EDAM TRANS CANADA TRAIL COMMITTEE", "designationCode": "C", "categoryCode": "56", "address": "PO BOX 23", "city": "EDAM", "province": "SK", "country": "CA", "postalCode": "S0M0V0", "twitter": "None", "instagram": "None", "facebook": "None", "youtube": "None", "website": "None", "summary": "None", "logo": "None", "latitude": 53.18347000000006, "longitude": -108.76810999999998}, "118892850RR0001": {"name": "EDBERG & DISTRICT SENIOR CITIZENS' SOCIETY", "designationCode": "C", "categoryCode": "56", "address": "PO BOX 134", "city": "EDBERG", "province": "AB", "country": "CA", "postalCode": "T0B1J0", "twitter": "None", "instagram": "None", "facebook": "None", "youtube": "None", "website": "None", "summary": "None", "logo": "None", "latitude": 52.78510990737663, "longitude": -112.79210260458059}, "118892868RR0001": {"name": "EDBERG LIBRARY BOARD", "designationCode": "C", "categoryCode": "50", "address": "BOX 93", "city": "EDBERG", "province": "AB", "country": "CA", "postalCode": "T0B1J0", "twitter": "None", "instagram": "None", "facebook": "None", "youtube": "None", "website": "None", "summary": "None", "logo": "None", "latitude": 52.78510990737663, "longitude": -112.79210260458059}, "890162373RR0001": {"name": "EDBERG LUTHERAN CHURCH,", "designationCode": "C", "categoryCode": "32", "address": "PO BOX 171", "city": "EDBERG", "province": "AB", "country": "CA", "postalCode": "T0B1J0", "twitter": "None", "instagram": "None", "facebook": "None", "youtube": "None", "website": "None", "summary": "None", "logo": "None", "latitude": 52.78510990737663, "longitude": -112.79210260458059}, "118892884RR0001": {"name": "EDDYSTONE BAPTIST CHURCH", "designationCode": "C", "categoryCode": "31", "address": "1386 VISTA CRES.              RR 1", "city": "FRASERVILLE", "province": "ON", "country": "CA", "postalCode": "K0L1V0", "twitter": "None", "instagram": "None", "facebook": "None", "youtube": "None", "website": "None", "summary": "None", "logo": "None", "latitude": 44.187261924519504, "longitude": -78.47634006356299}, "129866174RR0001": {"name": "EDELHEIM APARTMENTS INC", "designationCode": "C", "categoryCode": "01", "address": "5050 HILLSIDE DRIVE", "city": "BEAMSVILLE", "province": "ON", "country": "CA", "postalCode": "L0R1B2", "twitter": "None", "instagram": "None", "facebook": "None", "youtube": "None", "website": "None", "summary": "None", "logo": "None", "latitude": 43.15230149138879, "longitude": -79.47668210684644}, "887751261RR0001": {"name": "EDELWEISS FOUNDATION OF NIAGARA FOR SENIORS", "designationCode": "C", "categoryCode": "01", "address": "600 LAKE STREET", "city": "ST. CATHARINES", "province": "ON", "country": "CA", "postalCode": "L2N4J4", "twitter": "None", "instagram": "None", "facebook": "None", "youtube": "None", "website": "None", "summary": "None", "logo": "None", "latitude": 43.196715115182656, "longitude": -79.2522952974499}, "118892918RR0001": {"name": "EDEN BAPTIST CHURCH", "designationCode": "C", "categoryCode": "31", "address": "391 COURTLAND ST", "city": "DELHI", "province": "ON", "country": "CA", "postalCode": "N4B1S9", "twitter": "None", "instagram": "None", "facebook": "None", "youtube": "None", "website": "None", "summary": "None", "logo": "None", "latitude": 42.8551633544347, "longitude": -80.47789654163537}, "108145921RR0001": {"name": "EDEN COMMUNITY HOMES", "designationCode": "C", "categoryCode": "10", "address": "196 BEVERLEY STREET", "city": "TORONTO", "province": "ON", "country": "CA", "postalCode": "M5T1Z1", "twitter": "None", "instagram": "None", "facebook": "None", "youtube": "None", "website": "None", "summary": "None", "logo": "None", "latitude": 43.656381209821724, "longitude": -79.39495338317259}, "118892942RR0001": {"name": "EDEN CONSERVATION TRUST", "designationCode": "B", "categoryCode": "53", "address": "1500-1090 WEST GEORGIA ST", "city": "VANCOUVER", "province": "BC", "country": "CA", "postalCode": "V6E3V7", "twitter": "None", "instagram": "None", "facebook": "None", "youtube": "None", "website": "None", "summary": "None", "logo": "None"}, "870071370RR0001": {"name": "EDEN EAST INC.", "designationCode": "C", "categoryCode": "11", "address": "309 MAIN STREET", "city": "WINKLER", "province": "MB", "country": "CA", "postalCode": "R6W4A4", "twitter": "None", "instagram": "None", "facebook": "None", "youtube": "None", "website": "None", "summary": "None", "logo": "None", "latitude": 49.18196123469778, "longitude": -97.93910574535273}, "864407259RR0001": {"name": "EDEN FOOD FOR CHANGE", "designationCode": "C", "categoryCode": "09", "address": "2-3185 UNITY DRIVE", "city": "MISSISSAUGA", "province": "ON", "country": "CA", "postalCode": "L5L4L5", "twitter": "None", "instagram": "None", "facebook": "None", "youtube": "None", "website": "None", "summary": "None", "logo": "None", "latitude": 43.536464524611596, "longitude": -79.71027104832915}, "101569697RR0001": {"name": "EDEN FOUNDATION INC.", "designationCode": "A", "categoryCode": "13", "address": "PO BOX 129                    309 MAIN ST", "city": "WINKLER", "province": "MB", "country": "CA", "postalCode": "R6W4A4", "twitter": "None", "instagram": "None", "facebook": "None", "youtube": "None", "website": "None", "summary": "None", "logo": "None", "latitude": 49.18196123469778, "longitude": -97.93910574535273}, "122300874RR0001": {"name": "EDEN HEALTH CARE SERVICES INC", "designationCode": "C", "categoryCode": "11", "address": "309 MAIN STREET               PO BOX 129 MAIN", "city": "WINKLER", "province": "MB", "country": "CA", "postalCode": "R6W4A4", "twitter": "None", "instagram": "None", "facebook": "None", "youtube": "None", "website": "None", "summary": "None", "logo": "None", "latitude": 49.18196123469778, "longitude": -97.93910574535273}, "852990845RR0001": {"name": "EDEN HIGH SCHOOL SPIRITUAL LIFE CENTRE", "designationCode": "C", "categoryCode": "20", "address": "21 MOES CRES", "city": "ST CATHARINES", "province": "ON", "country": "CA", "postalCode": "L2M0B1", "twitter": "None", "instagram": "None", "facebook": "None", "youtube": "None", "website": "None", "summary": "None", "logo": "None", "latitude": 43.222761948870556, "longitude": -79.20874175324882}, "107280836RR0001": {"name": "EDEN MENNONITE CHURCH", "designationCode": "C", "categoryCode": "34", "address": "6215 PARSONS ROAD", "city": "CHILLIWACK", "province": "BC", "country": "CA", "postalCode": "V4Z1A4", "twitter": "None", "instagram": "None", "facebook": "None", "youtube": "None", "website": "None", "summary": "None", "logo": "None", "latitude": 49.11505340218693, "longitude": -121.89248555704306}, "118892967RR0001": {"name": "EDEN MENNONITE SOCIETY", "designationCode": "C", "categoryCode": "01", "address": "46575 CHILLIWACK CENTRAL RD", "city": "CHILLIWACK", "province": "BC", "country": "CA", "postalCode": "V2P1K1", "twitter": "None", "instagram": "None", "facebook": "None", "youtube": "None", "website": "None", "summary": "None", "logo": "None", "latitude": 49.162032276718165, "longitude": -121.93574587400762}, "107280844RR0001": {"name": "EDEN MENTAL HEALTH CENTRE", "designationCode": "C", "categoryCode": "10", "address": "PO BOX 129 STN MAIN", "city": "WINKLER", "province": "MB", "country": "CA", "postalCode": "R6W4A4", "twitter": "None", "instagram": "None", "facebook": "None", "youtube": "None", "website": "None", "summary": "None", "logo": "None", "latitude": 49.18426565617661, "longitude": -97.93929615472052}, "131887747RR0001": {"name": "EDEN MILLS MILLPOND CONSERVATION ASSOCIATION INC", "designationCode": "C", "categoryCode": "52", "address": "4949 WELLINGTON RD. 29        RR#2", "city": "GUELPH", "province": "ON", "country": "CA", "postalCode": "N1H6H8", "twitter": "None", "instagram": "None", "facebook": "None", "youtube": "None", "website": "None", "summary": "None", "logo": "None", "latitude": 43.5758594540941, "longitude": -80.15742322491226}, "118892991RR0001": {"name": "EDEN MILLS PRESBYTERIAN CHURCH", "designationCode": "C", "categoryCode": "37", "address": "136 BARDEN ST.", "city": "EDEN MILLS", "province": "ON", "country": "CA", "postalCode": "N0B1P0", "twitter": "None", "instagram": "None", "facebook": "None", "youtube": "None", "website": "None", "summary": "None", "logo": "None", "latitude": 43.572704268134174, "longitude": -80.15149131796387}, "865280770RR0001": {"name": "EDEN MILLS WRITERS' FESTIVAL", "designationCode": "C", "categoryCode": "22", "address": "19 CEDAR ST                   SS 1", "city": "EDEN MILLS", "province": "ON", "country": "CA", "postalCode": "N0B1P0", "twitter": "None", "instagram": "None", "facebook": "None", "youtube": "None", "website": "None", "summary": "None", "logo": "None", "latitude": 43.57759496808815, "longitude": -80.1460072927467}, "127234102RR0001": {"name": "EDEN RESIDENTIAL CARE SERVICES INC", "designationCode": "C", "categoryCode": "11", "address": "PO BOX 129", "city": "WINKLER", "province": "MB", "country": "CA", "postalCode": "R6W4B3", "twitter": "None", "instagram": "None", "facebook": "None", "youtube": "None", "website": "None", "summary": "None", "logo": "None", "latitude": 49.17773400000006, "longitude": -97.93841299999994}, "118893023RR0001": {"name": "EDEN UNITED CHURCH", "designationCode": "C", "categoryCode": "44", "address": "3051 BATTLEFORD ROAD", "city": "MISSISSAUGA", "province": "ON", "country": "CA", "postalCode": "L5N5Z9", "twitter": "None", "instagram": "None", "facebook": "None", "youtube": "None", "website": "None", "summary": "None", "logo": "None", "latitude": 43.57889412992648, "longitude": -79.75915012885862}, "119288918RR1372": {"name": "EDENBROOK CONGREGATION OF JEHOVAH'S WITNESSES, BRAMPTON, ONTARIO", "designationCode": "C", "categoryCode": "61", "address": "P.O. BOX 190", "city": "NORVAL", "province": "ON", "country": "CA", "postalCode": "L0P1K0", "twitter": "None", "instagram": "None", "facebook": "None", "youtube": "None", "website": "None", "summary": "None", "logo": "None", "latitude": 43.64690000000007, "longitude": -79.85805999999997}, "889373791RR0001": {"name": "EDENWOLD GOLDEN AGE SENIORS", "designationCode": "C", "categoryCode": "56", "address": "PO BOX 92", "city": "EDENWOLD", "province": "SK", "country": "CA", "postalCode": "S0G1K0", "twitter": "None", "instagram": "None", "facebook": "None", "youtube": "None", "website": "None", "summary": "None", "logo": "None", "latitude": 50.62997000000007, "longitude": -104.25361999999996}, "108080276RR0001": {"name": "EDGEHILL COUNTRY DAY SCHOOL OF GREY COUNTY", "designationCode": "C", "categoryCode": "20", "address": "423281 CONCESSION 6           RR #1", "city": "DURHAM", "province": "ON", "country": "CA", "postalCode": "N0G1R0", "twitter": "None", "instagram": "None", "facebook": "None", "youtube": "None", "website": "None", "summary": "None", "logo": "None", "latitude": 44.16302400000005, "longitude": -80.84237299999994}, "118893064RR0001": {"name": "EDGELEY RECREATION BOARD INC.", "designationCode": "C", "categoryCode": "56", "address": "BOX 876", "city": "FORT QU APPELLE", "province": "SK", "country": "CA", "postalCode": "S0G1S0", "twitter": "None", "instagram": "None", "facebook": "None", "youtube": "None", "website": "None", "summary": "None", "logo": "None", "latitude": 50.76964000000004, "longitude": -103.79339999999996}, "118893072RR0001": {"name": "EDGELEY UNITED CHURCH", "designationCode": "C", "categoryCode": "44", "address": "BOX 876", "city": "FORT QU'APPELLE", "province": "SK", "country": "CA", "postalCode": "S0G1S0", "twitter": "None", "instagram": "None", "facebook": "None", "youtube": "None", "website": "None", "summary": "None", "logo": "None", "latitude": 50.76964000000004, "longitude": -103.79339999999996}, "899865067RR0001": {"name": "EDGEMONT PARENT SCHOOL ASSOCIATION", "designationCode": "C", "categoryCode": "21", "address": "55 EDGEVALLEY CIRCLE NW", "city": "CALGARY", "province": "AB", "country": "CA", "postalCode": "T3A4X1", "twitter": "None", "instagram": "None", "facebook": "None", "youtube": "None", "website": "None", "summary": "None", "logo": "None", "latitude": 51.12971710851753, "longitude": -114.14498406841136}, "118893080RR0001": {"name": "EDGERTON & DISTRICT HISTORICAL SOCIETY", "designationCode": "C", "categoryCode": "50", "address": "PO BOX 174", "city": "EDGERTON", "province": "AB", "country": "CA", "postalCode": "T0B1K0", "twitter": "None", "instagram": "None", "facebook": "None", "youtube": "None", "website": "None", "summary": "None", "logo": "None", "latitude": 52.750140000000044, "longitude": -110.45159999999998}, "893190124RR0001": {"name": "EDGERTON PUBLIC SCHOOL FOUNDATION", "designationCode": "C", "categoryCode": "20", "address": "BOX 29", "city": "EDGERTON", "province": "AB", "country": "CA", "postalCode": "T0B1K0", "twitter": "None", "instagram": "None", "facebook": "None", "youtube": "None", "website": "None", "summary": "None", "logo": "None", "latitude": 52.750140000000044, "longitude": -110.45159999999998}, "823391875RR0001": {"name": "EDGEWATER GARDENS LONG-TERM CARE CENTRE", "designationCode": "C", "categoryCode": "10", "address": "428 BROAD STREET WEST", "city": "DUNNVILLE", "province": "ON", "country": "CA", "postalCode": "N1A1T3", "twitter": "None", "instagram": "None", "facebook": "None", "youtube": "None", "website": "None", "summary": "None", "logo": "None", "latitude": 42.906290056306155, "longitude": -79.625454012514}, "836558940RR0001": {"name": "EDGEWATER RECREATION SOCIETY", "designationCode": "C", "categoryCode": "56", "address": "BOX 114", "city": "EDGEWATER", "province": "BC", "country": "CA", "postalCode": "V0A1E0", "twitter": "None", "instagram": "None", "facebook": "None", "youtube": "None", "website": "None", "summary": "None", "logo": "None", "latitude": 50.68966246631537, "longitude": -116.12712126943927}, "824741326RR0001": {"name": "EDGEWOOD CAMP AND CONFERENCE CENTRE", "designationCode": "C", "categoryCode": "39", "address": "49 MEMORIAL STREET", "city": "EDEN MILLS", "province": "ON", "country": "CA", "postalCode": "N0B1P0", "twitter": "None", "instagram": "None", "facebook": "None", "youtube": "None", "website": "None", "summary": "None", "logo": "None", "latitude": 43.5756595531412, "longitude": -80.14086487119728}, "867454522RR0001": {"name": "EDGEWOOD COMMUNITY INTERNET SOCIETY", "designationCode": "C", "categoryCode": "20", "address": "322 MONASHEE AVE              SITE 5 COMP 18 RR #1", "city": "EDGEWOOD", "province": "BC", "country": "CA", "postalCode": "V0G1J0", "twitter": "None", "instagram": "None", "facebook": "None", "youtube": "None", "website": "None", "summary": "None", "logo": "None", "latitude": 49.77843307699429, "longitude": -118.14620537523697}, "136982840RR0001": {"name": "EDGEWOOD FOUNDATION", "designationCode": "C", "categoryCode": "57", "address": "2121 BOXWOOD ROAD", "city": "NANAIMO", "province": "BC", "country": "CA", "postalCode": "V9S4L2", "twitter": "None", "instagram": "None", "facebook": "None", "youtube": "None", "website": "None", "summary": "None", "logo": "None", "latitude": 49.18935979821342, "longitude": -123.9966664030033}, "817746274RR0001": {"name": "EDIFICE MAILLET INC.", "designationCode": "C", "categoryCode": "56", "address": "12 RUE MARTIN                 CP 529", "city": "SAINT-BASILE", "province": "NB", "country": "CA", "postalCode": "E7C1E4", "twitter": "None", "instagram": "None", "facebook": "None", "youtube": "None", "website": "None", "summary": "None", "logo": "None", "latitude": 47.357998350275935, "longitude": -68.23226117987717}, "107281289RR0001": {"name": "EDITH AVENUE UNITED BAPTIST CHURCH", "designationCode": "C", "categoryCode": "31", "address": "P.O BOX 14", "city": "SAINT JOHN EAST", "province": "NB", "country": "CA", "postalCode": "E2L3X1", "twitter": "None", "instagram": "None", "facebook": "None", "youtube": "None", "website": "None", "summary": "None", "logo": "None", "latitude": 45.27342600000006, "longitude": -66.06407149999993}, "118893163RR0001": {"name": "EDITH KATHAN HOME", "designationCode": "C", "categoryCode": "01", "address": "78 BOURGEOIS", "city": "GRANDBY", "province": "QC", "country": "CA", "postalCode": "J2G4A9", "twitter": "None", "instagram": "None", "facebook": "None", "youtube": "None", "website": "None", "summary": "None", "logo": "None", "latitude": 45.38610960892158, "longitude": -72.74578677101971}, "888668993RR0001": {"name": "EDITH MARY CAMPBELL TRUST FOUNDATION", "designationCode": "B", "categoryCode": "45", "address": "ANGLICAN DIOCESE OF MONTREAL  1444 UNION AVENUE", "city": "MONTREAL", "province": "QC", "country": "CA", "postalCode": "H3A2B8", "twitter": "None", "instagram": "None", "facebook": "None", "youtube": "None", "website": "None", "summary": "None", "logo": "None", "latitude": 45.50443994281272, "longitude": -73.57068662060699}, "118893189RR0001": {"name": "EDITH RANKIN MEMORIAL UNITED CHURCH", "designationCode": "C", "categoryCode": "39", "address": "4080 BATH ROAD", "city": "KINGSTON", "province": "ON", "country": "CA", "postalCode": "K7M4Y7", "twitter": "None", "instagram": "None", "facebook": "None", "youtube": "None", "website": "None", "summary": "None", "logo": "None", "latitude": 44.24006793502243, "longitude": -76.61266819966549}, "101574093RR0001": {"name": "EDITIONS CONTINUITE INC.", "designationCode": "C", "categoryCode": "21", "address": "82 GRANDE ALLEE OUEST", "city": "QUEBEC", "province": "QC", "country": "CA", "postalCode": "G1R2G6", "twitter": "None", "instagram": "None", "facebook": "None", "youtube": "None", "website": "None", "summary": "None", "logo": "None", "latitude": 46.802253539846376, "longitude": -71.22368827104837}, "834307969RR0001": {"name": "EDITIONS ET PRODUCTIONS NOTRE ESPOIR C'EST JESUS, NECJ", "designationCode": "C", "categoryCode": "47", "address": "8985 PLACE FRANCOIS-DEROME", "city": "MONTREAL", "province": "QC", "country": "CA", "postalCode": "H1E3E7", "twitter": "None", "instagram": "None", "facebook": "None", "youtube": "None", "website": "None", "summary": "None", "logo": "None", "latitude": 45.63996567084072, "longitude": -73.57139807106576}, "132215104RR0001": {"name": "EDITIONS PARFAM/PBE INC.", "designationCode": "C", "categoryCode": "20", "address": "8764 13E AVENUE", "city": "MONTREAL", "province": "QC", "country": "CA", "postalCode": "H1Z3K8", "twitter": "None", "instagram": "None", "facebook": "None", "youtube": "None", "website": "None", "summary": "None", "logo": "None", "latitude": 45.57024574242607, "longitude": -73.62114147988912}, "124167354RR0001": {"name": "EDMISON HEIGHTS BAPTIST CHURCH", "designationCode": "C", "categoryCode": "31", "address": "160 MARINA BLVD", "city": "PETERBOROUGH", "province": "ON", "country": "CA", "postalCode": "K9H6M9", "twitter": "None", "instagram": "None", "facebook": "None", "youtube": "None", "website": "None", "summary": "None", "logo": "None", "latitude": 44.33342279188038, "longitude": -78.3215458866637}, "107281750RR0001": {"name": "EDMISON HEIGHTS BIBLE CHAPEL", "designationCode": "C", "categoryCode": "39", "address": "939 HILLIARD ST", "city": "PETERBOROUGH", "province": "ON", "country": "CA", "postalCode": "K9H5R9", "twitter": "None", "instagram": "None", "facebook": "None", "youtube": "None", "website": "None", "summary": "None", "logo": "None", "latitude": 44.32794879148273, "longitude": -78.32278223652143}, "119288918RR0458": {"name": "EDMONDS CONGREGATION OF JEHOVAH'S WITNESSES", "designationCode": "C", "categoryCode": "61", "address": "206 - 1202 LONDON ST", "city": "NEW WESTMINSTER", "province": "BC", "country": "CA", "postalCode": "V3M5Z6", "twitter": "None", "instagram": "None", "facebook": "None", "youtube": "None", "website": "None", "summary": "None", "logo": "None", "latitude": 49.21251559168321, "longitude": -122.93689126288986}, "118893288RR0001": {"name": "EDMONDS SENIORS SOCIETY", "designationCode": "C", "categoryCode": "56", "address": "7433 EDMONDS STREET", "city": "BURNABY", "province": "BC", "country": "CA", "postalCode": "V3N1B1", "twitter": "None", "instagram": "None", "facebook": "None", "youtube": "None", "website": "None", "summary": "None", "logo": "None", "latitude": 49.2206450783828, "longitude": -122.94762951802946}, "118893296RR0001": {"name": "EDMONTON ACADEMY SOCIETY FOR LEARNING DISABLED", "designationCode": "C", "categoryCode": "20", "address": "2 - 810 SADDLEBACK RD NW", "city": "EDMONTON", "province": "AB", "country": "CA", "postalCode": "T6J4W4", "twitter": "None", "instagram": "None", "facebook": "None", "youtube": "None", "website": "None", "summary": "None", "logo": "None", "latitude": 53.45320050000001, "longitude": -113.525532}, "131637308RR0001": {"name": "EDMONTON AFTER SCHOOL CARE ASSOCIATION", "designationCode": "C", "categoryCode": "01", "address": "9150 160 ST NW", "city": "EDMONTON", "province": "AB", "country": "CA", "postalCode": "T5R2J2", "twitter": "None", "instagram": "None", "facebook": "None", "youtube": "None", "website": "None", "summary": "None", "logo": "None"}, "137518569RR0001": {"name": "EDMONTON AND DISTRICT HISTORICAL SOCIETY", "designationCode": "C", "categoryCode": "52", "address": "3-7730 106 ST NW", "city": "EDMONTON", "province": "AB", "country": "CA", "postalCode": "T6E4W3", "twitter": "None", "instagram": "None", "facebook": "None", "youtube": "None", "website": "None", "summary": "None", "logo": "None", "latitude": 53.51375252787249, "longitude": -113.50354018053464}, "107282014RR0001": {"name": "EDMONTON ASSEMBLY HALL OF JEHOVAH'S WITNESSES", "designationCode": "C", "categoryCode": "61", "address": "BOX 720", "city": "ONOWAY", "province": "AB", "country": "CA", "postalCode": "T0E1V0", "twitter": "None", "instagram": "None", "facebook": "None", "youtube": "None", "website": "None", "summary": "None", "logo": "None", "latitude": 53.70302000000004, "longitude": -114.19152999999994}, "892888959RR0001": {"name": "EDMONTON ASSOCIATION OF THE DEAF", "designationCode": "C", "categoryCode": "59", "address": "#203, 11404-142 STREET NW", "city": "EDMONTON", "province": "AB", "country": "CA", "postalCode": "T5M1V1", "twitter": "None", "instagram": "None", "facebook": "None", "youtube": "None", "website": "None", "summary": "None", "logo": "None", "latitude": 53.563085413266776, "longitude": -113.56589971487068}, "132190489RR0001": {"name": "EDMONTON AVIATION HERITAGE SOCIETY", "designationCode": "C", "categoryCode": "50", "address": "11410 KINGSWAY AVE", "city": "EDMONTON", "province": "AB", "country": "CA", "postalCode": "T5G0X4", "twitter": "None", "instagram": "None", "facebook": "None", "youtube": "None", "website": "None", "summary": "None", "logo": "None", "latitude": 53.565409817634944, "longitude": -113.51819930094248}, "118893411RR0001": {"name": "EDMONTON BETH SHALOM CONGREGATION", "designationCode": "C", "categoryCode": "42", "address": "11916 JASPER AVE NW", "city": "EDMONTON", "province": "AB", "country": "CA", "postalCode": "T5K0N9", "twitter": "None", "instagram": "None", "facebook": "None", "youtube": "None", "website": "None", "summary": "None", "logo": "None", "latitude": 53.540956464365884, "longitude": -113.52811147446478}}