{"866550106RR0001": {"name": "KITIMAT HARVEST MINISTRIES INTERNATIONAL", "designationCode": "C", "categoryCode": "39", "address": "P.O. BOX 203 STN MAIN", "city": "KITIMAT", "province": "BC", "country": "CA", "postalCode": "V8C2G7", "twitter": "None", "instagram": "None", "facebook": "None", "youtube": "None", "website": "None", "summary": "None", "logo": "None", "latitude": 54.05515800000006, "longitude": -128.65506199999993}, "890125669RR0001": {"name": "KITIMAT HOSPICE PALLIATIVE CARE ASSOCIATION", "designationCode": "C", "categoryCode": "09", "address": "PO BOX 332", "city": "KITIMAT", "province": "BC", "country": "CA", "postalCode": "V8C2G8", "twitter": "None", "instagram": "None", "facebook": "None", "youtube": "None", "website": "None", "summary": "None", "logo": "None", "latitude": 54.05515800000006, "longitude": -128.65506199999993}, "134696160RR0001": {"name": "KITIMAT MARINE RESCUE SOCIETY", "designationCode": "C", "categoryCode": "59", "address": "P.O. BOX 361", "city": "KITIMAT", "province": "BC", "country": "CA", "postalCode": "V8C2G8", "twitter": "None", "instagram": "None", "facebook": "None", "youtube": "None", "website": "None", "summary": "None", "logo": "None", "latitude": 54.05515800000006, "longitude": -128.65506199999993}, "118983626RR0001": {"name": "KITIMAT MUSEUM & ARCHIVES", "designationCode": "C", "categoryCode": "50", "address": "293 CITY CENTRE", "city": "KITIMAT", "province": "BC", "country": "CA", "postalCode": "V8C1T6", "twitter": "None", "instagram": "None", "facebook": "None", "youtube": "None", "website": "None", "summary": "None", "logo": "None", "latitude": 54.05308325152791, "longitude": -128.65518431048224}, "891370678RR0002": {"name": "KITIMAT PENTECOSTAL FELLOWSHIP", "designationCode": "C", "categoryCode": "39", "address": "1340 KINGFISHER AVE S", "city": "KITIMAT", "province": "BC", "country": "CA", "postalCode": "V8C1G6", "twitter": "None", "instagram": "None", "facebook": "None", "youtube": "None", "website": "None", "summary": "None", "logo": "None", "latitude": 54.059343691876165, "longitude": -128.6300090916039}, "107572869RR0001": {"name": "KITIMAT PRESBYTERIAN CHURCH", "designationCode": "C", "categoryCode": "37", "address": "1274 NALABILA BLVD.", "city": "KITIMAT", "province": "BC", "country": "CA", "postalCode": "V8C2H6", "twitter": "None", "instagram": "None", "facebook": "None", "youtube": "None", "website": "None", "summary": "None", "logo": "None", "latitude": 54.06345286015607, "longitude": -128.63736236172724}, "118983725RR0001": {"name": "KITIMAT PUBLIC LIBRARY ASSOCIATION", "designationCode": "C", "categoryCode": "50", "address": "940 WAKASHAN AVENUE", "city": "KITIMAT", "province": "BC", "country": "CA", "postalCode": "V8C2G3", "twitter": "None", "instagram": "None", "facebook": "None", "youtube": "None", "website": "None", "summary": "None", "logo": "None", "latitude": 54.0512878980393, "longitude": -128.6518996915497}, "118983733RR0001": {"name": "KITIMAT SCHOLARSHIP ASSOCIATION", "designationCode": "C", "categoryCode": "21", "address": "1491 KINGFISHER AVE", "city": "KITIMAT", "province": "BC", "country": "CA", "postalCode": "V8C1E9", "twitter": "None", "instagram": "None", "facebook": "None", "youtube": "None", "website": "None", "summary": "None", "logo": "None", "latitude": 54.06151545617445, "longitude": -128.62734163147664}, "805755287RR0001": {"name": "KITIMAT SENIOR CITIZENS' ASSOCIATION BRANCH #129", "designationCode": "C", "categoryCode": "56", "address": "658 COLUMBIA W", "city": "KITIMAT", "province": "BC", "country": "CA", "postalCode": "V8C1V5", "twitter": "None", "instagram": "None", "facebook": "None", "youtube": "None", "website": "None", "summary": "None", "logo": "None", "latitude": 54.053404279107006, "longitude": -128.66903048012816}, "118983741RR0001": {"name": "KITIMAT SIKH SOCIETY", "designationCode": "C", "categoryCode": "62", "address": "1600 NALABILA BLVD.", "city": "KITIMAT", "province": "BC", "country": "CA", "postalCode": "V8C1E6", "twitter": "None", "instagram": "None", "facebook": "None", "youtube": "None", "website": "None", "summary": "None", "logo": "None", "latitude": 54.058012486403975, "longitude": -128.62371100073744}, "139362933RR0001": {"name": "KITIMAT UNDERSTANDING THE ENVIRONMENT SOCIETY", "designationCode": "C", "categoryCode": "59", "address": "24 DUNCAN ST", "city": "KITIMAT", "province": "BC", "country": "CA", "postalCode": "V8C2N7", "twitter": "None", "instagram": "None", "facebook": "None", "youtube": "None", "website": "None", "summary": "None", "logo": "None", "latitude": 54.0652392489756, "longitude": -128.64998684886612}, "118983758RR0001": {"name": "KITSCOTY & DISTRICT AGRICULTURAL SOCIETY", "designationCode": "C", "categoryCode": "56", "address": "P.O. BOX 203", "city": "KITSCOTY", "province": "AB", "country": "CA", "postalCode": "T0B2P0", "twitter": "None", "instagram": "None", "facebook": "None", "youtube": "None", "website": "None", "summary": "None", "logo": "None", "latitude": 53.33346000000006, "longitude": -110.33489999999995}, "898195342RR0001": {"name": "KITSCOTY-MARWAYNE PASTORAL CHARGE", "designationCode": "C", "categoryCode": "44", "address": "PO BOX 204", "city": "BLACKFOOT", "province": "AB", "country": "CA", "postalCode": "T0B0L0", "twitter": "None", "instagram": "None", "facebook": "None", "youtube": "None", "website": "None", "summary": "None", "logo": "None", "latitude": 53.28890337040446, "longitude": -110.22951732215061}, "139604813RR0001": {"name": "KITSILANO AREA CHILD CARE SOCIETY", "designationCode": "C", "categoryCode": "01", "address": "2041, W. 6TH AVENUE", "city": "VANCOUVER", "province": "BC", "country": "CA", "postalCode": "V6J1R8", "twitter": "None", "instagram": "None", "facebook": "None", "youtube": "None", "website": "None", "summary": "None", "logo": "None", "latitude": 49.266446467684105, "longitude": -123.15154402553523}, "130841612RR0001": {"name": "KITSILANO CHRISTIAN COMMUNITY", "designationCode": "C", "categoryCode": "31", "address": "1708 WEST 16TH AVENUE", "city": "VANCOUVER", "province": "BC", "country": "CA", "postalCode": "V6J2M1", "twitter": "None", "instagram": "None", "facebook": "None", "youtube": "None", "website": "None", "summary": "None", "logo": "None", "latitude": 49.257138470136944, "longitude": -123.14478463780367}, "107572976RR0001": {"name": "KITSILANO WAR MEMORIAL COMMUNITY CENTRE ASSOCIATION", "designationCode": "C", "categoryCode": "56", "address": "2690 LARCH ST", "city": "VANCOUVER", "province": "BC", "country": "CA", "postalCode": "V6K4K9", "twitter": "None", "instagram": "None", "facebook": "None", "youtube": "None", "website": "None", "summary": "None", "logo": "None", "latitude": 49.26216817872543, "longitude": -123.16239473058513}, "863403598RR0001": {"name": "KITTY CAT KEEP PET SANCTUARY", "designationCode": "C", "categoryCode": "54", "address": "310 CORVETTE STREET", "city": "WELLAND", "province": "ON", "country": "CA", "postalCode": "L3B4S6", "twitter": "None", "instagram": "None", "facebook": "None", "youtube": "None", "website": "None", "summary": "None", "logo": "None", "latitude": 42.98333247879261, "longitude": -79.239942}, "816260749RR0001": {"name": "KITTYHAWK ANIMAL FOUNDATION", "designationCode": "B", "categoryCode": "54", "address": "128 WEST RAILWAY STREET", "city": "EDMONTON", "province": "AB", "country": "CA", "postalCode": "T6T1J1", "twitter": "None", "instagram": "None", "facebook": "None", "youtube": "None", "website": "None", "summary": "None", "logo": "None", "latitude": 53.45790847095652, "longitude": -113.34653237202346}, "891257545RR0001": {"name": "KIVALLIQ SCIENCE EDUCATORS COMMUNITY", "designationCode": "C", "categoryCode": "21", "address": "P.O. BOX 875", "city": "RANKIN INLET", "province": "NU", "country": "CA", "postalCode": "X0C0G0", "twitter": "None", "instagram": "None", "facebook": "None", "youtube": "None", "website": "None", "summary": "None", "logo": "None", "latitude": 62.80714000000006, "longitude": -92.08334999999994}, "890743149RR0001": {"name": "KIWANIS - ARMSTRONG TRUST", "designationCode": "C", "categoryCode": "21", "address": "PO BOX 1617 STN MAIN", "city": "BROOKS", "province": "AB", "country": "CA", "postalCode": "T1R1C4", "twitter": "None", "instagram": "None", "facebook": "None", "youtube": "None", "website": "None", "summary": "None", "logo": "None", "latitude": 50.56584900000006, "longitude": -111.89848399999994}, "867884959RR0001": {"name": "KIWANIS ARTS CENTRE SOCIETY", "designationCode": "C", "categoryCode": "22", "address": "10401-10 STREET", "city": "DAWSON CREEK", "province": "BC", "country": "CA", "postalCode": "V1G3T8", "twitter": "None", "instagram": "None", "facebook": "None", "youtube": "None", "website": "None", "summary": "None", "logo": "None", "latitude": 55.756614802671784, "longitude": -120.23024131504968}, "123078552RR0001": {"name": "KIWANIS CARE FOUNDATION OF NEW WESTMINSTER", "designationCode": "A", "categoryCode": "13", "address": "35 CLUTE STREET", "city": "NEW WESTMINSTER", "province": "BC", "country": "CA", "postalCode": "V3L1Z5", "twitter": "None", "instagram": "None", "facebook": "None", "youtube": "None", "website": "None", "summary": "None", "logo": "None", "latitude": 49.22306593340632, "longitude": -122.91470713713983}, "118983915RR0001": {"name": "KIWANIS CHARITIES OF SAINT JOHN", "designationCode": "C", "categoryCode": "63", "address": "P.O. BOX 7312                 STATION \"A\"", "city": "SAINT-JOHN", "province": "NB", "country": "CA", "postalCode": "E2L4S7", "twitter": "None", "instagram": "None", "facebook": "None", "youtube": "None", "website": "None", "summary": "None", "logo": "None", "latitude": 45.275982999946635, "longitude": -66.06366741188242}, "841763675RR0001": {"name": "KIWANIS CHILDREN'S FARM CHARITABLE FOUNDATION", "designationCode": "A", "categoryCode": "53", "address": "P.O. BOX 116", "city": "SARNIA", "province": "ON", "country": "CA", "postalCode": "N7T7H8", "twitter": "None", "instagram": "None", "facebook": "None", "youtube": "None", "website": "None", "summary": "None", "logo": "None", "latitude": 42.97877700000005, "longitude": -82.40368399999993}, "889032199RR0001": {"name": "KIWANIS CLUB OF BRAMPTON CHARITABLE TRUST", "designationCode": "C", "categoryCode": "65", "address": "262 MURRAY ST", "city": "BRAMPTON", "province": "ON", "country": "CA", "postalCode": "L6X3T4", "twitter": "None", "instagram": "None", "facebook": "None", "youtube": "None", "website": "None", "summary": "None", "logo": "None", "latitude": 43.70059975965141, "longitude": -79.78569401260904}, "867140873RR0001": {"name": "KIWANIS CLUB OF BRANTFORD CHARITABLE TRUST", "designationCode": "C", "categoryCode": "65", "address": "POST OFFICE BOX 23056", "city": "BRANTFORD", "province": "ON", "country": "CA", "postalCode": "N3T6K4", "twitter": "None", "instagram": "None", "facebook": "None", "youtube": "None", "website": "None", "summary": "None", "logo": "None", "latitude": 43.14136200000006, "longitude": -80.26173349999993}, "891487647RR0001": {"name": "KIWANIS CLUB OF BYTOWN", "designationCode": "C", "categoryCode": "50", "address": "53 PICASSO DR", "city": "OTTAWA", "province": "ON", "country": "CA", "postalCode": "K1G5S6", "twitter": "None", "instagram": "None", "facebook": "None", "youtube": "None", "website": "None", "summary": "None", "logo": "None", "latitude": 45.37238044714055, "longitude": -75.60695555233985}, "886132190RR0001": {"name": "KIWANIS CLUB OF CALGARY KAMP KIWANIS", "designationCode": "C", "categoryCode": "56", "address": "241001 RANGE RD 42", "city": "CALGARY", "province": "AB", "country": "CA", "postalCode": "T3Z2X5", "twitter": "None", "instagram": "None", "facebook": "None", "youtube": "None", "website": "None", "summary": "None", "logo": "None", "latitude": 51.010600499999995, "longitude": -114.46681724999999}, "877642470RR0001": {"name": "KIWANIS CLUB OF CLARENVILLE MUSIC FESTIVAL COMMITTEE", "designationCode": "C", "categoryCode": "22", "address": "247 C TRANS CANADA HIGHWAY", "city": "CLARENVILLE", "province": "NL", "country": "CA", "postalCode": "A5A1Y4", "twitter": "None", "instagram": "None", "facebook": "None", "youtube": "None", "website": "None", "summary": "None", "logo": "None", "latitude": 48.14794361832245, "longitude": -53.969087317029064}, "118983980RR0001": {"name": "KIWANIS CLUB OF CORNWALL CHILDREN'S CHARITABLE TRUST", "designationCode": "C", "categoryCode": "65", "address": "P/O BOX 1471", "city": "CORNWALL", "province": "ON", "country": "CA", "postalCode": "K6H5V5", "twitter": "None", "instagram": "None", "facebook": "None", "youtube": "None", "website": "None", "summary": "None", "logo": "None", "latitude": 45.028419000000056, "longitude": -74.73569299999993}, "889676862RR0001": {"name": "KIWANIS CLUB OF DARTMOUTH CHARITABLE FOUNDATION", "designationCode": "A", "categoryCode": "03", "address": "PO BOX 321", "city": "DARTMOUTH", "province": "NS", "country": "CA", "postalCode": "B2Y3Y5", "twitter": "None", "instagram": "None", "facebook": "None", "youtube": "None", "website": "None", "summary": "None", "logo": "None", "latitude": 44.67403500000006, "longitude": -63.57535099999993}, "894241660RR0001": {"name": "KIWANIS CLUB OF EDMONTON CHARITY TRUST", "designationCode": "C", "categoryCode": "22", "address": "2ND FLOOR 14205-109 AVENUE", "city": "EDMONTON", "province": "AB", "country": "CA", "postalCode": "T5N1H5", "twitter": "None", "instagram": "None", "facebook": "None", "youtube": "None", "website": "None", "summary": "None", "logo": "None", "latitude": 53.55412951399404, "longitude": -113.5664232485429}, "118984228RR0001": {"name": "KIWANIS CLUB OF FOREST CITY - LONDON", "designationCode": "A", "categoryCode": "65", "address": "PO BOX 312 STATION B", "city": "LONDON", "province": "ON", "country": "CA", "postalCode": "N6A4W1", "twitter": "None", "instagram": "None", "facebook": "None", "youtube": "None", "website": "None", "summary": "None", "logo": "None", "latitude": 42.98689500000006, "longitude": -81.24624349999993}, "118984012RR0001": {"name": "KIWANIS CLUB OF GUELPH INC. CHARITABLE TRUST", "designationCode": "C", "categoryCode": "65", "address": "PO BOX 241", "city": "GUELPH", "province": "ON", "country": "CA", "postalCode": "N1H6J9", "twitter": "None", "instagram": "None", "facebook": "None", "youtube": "None", "website": "None", "summary": "None", "logo": "None", "latitude": 43.54455300000005, "longitude": -80.24788249999993}, "118984038RR0001": {"name": "KIWANIS CLUB OF INGERSOLL, CHARITABLE TRUST", "designationCode": "C", "categoryCode": "65", "address": "P.O. BOX 11", "city": "INGERSOLL", "province": "ON", "country": "CA", "postalCode": "N5C3K1", "twitter": "None", "instagram": "None", "facebook": "None", "youtube": "None", "website": "None", "summary": "None", "logo": "None", "latitude": 43.03811400000005, "longitude": -80.88381349999993}, "132784745RR0001": {"name": "KIWANIS CLUB OF KITCHENER-WATERLOO CHARITY TRUST", "designationCode": "C", "categoryCode": "65", "address": "163 BROOKMEAD ST", "city": "ELMIRA", "province": "ON", "country": "CA", "postalCode": "N3B0A2", "twitter": "None", "instagram": "None", "facebook": "None", "youtube": "None", "website": "None", "summary": "None", "logo": "None", "latitude": 43.59606597694629, "longitude": -80.5694592932367}, "118984053RR0001": {"name": "KIWANIS CLUB OF LETHBRIDGE TRUST", "designationCode": "C", "categoryCode": "22", "address": "3425-2ND AVENUE SOUTH", "city": "LETHBRIDGE", "province": "AB", "country": "CA", "postalCode": "T1J4V1", "twitter": "None", "instagram": "None", "facebook": "None", "youtube": "None", "website": "None", "summary": "None", "logo": "None", "latitude": 49.696839530439966, "longitude": -112.78914308381903}, "118984079RR0001": {"name": "KIWANIS CLUB OF MIDDLESEX BEQUEST AND ENDOWMENT FUND", "designationCode": "A", "categoryCode": "65", "address": "78 RIVERSIDE DRIVE", "city": "LONDON", "province": "ON", "country": "CA", "postalCode": "N6H1B4", "twitter": "None", "instagram": "None", "facebook": "None", "youtube": "None", "website": "None", "summary": "None", "logo": "None", "latitude": 42.9828094773503, "longitude": -81.26138130544173}, "889881199RR0001": {"name": "KIWANIS CLUB OF MIDDLESEX CHARITABLE TRUST FUND", "designationCode": "A", "categoryCode": "65", "address": "78 RIVERSIDE DR.", "city": "LONDON", "province": "ON", "country": "CA", "postalCode": "N6H1B4", "twitter": "None", "instagram": "None", "facebook": "None", "youtube": "None", "website": "None", "summary": "None", "logo": "None", "latitude": 42.9828094773503, "longitude": -81.26138130544173}, "891357246RR0001": {"name": "KIWANIS CLUB OF ORILLIA, CHARITABLE TRUST", "designationCode": "A", "categoryCode": "65", "address": "P.O. BOX 184", "city": "ORILLIA", "province": "ON", "country": "CA", "postalCode": "L3V6J3", "twitter": "None", "instagram": "None", "facebook": "None", "youtube": "None", "website": "None", "summary": "None", "logo": "None", "latitude": 44.60657100000006, "longitude": -79.41824449999993}, "889090767RR0001": {"name": "KIWANIS CLUB OF OSHAWA EDUCATION FOUNDATION", "designationCode": "C", "categoryCode": "21", "address": "PO BOX 58052                  500 ROSSLAND RD. WEST", "city": "OSHAWA", "province": "ON", "country": "CA", "postalCode": "L1J3J0", "twitter": "None", "instagram": "None", "facebook": "None", "youtube": "None", "website": "None", "summary": "None", "logo": "None", "latitude": 43.91084618016021, "longitude": -78.89033963379295}, "118984137RR0001": {"name": "KIWANIS CLUB OF OTTAWA FOUNDATION", "designationCode": "C", "categoryCode": "65", "address": "#201 - 1283 ALGOMA ROAD", "city": "OTTAWA", "province": "ON", "country": "CA", "postalCode": "K1B3W7", "twitter": "None", "instagram": "None", "facebook": "None", "youtube": "None", "website": "None", "summary": "None", "logo": "None", "latitude": 45.416831045847644, "longitude": -75.61907874565738}, "893000786RR0001": {"name": "KIWANIS CLUB OF RIVERSIDE OF OTTAWA INC ENDOWMENT TRUST", "designationCode": "A", "categoryCode": "65", "address": "15 DUNVEGAN ROAD", "city": "OTTAWA", "province": "ON", "country": "CA", "postalCode": "K1K3E8", "twitter": "None", "instagram": "None", "facebook": "None", "youtube": "None", "website": "None", "summary": "None", "logo": "None", "latitude": 45.454155800161615, "longitude": -75.66119102787249}, "886709799RR0001": {"name": "KIWANIS CLUB OF ST CATHARINES CHARITABLE TRUST", "designationCode": "C", "categoryCode": "63", "address": "20 PARKLANE CRES", "city": "ST CATHARINES", "province": "ON", "country": "CA", "postalCode": "L2T3V1", "twitter": "None", "instagram": "None", "facebook": "None", "youtube": "None", "website": "None", "summary": "None", "logo": "None", "latitude": 43.13082546681873, "longitude": -79.24666400389513}, "891570244RR0001": {"name": "KIWANIS CLUB OF ST. GEORGE FOUNDATION INC", "designationCode": "A", "categoryCode": "63", "address": "P.O. BOX 95                   POSTAL STATION SNOWDON", "city": "MONTREAL", "province": "QC", "country": "CA", "postalCode": "H3X3T3", "twitter": "None", "instagram": "None", "facebook": "None", "youtube": "None", "website": "None", "summary": "None", "logo": "None", "latitude": 45.48034331254028, "longitude": -73.62887745429128}, "118984202RR0001": {"name": "KIWANIS CLUB OF THE KINGSWAY CHARITABLE FOUNDATION", "designationCode": "A", "categoryCode": "63", "address": "102 - 2576 MATHESON BLVD E", "city": "MISSISSAUGA", "province": "ON", "country": "CA", "postalCode": "L4W5H1", "twitter": "None", "instagram": "None", "facebook": "None", "youtube": "None", "website": "None", "summary": "None", "logo": "None", "latitude": 43.659486898176226, "longitude": -79.60205412412675}, "898913009RR0001": {"name": "KIWANIS CLUB OF WESTFORT CHARITABLE TRUST", "designationCode": "C", "categoryCode": "01", "address": "P.O. BOX 10007", "city": "THUNDER BAY", "province": "ON", "country": "CA", "postalCode": "P7B5W4", "twitter": "None", "instagram": "None", "facebook": "None", "youtube": "None", "website": "None", "summary": "None", "logo": "None", "latitude": 48.408738000000056, "longitude": -89.25660799999993}, "107573297RR0001": {"name": "KIWANIS CLUB OF WINNIPEG FOUNDATION INC.", "designationCode": "A", "categoryCode": "65", "address": "430 WEBB PLACE", "city": "WINNIPEG", "province": "MB", "country": "CA", "postalCode": "R3B3J7", "twitter": "None", "instagram": "None", "facebook": "None", "youtube": "None", "website": "None", "summary": "None", "logo": "None", "latitude": 49.893149747129264, "longitude": -97.15016789174227}, "881861611RR0001": {"name": "KIWANIS FRASER VALLEY MUSIC FESTIVAL SOCIETY", "designationCode": "C", "categoryCode": "22", "address": "313 NINTH ST", "city": "NEW WESTMINSTER", "province": "BC", "country": "CA", "postalCode": "V3M3V5", "twitter": "None", "instagram": "None", "facebook": "None", "youtube": "None", "website": "None", "summary": "None", "logo": "None", "latitude": 49.206229255468834, "longitude": -122.92035217471111}, "118984269RR0001": {"name": "KIWANIS MUSIC & DANCE FESTIVAL", "designationCode": "C", "categoryCode": "22", "address": "211 - 469 BOUCHARD ST", "city": "SUDBURY", "province": "ON", "country": "CA", "postalCode": "P3E2K8", "twitter": "None", "instagram": "None", "facebook": "None", "youtube": "None", "website": "None", "summary": "None", "logo": "None", "latitude": 46.46091754284748, "longitude": -81.01174325007212}, "118984251RR0001": {"name": "KIWANIS MUSIC AND DANCE FESTIVAL ASSOCIATION -NATIONAL CAPI TAL REGION", "designationCode": "C", "categoryCode": "22", "address": "934A HAMLET ROAD", "city": "OTTAWA", "province": "ON", "country": "CA", "postalCode": "K1G1R5", "twitter": "None", "instagram": "None", "facebook": "None", "youtube": "None", "website": "None", "summary": "None", "logo": "None", "latitude": 45.39993054733314, "longitude": -75.62814234300978}, "131219990RR0001": {"name": "KIWANIS MUSIC FESTIVAL", "designationCode": "C", "categoryCode": "22", "address": "BOX 883", "city": "KINGSTON", "province": "ON", "country": "CA", "postalCode": "K7L4X8", "twitter": "None", "instagram": "None", "facebook": "None", "youtube": "None", "website": "None", "summary": "None", "logo": "None", "latitude": 44.23153200000006, "longitude": -76.47933049999993}, "107573388RR0001": {"name": "KIWANIS MUSIC FESTIVAL ASSOCIATION OF GREATER TORONTO", "designationCode": "C", "categoryCode": "22", "address": "17 PINEMORE CRES", "city": "NORTH YORK", "province": "ON", "country": "CA", "postalCode": "M3A1W5", "twitter": "None", "instagram": "None", "facebook": "None", "youtube": "None", "website": "None", "summary": "None", "logo": "None", "latitude": 43.75696276934627, "longitude": -79.31712592700102}, "887047199RR0001": {"name": "KIWANIS MUSIC FESTIVAL CHARITABLE TRUST,", "designationCode": "C", "categoryCode": "22", "address": "5 GEMMELL COURT", "city": "STRATFORD", "province": "ON", "country": "CA", "postalCode": "N5A7W9", "twitter": "None", "instagram": "None", "facebook": "None", "youtube": "None", "website": "None", "summary": "None", "logo": "None", "latitude": 43.3875849575279, "longitude": -80.9963291591553}, "118984293RR0001": {"name": "KIWANIS MUSIC FESTIVAL SOCIETY OF KELOWNA", "designationCode": "C", "categoryCode": "22", "address": "721 BERNARD AVE", "city": "KELOWNA", "province": "BC", "country": "CA", "postalCode": "V1Y6P6", "twitter": "None", "instagram": "None", "facebook": "None", "youtube": "None", "website": "None", "summary": "None", "logo": "None", "latitude": 49.88620153309642, "longitude": -119.48785604149533}, "875239022RR0001": {"name": "KIWANIS MUSIC FESTIVAL WINDSOR-ESSEX COUNTY", "designationCode": "C", "categoryCode": "22", "address": "863 HACIENDA CRT", "city": "WINDSOR", "province": "ON", "country": "CA", "postalCode": "N9G2T1", "twitter": "None", "instagram": "None", "facebook": "None", "youtube": "None", "website": "None", "summary": "None", "logo": "None", "latitude": 42.238023224248444, "longitude": -82.98640970664772}, "107573404RR0001": {"name": "KIWANIS NURSING HOME INC.", "designationCode": "C", "categoryCode": "10", "address": "11 BRYANT DRIVE", "city": "SUSSEX", "province": "NB", "country": "CA", "postalCode": "E4E2P3", "twitter": "None", "instagram": "None", "facebook": "None", "youtube": "None", "website": "None", "summary": "None", "logo": "None", "latitude": 45.7274388847887, "longitude": -65.48746227875174}, "889029468RR0001": {"name": "KIWANIS SINGERS ASSOCIATION OF EDMONTON", "designationCode": "C", "categoryCode": "22", "address": "12204-42 AVENUE", "city": "EDMONTON", "province": "AB", "country": "CA", "postalCode": "T6J0W9", "twitter": "None", "instagram": "None", "facebook": "None", "youtube": "None", "website": "None", "summary": "None", "logo": "None", "latitude": 53.47835427866577, "longitude": -113.54615277909845}, "892737321RR0001": {"name": "KIWANIS TRUST FUND OF SUSSEX INC", "designationCode": "A", "categoryCode": "03", "address": "48 MAPLE AVE                  P.O. BOX 4340", "city": "SUSSEX", "province": "NB", "country": "CA", "postalCode": "E4E2N5", "twitter": "None", "instagram": "None", "facebook": "None", "youtube": "None", "website": "None", "summary": "None", "logo": "None", "latitude": 45.724099032302895, "longitude": -65.50930618070359}, "862621844RR0001": {"name": "KIWANIS/SILLERY/STE-FOY/CAP-ROUGE (BIENFAISANCE)", "designationCode": "C", "categoryCode": "09", "address": "1162, DE FENOUILLET", "city": "QU\u00c9BEC", "province": "QC", "country": "CA", "postalCode": "G1Y2Y5", "twitter": "None", "instagram": "None", "facebook": "None", "youtube": "None", "website": "None", "summary": "None", "logo": "None", "latitude": 46.75078796753988, "longitude": -71.3650888482023}, "129885000RR0001": {"name": "KIWASSA HOUSING SOCIETY", "designationCode": "C", "categoryCode": "01", "address": "2425 OXFORD STREET", "city": "VANCOUVER", "province": "BC", "country": "CA", "postalCode": "V5K1M7", "twitter": "None", "instagram": "None", "facebook": "None", "youtube": "None", "website": "None", "summary": "None", "logo": "None", "latitude": 49.28580657107204, "longitude": -123.05604928553602}, "107573479RR0001": {"name": "KIWASSA NEIGHBOURHOOD SERVICES ASSOCIATION", "designationCode": "C", "categoryCode": "09", "address": "2425 OXFORD STREET", "city": "VANCOUVER", "province": "BC", "country": "CA", "postalCode": "V5K1M7", "twitter": "None", "instagram": "None", "facebook": "None", "youtube": "None", "website": "None", "summary": "None", "logo": "None", "latitude": 49.28580657107204, "longitude": -123.05604928553602}, "707777298RR0001": {"name": "KLAWS FOUNDATION", "designationCode": "B", "categoryCode": "03", "address": "1201 - 20 COLLIER ST", "city": "TORONTO", "province": "ON", "country": "CA", "postalCode": "M4W3Y4", "twitter": "None", "instagram": "None", "facebook": "None", "youtube": "None", "website": "None", "summary": "None", "logo": "None", "latitude": 43.67233220511852, "longitude": -79.38673873633789}, "878162320RR0001": {"name": "KLD WELLNESS FOUNDATION INC.", "designationCode": "A", "categoryCode": "13", "address": "PO BOX 730", "city": "KERROBERT", "province": "SK", "country": "CA", "postalCode": "S0L1R0", "twitter": "None", "instagram": "None", "facebook": "None", "youtube": "None", "website": "None", "summary": "None", "logo": "None", "latitude": 51.920060000000035, "longitude": -109.13800999999995}, "122726789RR0001": {"name": "KLEEFELD CHRISTIAN COMMUNITY, INC", "designationCode": "C", "categoryCode": "47", "address": "BOX 338", "city": "KLEEFELD", "province": "MB", "country": "CA", "postalCode": "R0A0V0", "twitter": "None", "instagram": "None", "facebook": "None", "youtube": "None", "website": "None", "summary": "None", "logo": "None", "latitude": 49.50258000000008, "longitude": -96.87267999999995}, "131081309RR0001": {"name": "KLEEFELD EVANGELICAL MENNONITE CHURCH,", "designationCode": "C", "categoryCode": "34", "address": "BOX 129", "city": "KLEEFELD", "province": "MB", "country": "CA", "postalCode": "R0A0V0", "twitter": "None", "instagram": "None", "facebook": "None", "youtube": "None", "website": "None", "summary": "None", "logo": "None", "latitude": 49.50258000000008, "longitude": -96.87267999999995}, "118984384RR0001": {"name": "KLEEFELD RECREATIONAL ASSOCIATION INC.", "designationCode": "C", "categoryCode": "56", "address": "BOX 289", "city": "KLEEFELD", "province": "MB", "country": "CA", "postalCode": "R0A0V0", "twitter": "None", "instagram": "None", "facebook": "None", "youtube": "None", "website": "None", "summary": "None", "logo": "None", "latitude": 49.50258000000008, "longitude": -96.87267999999995}, "864963566RR0001": {"name": "KLEZKANADA", "designationCode": "C", "categoryCode": "22", "address": "315 - 4350 RUE SHERBROOKE O", "city": "WESTMOUNT", "province": "QC", "country": "CA", "postalCode": "H3Z1E3", "twitter": "None", "instagram": "None", "facebook": "None", "youtube": "None", "website": "None", "summary": "None", "logo": "None", "latitude": 45.48499055562941, "longitude": -73.59651047429189}, "107574063RR0001": {"name": "KLINIC, INC.", "designationCode": "C", "categoryCode": "11", "address": "870 PORTAGE AVENUE", "city": "WINNIPEG", "province": "MB", "country": "CA", "postalCode": "R3G0P1", "twitter": "None", "instagram": "None", "facebook": "None", "youtube": "None", "website": "None", "summary": "None", "logo": "None", "latitude": 49.88569992587585, "longitude": -97.16868668552723}, "842439622RR0001": {"name": "KLS Foundation", "designationCode": "B", "categoryCode": "03", "address": "1631 DICKSON AVENUE           SUITE 1700", "city": "KELOWNA", "province": "BC", "country": "CA", "postalCode": "V1Y0B5", "twitter": "None", "instagram": "None", "facebook": "None", "youtube": "None", "website": "None", "summary": "None", "logo": "None", "latitude": 49.88064051067581, "longitude": -119.46192316763806}, "893530568RR0001": {"name": "KLUDAHK OUTDOORS CLUB", "designationCode": "C", "categoryCode": "56", "address": "PO BOX 167", "city": "SOOKE", "province": "BC", "country": "CA", "postalCode": "V9Z0P7", "twitter": "None", "instagram": "None", "facebook": "None", "youtube": "None", "website": "None", "summary": "None", "logo": "None", "latitude": 48.381873000000056, "longitude": -123.73120249999994}, "866913734RR0001": {"name": "KMC FOUNDATION", "designationCode": "B", "categoryCode": "05", "address": "4341 SOPHIA ST", "city": "VANCOUVER", "province": "BC", "country": "CA", "postalCode": "V5V3V6", "twitter": "None", "instagram": "None", "facebook": "None", "youtube": "None", "website": "None", "summary": "None", "logo": "None", "latitude": 49.24623678573491, "longitude": -123.09920400502031}, "889552550RR0001": {"name": "KNEEHILL HOUSING CORPORATION", "designationCode": "C", "categoryCode": "09", "address": "PO BOX 337", "city": "THREE HILLS", "province": "AB", "country": "CA", "postalCode": "T0M2A0", "twitter": "None", "instagram": "None", "facebook": "None", "youtube": "None", "website": "None", "summary": "None", "logo": "None", "latitude": 52.38329400000001, "longitude": -114.606927}, "118984483RR0001": {"name": "KNESSETH ISRAEL SYNAGOGUE CONGREGATION", "designationCode": "C", "categoryCode": "42", "address": "95 ST CLAIR AVE W SUITE 1403", "city": "TORONTO", "province": "ON", "country": "CA", "postalCode": "M4V1N6", "twitter": "None", "instagram": "None", "facebook": "None", "youtube": "None", "website": "None", "summary": "None", "logo": "None", "latitude": 43.68707772880741, "longitude": -79.39843908353058}, "118984491RR0001": {"name": "KNIGHT ROAD GOSPEL HALL", "designationCode": "C", "categoryCode": "39", "address": "1541 EAST 35TH AVE", "city": "VANCOUVER", "province": "BC", "country": "CA", "postalCode": "V5P1B2", "twitter": "None", "instagram": "None", "facebook": "None", "youtube": "None", "website": "None", "summary": "None", "logo": "None", "latitude": 49.23850949321932, "longitude": -123.07348324854291}, "868317694RR0001": {"name": "KNIGHT, BAIN, SEATH & HOLBROOK SPIRIT FOUNDATION", "designationCode": "B", "categoryCode": "03", "address": "40 KING STREET W              STE 3405", "city": "TORONTO", "province": "ON", "country": "CA", "postalCode": "M5H3Y2", "twitter": "None", "instagram": "None", "facebook": "None", "youtube": "None", "website": "None", "summary": "None", "logo": "None", "latitude": 43.649634071037106, "longitude": -79.37885526054544}, "889134573RR0001": {"name": "KNIGHT'S NON-PROFIT CHARITABLE FOUNDATION NO 2438 (TRENTON)", "designationCode": "A", "categoryCode": "63", "address": "57 STELLA CRESCENT", "city": "TRENTON", "province": "ON", "country": "CA", "postalCode": "K8V1W6", "twitter": "None", "instagram": "None", "facebook": "None", "youtube": "None", "website": "None", "summary": "None", "logo": "None", "latitude": 44.11007190365884, "longitude": -77.56515416582039}, "892426446RR0001": {"name": "KNIGHTS BOOSTER CLUB", "designationCode": "C", "categoryCode": "21", "address": "152 JOHN ST", "city": "CHATHAM", "province": "ON", "country": "CA", "postalCode": "N7M5C1", "twitter": "None", "instagram": "None", "facebook": "None", "youtube": "None", "website": "None", "summary": "None", "logo": "None", "latitude": 42.393285063823726, "longitude": -82.16339933140965}, "118984509RR0001": {"name": "KNIGHTS HOSPITALLER FOUNDATION INC.", "designationCode": "A", "categoryCode": "11", "address": "28 GOLDWIN STREET", "city": "HAMILTON", "province": "ON", "country": "CA", "postalCode": "L9C6V9", "twitter": "None", "instagram": "None", "facebook": "None", "youtube": "None", "website": "None", "summary": "None", "logo": "None", "latitude": 43.22550547489748, "longitude": -79.91932289589721}, "129494472RR0001": {"name": "KNIGHTS OF COLUMBUS (BC) CHARITY FOUNDATION", "designationCode": "C", "categoryCode": "21", "address": "102 - 20353 64 AVE", "city": "LANGLEY", "province": "BC", "country": "CA", "postalCode": "V2Y1N5", "twitter": "None", "instagram": "None", "facebook": "None", "youtube": "None", "website": "None", "summary": "None", "logo": "None", "latitude": 49.119050971636455, "longitude": -122.65855275111157}, "827526526RR0001": {"name": "KNIGHTS OF COLUMBUS BUILDING TRUST", "designationCode": "C", "categoryCode": "56", "address": "170 ELLIS AVENUE", "city": "PEMBROKE", "province": "ON", "country": "CA", "postalCode": "K8A2H9", "twitter": "None", "instagram": "None", "facebook": "None", "youtube": "None", "website": "None", "summary": "None", "logo": "None", "latitude": 45.81215999917833, "longitude": -77.10944087913668}, "886163997RR0001": {"name": "KNIGHTS OF COLUMBUS CANADA CHARITIES, INC", "designationCode": "A", "categoryCode": "43", "address": "1843 TRAPPERS AVE", "city": "WINDSOR", "province": "ON", "country": "CA", "postalCode": "N8P1T1", "twitter": "None", "instagram": "None", "facebook": "None", "youtube": "None", "website": "None", "summary": "None", "logo": "None", "latitude": 42.32013701304175, "longitude": -82.90678660632449}, "118984517RR0001": {"name": "KNIGHTS OF COLUMBUS CHRISTMAS HAMPER FUND", "designationCode": "C", "categoryCode": "09", "address": "4625-50 AVE", "city": "ST PAUL", "province": "AB", "country": "CA", "postalCode": "T0A3A3", "twitter": "None", "instagram": "None", "facebook": "None", "youtube": "None", "website": "None", "summary": "None", "logo": "None", "latitude": 53.99135053173897, "longitude": -111.28875202553522}, "118984525RR0001": {"name": "KNIGHTS OF COLUMBUS COUNCIL #5468 CHRISTMAS HAMPER FUND", "designationCode": "C", "categoryCode": "09", "address": "PO BOX 196 STN A", "city": "CAMPBELL RIVER", "province": "BC", "country": "CA", "postalCode": "V9W5A7", "twitter": "None", "instagram": "None", "facebook": "None", "youtube": "None", "website": "None", "summary": "None", "logo": "None", "latitude": 50.024643000000054, "longitude": -125.24819299999993}, "889215042RR0001": {"name": "KNIGHTS OF COLUMBUS COUNCIL 937 CHARITIES INC", "designationCode": "C", "categoryCode": "63", "address": "15 KENNINGTON ST", "city": "SAINT JOHN", "province": "NB", "country": "CA", "postalCode": "E2J2Z1", "twitter": "None", "instagram": "None", "facebook": "None", "youtube": "None", "website": "None", "summary": "None", "logo": "None", "latitude": 45.311536686652424, "longitude": -66.00448400695355}, "107798100RR0001": {"name": "KNIGHTS OF COLUMBUS ONTARIO CHARITY FOUNDATION", "designationCode": "A", "categoryCode": "09", "address": "393 RYMAL ROAD WEST           SUITE 201", "city": "HAMILTON", "province": "ON", "country": "CA", "postalCode": "L9B1V2", "twitter": "None", "instagram": "None", "facebook": "None", "youtube": "None", "website": "None", "summary": "None", "logo": "None", "latitude": 43.205697000000015, "longitude": -79.90735049999999}, "121073407RR0001": {"name": "KNIGHTS OF COLUMBUS SASKATOON CHAPTER FOUNDATION INC.", "designationCode": "A", "categoryCode": "63", "address": "2940 LOUISE ST", "city": "SASKATOON", "province": "SK", "country": "CA", "postalCode": "S7J5K2", "twitter": "None", "instagram": "None", "facebook": "None", "youtube": "None", "website": "None", "summary": "None", "logo": "None", "latitude": 52.10088320229123, "longitude": -106.60672174308989}, "891401796RR0001": {"name": "KNIGHTS OF COLUMBUS ST JACQUES COUNCIL NO 5005 CHARITABLE T", "designationCode": "A", "categoryCode": "65", "address": "688 EMILY STREET", "city": "HANMER", "province": "ON", "country": "CA", "postalCode": "P3P1E4", "twitter": "None", "instagram": "None", "facebook": "None", "youtube": "None", "website": "None", "summary": "None", "logo": "None", "latitude": 46.65423949711446, "longitude": -80.97254052844941}, "887894095RR0001": {"name": "KNIGHTS OF COLUMBUS 3945 CHARITABLE TRUST", "designationCode": "A", "categoryCode": "65", "address": "45 LUDSTONE DRIVE", "city": "TORONTO", "province": "ON", "country": "CA", "postalCode": "M9R2J2", "twitter": "None", "instagram": "None", "facebook": "None", "youtube": "None", "website": "None", "summary": "None", "logo": "None", "latitude": 43.691554899763695, "longitude": -79.56420770578234}, "866658289RR0001": {"name": "KNIGHTS OF COLUMBUS, FATHER STEPHEN ECKERT COUNCIL NO 5289", "designationCode": "A", "categoryCode": "65", "address": "56 NORTH ST BOX 1248", "city": "SEAFORTH", "province": "ON", "country": "CA", "postalCode": "N0K1W0", "twitter": "None", "instagram": "None", "facebook": "None", "youtube": "None", "website": "None", "summary": "None", "logo": "None", "latitude": 43.55783097726339, "longitude": -81.3937794010331}, "892266560RR0001": {"name": "KNIGHTS OF COLUMBUS, ST PIUS X COUNCIL #7359 FOUNDATION", "designationCode": "C", "categoryCode": "65", "address": "2 - 1920 RICHTER ST", "city": "KELOWNA", "province": "BC", "country": "CA", "postalCode": "V1Y2N2", "twitter": "None", "instagram": "None", "facebook": "None", "youtube": "None", "website": "None", "summary": "None", "logo": "None", "latitude": 49.87941221047961, "longitude": -119.48855211293781}, "118984566RR0001": {"name": "KNIGHTS OF PYTHIAS ANNUAL APPEAL", "designationCode": "C", "categoryCode": "15", "address": "1-4131 CH. DE LA C\u00d4TE-DES-NEIGES", "city": "MONTR\u00c9AL", "province": "QC", "country": "CA", "postalCode": "H3H1X1", "twitter": "None", "instagram": "None", "facebook": "None", "youtube": "None", "website": "None", "summary": "None", "logo": "None", "latitude": 45.4956125115412, "longitude": -73.60095408243406}, "889016259RR0001": {"name": "KNIGHTS OF THE IMMACULATA ASSOCIATION", "designationCode": "C", "categoryCode": "47", "address": "26 EVERGLADE WAY S.W.", "city": "CALGARY", "province": "AB", "country": "CA", "postalCode": "T2Y4N2", "twitter": "None", "instagram": "None", "facebook": "None", "youtube": "None", "website": "None", "summary": "None", "logo": "None", "latitude": 50.92356524508047, "longitude": -114.13048582737026}, "882571904RR0001": {"name": "KNIGHTS TEMPLAR CHARITABLE FOUNDATION OF CANADA", "designationCode": "A", "categoryCode": "09", "address": "803 - 158 ONTARIO ST", "city": "ST CATHARINES", "province": "ON", "country": "CA", "postalCode": "L2R5K6", "twitter": "None", "instagram": "None", "facebook": "None", "youtube": "None", "website": "None", "summary": "None", "logo": "None", "latitude": 43.15893922095888, "longitude": -79.25353411711588}, "828383745RR0001": {"name": "KNIGHTS 12372 CHARITABLE FOUNDATION", "designationCode": "A", "categoryCode": "03", "address": "1171 CLARKSON ROAD NORTH", "city": "MISSISSAUGA", "province": "ON", "country": "CA", "postalCode": "L5J2W1", "twitter": "None", "instagram": "None", "facebook": "None", "youtube": "None", "website": "None", "summary": "None", "logo": "None", "latitude": 43.520569037509105, "longitude": -79.62824539018439}, "876650425RR0001": {"name": "KNIGHTS 5523 COMMUNITY CHARITIES FOUNDATION", "designationCode": "A", "categoryCode": "03", "address": "4048 GARNETWOOD CHASE", "city": "MISSISSAUGA", "province": "ON", "country": "CA", "postalCode": "L4W2G8", "twitter": "None", "instagram": "None", "facebook": "None", "youtube": "None", "website": "None", "summary": "None", "logo": "None", "latitude": 43.638806523746226, "longitude": -79.58872417808274}, "118984582RR0001": {"name": "KNOB HILL UNITED CHURCH", "designationCode": "C", "categoryCode": "44", "address": "23 GAGE AVE", "city": "SCARBOROUGH", "province": "ON", "country": "CA", "postalCode": "M1J1T3", "twitter": "None", "instagram": "None", "facebook": "None", "youtube": "None", "website": "None", "summary": "None", "logo": "None", "latitude": 43.74876238331682, "longitude": -79.2490752944488}, "107574691RR0001": {"name": "KNOLLCREST LODGE", "designationCode": "C", "categoryCode": "01", "address": "PO BOX 453", "city": "MILVERTON", "province": "ON", "country": "CA", "postalCode": "N0K1M0", "twitter": "None", "instagram": "None", "facebook": "None", "youtube": "None", "website": "None", "summary": "None", "logo": "None", "latitude": 43.567990000000066, "longitude": -80.92049999999995}, "107574741RR0001": {"name": "KNOLLWOOD PARK BAPTIST CHURCH", "designationCode": "C", "categoryCode": "31", "address": "800 CHEAPSIDE ST", "city": "LONDON", "province": "ON", "country": "CA", "postalCode": "N5Y3Y9", "twitter": "None", "instagram": "None", "facebook": "None", "youtube": "None", "website": "None", "summary": "None", "logo": "None", "latitude": 43.00921186710107, "longitude": -81.22922800724203}, "107574766RR0001": {"name": "KNOLLWOOD PARK PRESBYTERIAN CHURCH", "designationCode": "C", "categoryCode": "39", "address": "503-500 PROUDFOOT LANE", "city": "LONDON", "province": "ON", "country": "CA", "postalCode": "N6H5G7", "twitter": "None", "instagram": "None", "facebook": "None", "youtube": "None", "website": "None", "summary": "None", "logo": "None", "latitude": 42.9844388704193, "longitude": -81.2804891893068}}