{"108141581RR0001": {"name": "TRINITY UNITED CHURCH", "designationCode": "C", "categoryCode": "44", "address": "70 MILL STREET EAST", "city": "ACTON", "province": "ON", "country": "CA", "postalCode": "L7J1H3", "twitter": "None", "instagram": "None", "facebook": "None", "youtube": "None", "website": "None", "summary": "None", "logo": "None", "latitude": 43.631455336587734, "longitude": -80.03940181613588}, "108141615RR0001": {"name": "TRINITY UNITED CHURCH", "designationCode": "C", "categoryCode": "44", "address": "74 FREDERICK ST", "city": "KITCHENER", "province": "ON", "country": "CA", "postalCode": "N2H2L7", "twitter": "None", "instagram": "None", "facebook": "None", "youtube": "None", "website": "None", "summary": "None", "logo": "None", "latitude": 43.45070348516926, "longitude": -80.48667621625567}, "108141672RR0001": {"name": "TRINITY UNITED CHURCH", "designationCode": "C", "categoryCode": "44", "address": "3209 HALPIN ROAD", "city": "WINDSOR", "province": "ON", "country": "CA", "postalCode": "N8R2B3", "twitter": "None", "instagram": "None", "facebook": "None", "youtube": "None", "website": "None", "summary": "None", "logo": "None", "latitude": 42.303945498759255, "longitude": -82.9078033697268}, "108141714RR0001": {"name": "TRINITY UNITED CHURCH", "designationCode": "C", "categoryCode": "44", "address": "72 YOUNG ST", "city": "CAPREOL", "province": "ON", "country": "CA", "postalCode": "P0M1H0", "twitter": "None", "instagram": "None", "facebook": "None", "youtube": "None", "website": "None", "summary": "None", "logo": "None", "latitude": 46.707739238703816, "longitude": -80.92451259628385}, "108141771RR0001": {"name": "TRINITY UNITED CHURCH", "designationCode": "C", "categoryCode": "44", "address": "933 SUMMERSIDE AVE.,", "city": "WINNIPEG", "province": "MB", "country": "CA", "postalCode": "R3T4Y1", "twitter": "None", "instagram": "None", "facebook": "None", "youtube": "None", "website": "None", "summary": "None", "logo": "None", "latitude": 49.79148677938692, "longitude": -97.15467311091211}, "108141805RR0001": {"name": "TRINITY UNITED CHURCH", "designationCode": "C", "categoryCode": "44", "address": "8810 MEADOWLARK RD", "city": "EDMONTON", "province": "AB", "country": "CA", "postalCode": "T5R5W6", "twitter": "None", "instagram": "None", "facebook": "None", "youtube": "None", "website": "None", "summary": "None", "logo": "None", "latitude": 53.521925038865426, "longitude": -113.59510706968076}, "108141813RR0001": {"name": "TRINITY UNITED CHURCH", "designationCode": "C", "categoryCode": "44", "address": "128 10TH AVE N                PO BOX 87", "city": "CRESTON", "province": "BC", "country": "CA", "postalCode": "V0B1G0", "twitter": "None", "instagram": "None", "facebook": "None", "youtube": "None", "website": "None", "summary": "None", "logo": "None", "latitude": 49.09576307216227, "longitude": -116.5134201476141}, "108141821RR0001": {"name": "TRINITY UNITED CHURCH", "designationCode": "C", "categoryCode": "44", "address": "PO BOX 175", "city": "MERRITT", "province": "BC", "country": "CA", "postalCode": "V1K1B8", "twitter": "None", "instagram": "None", "facebook": "None", "youtube": "None", "website": "None", "summary": "None", "logo": "None", "latitude": 50.111565000000056, "longitude": -120.78738349999993}, "119197093RR0001": {"name": "TRINITY UNITED CHURCH", "designationCode": "C", "categoryCode": "44", "address": "174 CHURCH STREET", "city": "GARSON", "province": "ON", "country": "CA", "postalCode": "P3L1S5", "twitter": "None", "instagram": "None", "facebook": "None", "youtube": "None", "website": "None", "summary": "None", "logo": "None", "latitude": 46.55891649708582, "longitude": -80.86144205770688}, "119270825RR0001": {"name": "TRINITY UNITED CHURCH", "designationCode": "C", "categoryCode": "44", "address": "P O BOX 75", "city": "BOTWOOD", "province": "NL", "country": "CA", "postalCode": "A0H1E0", "twitter": "None", "instagram": "None", "facebook": "None", "youtube": "None", "website": "None", "summary": "None", "logo": "None", "latitude": 49.12576868009626, "longitude": -55.37020900602628}, "119270841RR0001": {"name": "TRINITY UNITED CHURCH", "designationCode": "C", "categoryCode": "44", "address": "PO BOX 481", "city": "MAHONE BAY", "province": "NS", "country": "CA", "postalCode": "B0J2E0", "twitter": "None", "instagram": "None", "facebook": "None", "youtube": "None", "website": "None", "summary": "None", "logo": "None", "latitude": 44.5107664683721, "longitude": -64.5603343504879}, "119270858RR0001": {"name": "TRINITY UNITED CHURCH", "designationCode": "C", "categoryCode": "44", "address": "464 BOND RD", "city": "WATERVILLE", "province": "NS", "country": "CA", "postalCode": "B0P1V0", "twitter": "None", "instagram": "None", "facebook": "None", "youtube": "None", "website": "None", "summary": "None", "logo": "None", "latitude": 45.0392933499913, "longitude": -64.683989210774}, "119270999RR0001": {"name": "TRINITY UNITED CHURCH", "designationCode": "C", "categoryCode": "44", "address": "80 BURLEIGH STREET            BOX 161", "city": "APSLEY", "province": "ON", "country": "CA", "postalCode": "K0L1A0", "twitter": "None", "instagram": "None", "facebook": "None", "youtube": "None", "website": "None", "summary": "None", "logo": "None", "latitude": 44.75242175191843, "longitude": -78.08863565644265}, "119271013RR0001": {"name": "TRINITY UNITED CHURCH", "designationCode": "C", "categoryCode": "44", "address": "PO BOX 250", "city": "OMEMEE", "province": "ON", "country": "CA", "postalCode": "K0L2W0", "twitter": "None", "instagram": "None", "facebook": "None", "youtube": "None", "website": "None", "summary": "None", "logo": "None", "latitude": 44.29912000000007, "longitude": -78.55888999999996}, "119271039RR0001": {"name": "TRINITY UNITED CHURCH", "designationCode": "C", "categoryCode": "44", "address": "1099 MAITLAND AVE", "city": "OTTAWA", "province": "ON", "country": "CA", "postalCode": "K2C2B8", "twitter": "None", "instagram": "None", "facebook": "None", "youtube": "None", "website": "None", "summary": "None", "logo": "None", "latitude": 45.36655179935355, "longitude": -75.75124908933029}, "119271054RR0001": {"name": "TRINITY UNITED CHURCH", "designationCode": "C", "categoryCode": "44", "address": "284 DIVISION ST", "city": "COBOURG", "province": "ON", "country": "CA", "postalCode": "K9A3R1", "twitter": "None", "instagram": "None", "facebook": "None", "youtube": "None", "website": "None", "summary": "None", "logo": "None", "latitude": 43.96116944630382, "longitude": -78.16603047706185}, "119271070RR0001": {"name": "TRINITY UNITED CHURCH", "designationCode": "C", "categoryCode": "44", "address": "PO BOX 189                    50 LAIDLAW STREET NORTH", "city": "CANNINGTON", "province": "ON", "country": "CA", "postalCode": "L0E1E0", "twitter": "None", "instagram": "None", "facebook": "None", "youtube": "None", "website": "None", "summary": "None", "logo": "None", "latitude": 44.35188278100304, "longitude": -79.03937457109441}, "119271195RR0001": {"name": "TRINITY UNITED CHURCH", "designationCode": "C", "categoryCode": "44", "address": "230 BARBER AVE N", "city": "LISTOWEL", "province": "ON", "country": "CA", "postalCode": "N4W1R7", "twitter": "None", "instagram": "None", "facebook": "None", "youtube": "None", "website": "None", "summary": "None", "logo": "None", "latitude": 43.7341201608247, "longitude": -80.95548859638923}, "119271211RR0001": {"name": "TRINITY UNITED CHURCH", "designationCode": "C", "categoryCode": "44", "address": "750 WELLINGTON ST", "city": "WALLACEBURG", "province": "ON", "country": "CA", "postalCode": "N8A2Y6", "twitter": "None", "instagram": "None", "facebook": "None", "youtube": "None", "website": "None", "summary": "None", "logo": "None", "latitude": 42.59357919207678, "longitude": -82.38737468572877}, "119271229RR0001": {"name": "TRINITY UNITED CHURCH", "designationCode": "C", "categoryCode": "44", "address": "33 MAIN ST. E", "city": "HUNTSVILLE", "province": "ON", "country": "CA", "postalCode": "P1H2B8", "twitter": "None", "instagram": "None", "facebook": "None", "youtube": "None", "website": "None", "summary": "None", "logo": "None", "latitude": 45.32645102022644, "longitude": -79.21820445571022}, "119271237RR0001": {"name": "TRINITY UNITED CHURCH", "designationCode": "C", "categoryCode": "44", "address": "PO BOX 251", "city": "MAGNETAWAN", "province": "ON", "country": "CA", "postalCode": "P0A1P0", "twitter": "None", "instagram": "None", "facebook": "None", "youtube": "None", "website": "None", "summary": "None", "logo": "None", "latitude": 45.63884400000006, "longitude": -79.72022599999994}, "119271245RR0001": {"name": "TRINITY UNITED CHURCH", "designationCode": "C", "categoryCode": "44", "address": "PO BOX 27 290 MUSKOKA RD.", "city": "GRAVENHURST", "province": "ON", "country": "CA", "postalCode": "P1P1T5", "twitter": "None", "instagram": "None", "facebook": "None", "youtube": "None", "website": "None", "summary": "None", "logo": "None", "latitude": 44.92128183986376, "longitude": -79.37467135328086}, "119271252RR0001": {"name": "TRINITY UNITED CHURCH", "designationCode": "C", "categoryCode": "44", "address": "154 DEVONSHIRE AVE BOX 264", "city": "IROQUOIS FALLS", "province": "ON", "country": "CA", "postalCode": "P0K1E0", "twitter": "None", "instagram": "None", "facebook": "None", "youtube": "None", "website": "None", "summary": "None", "logo": "None", "latitude": 48.7683610753718, "longitude": -80.67738466977565}, "119271260RR0001": {"name": "TRINITY UNITED CHURCH", "designationCode": "C", "categoryCode": "44", "address": "111 MCINTYRE ST. E", "city": "NORTH BAY", "province": "ON", "country": "CA", "postalCode": "P1C1C5", "twitter": "None", "instagram": "None", "facebook": "None", "youtube": "None", "website": "None", "summary": "None", "logo": "None", "latitude": 46.3106607171793, "longitude": -79.46277570788847}, "119271286RR0001": {"name": "TRINITY UNITED CHURCH", "designationCode": "C", "categoryCode": "44", "address": "30 ALGOMA STREET", "city": "THUNDER BAY P", "province": "ON", "country": "CA", "postalCode": "P7B3A8", "twitter": "None", "instagram": "None", "facebook": "None", "youtube": "None", "website": "None", "summary": "None", "logo": "None", "latitude": 48.43609800305843, "longitude": -89.22505419721266}, "119271369RR0001": {"name": "TRINITY UNITED CHURCH", "designationCode": "C", "categoryCode": "44", "address": "PO BOX 201", "city": "EDAM", "province": "SK", "country": "CA", "postalCode": "S0M0V0", "twitter": "None", "instagram": "None", "facebook": "None", "youtube": "None", "website": "None", "summary": "None", "logo": "None", "latitude": 53.18347000000006, "longitude": -108.76810999999998}, "119271377RR0001": {"name": "TRINITY UNITED CHURCH", "designationCode": "C", "categoryCode": "44", "address": "BOX 167", "city": "HAZLET", "province": "SK", "country": "CA", "postalCode": "S0N1E0", "twitter": "None", "instagram": "None", "facebook": "None", "youtube": "None", "website": "None", "summary": "None", "logo": "None", "latitude": 50.40008000000006, "longitude": -108.60140999999999}, "119271385RR0001": {"name": "TRINITY UNITED CHURCH", "designationCode": "C", "categoryCode": "44", "address": "BOX 32", "city": "PORTREEVE", "province": "SK", "country": "CA", "postalCode": "S0N2A0", "twitter": "None", "instagram": "None", "facebook": "None", "youtube": "None", "website": "None", "summary": "None", "logo": "None", "latitude": 50.82359000000008, "longitude": -109.00554999999997}, "119289601RR0001": {"name": "TRINITY UNITED CHURCH", "designationCode": "C", "categoryCode": "44", "address": "BOX 624", "city": "WATSON", "province": "SK", "country": "CA", "postalCode": "S0K4V0", "twitter": "None", "instagram": "None", "facebook": "None", "youtube": "None", "website": "None", "summary": "None", "logo": "None", "latitude": 52.32713850000001, "longitude": -106.57019925}, "129920864RR0001": {"name": "TRINITY UNITED CHURCH", "designationCode": "C", "categoryCode": "44", "address": "PO BOX 97  STN MAIN", "city": "VERNON", "province": "BC", "country": "CA", "postalCode": "V1T6M1", "twitter": "None", "instagram": "None", "facebook": "None", "youtube": "None", "website": "None", "summary": "None", "logo": "None", "latitude": 50.26567200000005, "longitude": -119.27378149999993}, "130301567RR0001": {"name": "TRINITY UNITED CHURCH", "designationCode": "C", "categoryCode": "44", "address": "BOX 369", "city": "CORONATION", "province": "AB", "country": "CA", "postalCode": "T0C1C0", "twitter": "None", "instagram": "None", "facebook": "None", "youtube": "None", "website": "None", "summary": "None", "logo": "None", "latitude": 52.08834149999997, "longitude": -111.43338299999999}, "131568701RR0001": {"name": "TRINITY UNITED CHURCH", "designationCode": "C", "categoryCode": "44", "address": "2062 UNITY ROAD", "city": "ELGINBURG", "province": "ON", "country": "CA", "postalCode": "K0H1M0", "twitter": "None", "instagram": "None", "facebook": "None", "youtube": "None", "website": "None", "summary": "None", "logo": "None", "latitude": 44.319204489901104, "longitude": -76.53679152919922}, "131650608RR0001": {"name": "TRINITY UNITED CHURCH", "designationCode": "C", "categoryCode": "44", "address": "546 SCUTTLEHOLE ROAD,         RR#1", "city": "PLAINFIELD", "province": "ON", "country": "CA", "postalCode": "K0K2V0", "twitter": "None", "instagram": "None", "facebook": "None", "youtube": "None", "website": "None", "summary": "None", "logo": "None", "latitude": 44.32039043989852, "longitude": -77.32837320760095}, "131924524RR0001": {"name": "TRINITY UNITED CHURCH", "designationCode": "C", "categoryCode": "44", "address": "P.O. BOX 6", "city": "ELKHORN", "province": "MB", "country": "CA", "postalCode": "R0M0N0", "twitter": "None", "instagram": "None", "facebook": "None", "youtube": "None", "website": "None", "summary": "None", "logo": "None", "latitude": 49.975280000000055, "longitude": -101.23601999999994}, "132502303RR0001": {"name": "TRINITY UNITED CHURCH", "designationCode": "C", "categoryCode": "44", "address": "67 TRINITY WAY", "city": "TIMBERLEA", "province": "NS", "country": "CA", "postalCode": "B3T1B8", "twitter": "None", "instagram": "None", "facebook": "None", "youtube": "None", "website": "None", "summary": "None", "logo": "None", "latitude": 44.6475523183679, "longitude": -63.71541458840665}, "132516824RR0001": {"name": "TRINITY UNITED CHURCH", "designationCode": "C", "categoryCode": "44", "address": "96 AMARANTH ST E", "city": "GRAND VALLEY", "province": "ON", "country": "CA", "postalCode": "L9W5L2", "twitter": "None", "instagram": "None", "facebook": "None", "youtube": "None", "website": "None", "summary": "None", "logo": "None", "latitude": 43.90002616905169, "longitude": -80.31082783847877}, "132747445RR0001": {"name": "TRINITY UNITED CHURCH", "designationCode": "C", "categoryCode": "44", "address": "3050 ROSEMONT BLVD.", "city": "MONTREAL", "province": "QC", "country": "CA", "postalCode": "H1Y1M2", "twitter": "None", "instagram": "None", "facebook": "None", "youtube": "None", "website": "None", "summary": "None", "logo": "None", "latitude": 45.55131460392991, "longitude": -73.58200682719738}, "132916495RR0001": {"name": "TRINITY UNITED CHURCH", "designationCode": "C", "categoryCode": "44", "address": "BOX 426", "city": "BOBCAYGEON", "province": "ON", "country": "CA", "postalCode": "K0M1A0", "twitter": "None", "instagram": "None", "facebook": "None", "youtube": "None", "website": "None", "summary": "None", "logo": "None", "latitude": 44.77947037273382, "longitude": -78.64831406506559}, "133101576RR0001": {"name": "TRINITY UNITED CHURCH", "designationCode": "C", "categoryCode": "44", "address": "BOX 512", "city": "KIRKLAND LAKE", "province": "ON", "country": "CA", "postalCode": "P2N3J5", "twitter": "None", "instagram": "None", "facebook": "None", "youtube": "None", "website": "None", "summary": "None", "logo": "None", "latitude": 48.15028500000005, "longitude": -80.03540149999994}, "134898931RR0001": {"name": "TRINITY UNITED CHURCH", "designationCode": "C", "categoryCode": "44", "address": "85 OLD COACH ROAD", "city": "RIVERVIEW", "province": "NB", "country": "CA", "postalCode": "E1B1N9", "twitter": "None", "instagram": "None", "facebook": "None", "youtube": "None", "website": "None", "summary": "None", "logo": "None", "latitude": 46.069873059697436, "longitude": -64.7794880558023}, "866594856RR0001": {"name": "TRINITY UNITED CHURCH", "designationCode": "C", "categoryCode": "44", "address": "379 MAIN ST", "city": "SHEDIAC", "province": "NB", "country": "CA", "postalCode": "E4P2B4", "twitter": "None", "instagram": "None", "facebook": "None", "youtube": "None", "website": "None", "summary": "None", "logo": "None", "latitude": 46.21944254342441, "longitude": -64.5411297783773}, "889480190RR0001": {"name": "TRINITY UNITED CHURCH", "designationCode": "C", "categoryCode": "44", "address": "76 DOULTON ST", "city": "LONDON", "province": "ON", "country": "CA", "postalCode": "N5W2P7", "twitter": "None", "instagram": "None", "facebook": "None", "youtube": "None", "website": "None", "summary": "None", "logo": "None", "latitude": 42.995475877632664, "longitude": -81.19792119360598}, "890864275RR0001": {"name": "TRINITY UNITED CHURCH", "designationCode": "C", "categoryCode": "44", "address": "803 16TH AVE E", "city": "VANCOUVER", "province": "BC", "country": "CA", "postalCode": "V5T2V7", "twitter": "None", "instagram": "None", "facebook": "None", "youtube": "None", "website": "None", "summary": "None", "logo": "None", "latitude": 49.25651036406286, "longitude": -123.08735866763759}, "899921431RR0001": {"name": "TRINITY UNITED CHURCH", "designationCode": "C", "categoryCode": "44", "address": "PO BOX 684", "city": "COLD LAKE", "province": "AB", "country": "CA", "postalCode": "T9M1P2", "twitter": "None", "instagram": "None", "facebook": "None", "youtube": "None", "website": "None", "summary": "None", "logo": "None", "latitude": 54.46502700000005, "longitude": -110.17379149999994}, "863138830RR0001": {"name": "TRINITY UNITED CHURCH (KARS, ONTARIO)", "designationCode": "C", "categoryCode": "44", "address": "6656 RIDEAU VALLEY DR. S      P.O. BOX 45", "city": "KARS", "province": "ON", "country": "CA", "postalCode": "K0A2E0", "twitter": "None", "instagram": "None", "facebook": "None", "youtube": "None", "website": "None", "summary": "None", "logo": "None", "latitude": 45.15437921120669, "longitude": -75.64885590538958}, "108141466RR0001": {"name": "TRINITY UNITED CHURCH OF CANADA", "designationCode": "C", "categoryCode": "44", "address": "PO BOX 28", "city": "SMITHS FALLS", "province": "ON", "country": "CA", "postalCode": "K7A4S9", "twitter": "None", "instagram": "None", "facebook": "None", "youtube": "None", "website": "None", "summary": "None", "logo": "None", "latitude": 44.90257200000005, "longitude": -76.02153199999994}, "137521852RR0001": {"name": "TRINITY UNITED CHURCH OF CANADA,", "designationCode": "C", "categoryCode": "44", "address": "MODULE 3 BOX 7", "city": "ROSE BAY", "province": "NS", "country": "CA", "postalCode": "B0J2X0", "twitter": "None", "instagram": "None", "facebook": "None", "youtube": "None", "website": "None", "summary": "None", "logo": "None", "latitude": 44.297439000000054, "longitude": -64.31021899999993}, "889780045RR0001": {"name": "TRINITY UNITED CHURCH PASTORAL CHARGE", "designationCode": "C", "categoryCode": "44", "address": "6234 SPARTAN RD", "city": "NANAIMO", "province": "BC", "country": "CA", "postalCode": "V9T2M9", "twitter": "None", "instagram": "None", "facebook": "None", "youtube": "None", "website": "None", "summary": "None", "logo": "None", "latitude": 49.228402614371454, "longitude": -124.0413259090018}, "132148784RR0001": {"name": "TRINITY UNITED CHURCH PETERBOROUGH TRUST ESTATE OF WILLIAM GEORGE MORROW DECEASED", "designationCode": "B", "categoryCode": "05", "address": "130 KING STREET WEST          20TH FLOOR", "city": "TORONTO", "province": "ON", "country": "CA", "postalCode": "M5X1K1", "twitter": "None", "instagram": "None", "facebook": "None", "youtube": "None", "website": "None", "summary": "None", "logo": "None", "latitude": 43.64798216515656, "longitude": -79.38336717805407}, "108141987RR0001": {"name": "TRINITY UNITED CHURCH PORT COQUITLAM", "designationCode": "C", "categoryCode": "44", "address": "2211 PRAIRIE AVENUE", "city": "PORT COQUITLAM", "province": "BC", "country": "CA", "postalCode": "V3B1V8", "twitter": "None", "instagram": "None", "facebook": "None", "youtube": "None", "website": "None", "summary": "None", "logo": "None", "latitude": 49.271229508799905, "longitude": -122.77588419317328}, "119270833RR0001": {"name": "TRINITY UNITED CHURCH,", "designationCode": "C", "categoryCode": "44", "address": "P.O. BOX 148", "city": "MULGRAVE", "province": "NS", "country": "CA", "postalCode": "B0E2G0", "twitter": "None", "instagram": "None", "facebook": "None", "youtube": "None", "website": "None", "summary": "None", "logo": "None", "latitude": 45.616850000000056, "longitude": -61.381839999999954}, "119271096RR0001": {"name": "TRINITY UNITED CHURCH,", "designationCode": "C", "categoryCode": "44", "address": "116 CHURCH ST", "city": "BOWMANVILLE", "province": "ON", "country": "CA", "postalCode": "L1C1T2", "twitter": "None", "instagram": "None", "facebook": "None", "youtube": "None", "website": "None", "summary": "None", "logo": "None", "latitude": 43.91274518016022, "longitude": -78.68652766873457}, "119271104RR0001": {"name": "TRINITY UNITED CHURCH,", "designationCode": "C", "categoryCode": "44", "address": "100 MAIN ST WEST", "city": "GRIMSBY", "province": "ON", "country": "CA", "postalCode": "L3M1R7", "twitter": "None", "instagram": "None", "facebook": "None", "youtube": "None", "website": "None", "summary": "None", "logo": "None", "latitude": 43.19451255117688, "longitude": -79.56507061322425}, "119271153RR0001": {"name": "TRINITY UNITED CHURCH,", "designationCode": "C", "categoryCode": "44", "address": "140 MAPLE STREET", "city": "COLLIWOOD", "province": "ON", "country": "CA", "postalCode": "L9Y2P8", "twitter": "None", "instagram": "None", "facebook": "None", "youtube": "None", "website": "None", "summary": "None", "logo": "None", "latitude": 44.49964094156237, "longitude": -80.21999898825646}, "119271179RR0001": {"name": "TRINITY UNITED CHURCH,", "designationCode": "C", "categoryCode": "44", "address": "400 STEVENSON STREET NORTH", "city": "GUELPH", "province": "ON", "country": "CA", "postalCode": "N1E5C3", "twitter": "None", "instagram": "None", "facebook": "None", "youtube": "None", "website": "None", "summary": "None", "logo": "None", "latitude": 43.56529793225247, "longitude": -80.25692080645133}, "119271302RR0001": {"name": "TRINITY UNITED CHURCH,", "designationCode": "C", "categoryCode": "44", "address": "15 TUPPER STREET SOUTH", "city": "PORTAGE LA PRAIRIE", "province": "MB", "country": "CA", "postalCode": "R1N1W7", "twitter": "None", "instagram": "None", "facebook": "None", "youtube": "None", "website": "None", "summary": "None", "logo": "None", "latitude": 49.97265344358996, "longitude": -98.29134242257821}, "119271328RR0001": {"name": "TRINITY UNITED CHURCH,", "designationCode": "C", "categoryCode": "44", "address": "1515 6TH STREET", "city": "BRANDON", "province": "MB", "country": "CA", "postalCode": "R7A6B3", "twitter": "None", "instagram": "None", "facebook": "None", "youtube": "None", "website": "None", "summary": "None", "logo": "None", "latitude": 49.82662744463039, "longitude": -99.94555938602946}, "119271336RR0001": {"name": "TRINITY UNITED CHURCH,", "designationCode": "C", "categoryCode": "44", "address": "PO BOX 143", "city": "LIMERICK", "province": "SK", "country": "CA", "postalCode": "S0H2P0", "twitter": "None", "instagram": "None", "facebook": "None", "youtube": "None", "website": "None", "summary": "None", "logo": "None", "latitude": 49.65006000000005, "longitude": -106.26787999999999}, "130263015RR0001": {"name": "TRINITY UNITED CHURCH,", "designationCode": "C", "categoryCode": "44", "address": "555 DEBEC ROAD", "city": "LIMESTONE", "province": "NB", "country": "CA", "postalCode": "E7N2H7", "twitter": "None", "instagram": "None", "facebook": "None", "youtube": "None", "website": "None", "summary": "None", "logo": "None", "latitude": 46.05604329902289, "longitude": -67.68709562172165}, "130638323RR0001": {"name": "TRINITY UNITED CHURCH,", "designationCode": "C", "categoryCode": "44", "address": "P.O. BOX 131                  3 ALBERT ST W", "city": "HASTINGS", "province": "ON", "country": "CA", "postalCode": "K0L1Y0", "twitter": "None", "instagram": "None", "facebook": "None", "youtube": "None", "website": "None", "summary": "None", "logo": "None", "latitude": 44.31088056927673, "longitude": -77.95862466988842}, "130694201RR0001": {"name": "TRINITY UNITED CHURCH,", "designationCode": "C", "categoryCode": "44", "address": "25 BRIDGE ST. E.", "city": "NAPANEE", "province": "ON", "country": "CA", "postalCode": "K7R1J5", "twitter": "None", "instagram": "None", "facebook": "None", "youtube": "None", "website": "None", "summary": "None", "logo": "None", "latitude": 44.24903572248809, "longitude": -76.95093561979893}, "893183061RR0001": {"name": "TRINITY UNITED CHURCH,", "designationCode": "C", "categoryCode": "44", "address": "7113 AIRPORT RD", "city": "MISSISSAUGA", "province": "ON", "country": "CA", "postalCode": "L4T2G7", "twitter": "None", "instagram": "None", "facebook": "None", "youtube": "None", "website": "None", "summary": "None", "logo": "None", "latitude": 43.70609906246742, "longitude": -79.64534586522609}, "829298561RR0001": {"name": "TRINITY UNITED CHURCH, ELMIRA PASTORAL CHARGE", "designationCode": "C", "categoryCode": "44", "address": "21 ARTHUR STREET NORTH        PO BOX 25", "city": "ELMIRA", "province": "ON", "country": "CA", "postalCode": "N3B2Z5", "twitter": "None", "instagram": "None", "facebook": "None", "youtube": "None", "website": "None", "summary": "None", "logo": "None", "latitude": 43.60086226798996, "longitude": -80.55702004417024}, "108103961RR0001": {"name": "TRINITY WESLEYAN CHURCH", "designationCode": "C", "categoryCode": "39", "address": "7 KIRK STREET", "city": "FLORENCEVILLE-BRISTOL", "province": "NB", "country": "CA", "postalCode": "E7L2G9", "twitter": "None", "instagram": "None", "facebook": "None", "youtube": "None", "website": "None", "summary": "None", "logo": "None", "latitude": 46.467555005289704, "longitude": -67.57541059787744}, "108142001RR0001": {"name": "TRINITY WESTERN UNIVERSITY", "designationCode": "C", "categoryCode": "20", "address": "7600 GLOVER ROAD", "city": "LANGLEY", "province": "BC", "country": "CA", "postalCode": "V2Y1Y1", "twitter": "None", "instagram": "None", "facebook": "None", "youtube": "None", "website": "None", "summary": "None", "logo": "None", "latitude": 49.14035608924, "longitude": -122.60750361270851}, "894509975RR0001": {"name": "TRINITY-CONCEPTION FAMILY RESOURCE CENTRE COMMITTEE INC.", "designationCode": "C", "categoryCode": "09", "address": "9 NEWFOUNDLAND DRIVE", "city": "CARBONEAR", "province": "NL", "country": "CA", "postalCode": "A1Y1A4", "twitter": "None", "instagram": "None", "facebook": "None", "youtube": "None", "website": "None", "summary": "None", "logo": "None", "latitude": 47.728099773558185, "longitude": -53.230358051757776}, "899040539RR0001": {"name": "TRINITY-CONCEPTION PLACENTIA HEALTH FOUNDATION INC", "designationCode": "A", "categoryCode": "13", "address": "86 HIGHROAD SOUTH", "city": "CARBONEAR", "province": "NL", "country": "CA", "postalCode": "A1Y1A4", "twitter": "None", "instagram": "None", "facebook": "None", "youtube": "None", "website": "None", "summary": "None", "logo": "None", "latitude": 47.72765400000006, "longitude": -53.230314499999935}, "108140328RR0001": {"name": "TRINITY-ELFRIDA UNITED CHURCH", "designationCode": "C", "categoryCode": "44", "address": "80 HIGHWAY 20 E", "city": "HANNON", "province": "ON", "country": "CA", "postalCode": "L0R1P0", "twitter": "None", "instagram": "None", "facebook": "None", "youtube": "None", "website": "None", "summary": "None", "logo": "None", "latitude": 43.17145947778093, "longitude": -79.76895742577979}, "119270718RR0001": {"name": "TRINITY-ST ANDREW'S UNITED CHURCH", "designationCode": "C", "categoryCode": "44", "address": "291 PLAUNT STREET SOUTH", "city": "RENFREW", "province": "ON", "country": "CA", "postalCode": "K7V1N2", "twitter": "None", "instagram": "None", "facebook": "None", "youtube": "None", "website": "None", "summary": "None", "logo": "None", "latitude": 45.47030413887059, "longitude": -76.68062277286603}, "119270700RR0001": {"name": "TRINITY-ST ANDREW'S UNITED CHURCH-BRIGHTON PASTORAL CHARGE", "designationCode": "C", "categoryCode": "44", "address": "P.O. BOX 1052", "city": "BRIGHTON", "province": "ON", "country": "CA", "postalCode": "K0K1H0", "twitter": "None", "instagram": "None", "facebook": "None", "youtube": "None", "website": "None", "summary": "None", "logo": "None", "latitude": 44.04247000000004, "longitude": -77.73561999999998}, "119270726RR0001": {"name": "TRINITY-ST PAUL'S UNITED CHURCH", "designationCode": "C", "categoryCode": "44", "address": "427 BLOOR ST W", "city": "TORONTO", "province": "ON", "country": "CA", "postalCode": "M5S1X7", "twitter": "None", "instagram": "None", "facebook": "None", "youtube": "None", "website": "None", "summary": "None", "logo": "None", "latitude": 43.66625081652159, "longitude": -79.40573662155927}, "130164007RR0001": {"name": "TRINITY-ST STEPHEN'S UNITED CHURCH", "designationCode": "C", "categoryCode": "44", "address": "P.O. BOX 413", "city": "AMHERST", "province": "NS", "country": "CA", "postalCode": "B4H3Z5", "twitter": "None", "instagram": "None", "facebook": "None", "youtube": "None", "website": "None", "summary": "None", "logo": "None", "latitude": 45.83198400000006, "longitude": -64.20979249999993}, "107976730RR0001": {"name": "TRINITYLIFE CHURCH", "designationCode": "C", "categoryCode": "39", "address": "5348 SHERKSTON RD", "city": "SHERKSTON", "province": "ON", "country": "CA", "postalCode": "L0S1R0", "twitter": "None", "instagram": "None", "facebook": "None", "youtube": "None", "website": "None", "summary": "None", "logo": "None", "latitude": 42.88564618679664, "longitude": -79.12604536580301}, "890513740RR0001": {"name": "TRINTIY EVANGELICAL LUTHERN CHURCH", "designationCode": "C", "categoryCode": "32", "address": "PO BOX 286", "city": "WARBURG", "province": "AB", "country": "CA", "postalCode": "T0C2T0", "twitter": "None", "instagram": "None", "facebook": "None", "youtube": "None", "website": "None", "summary": "None", "logo": "None", "latitude": 53.18105000000003, "longitude": -114.31863999999996}, "890255573RR0001": {"name": "TRIP JEUNESSE BEAUPORT", "designationCode": "C", "categoryCode": "09", "address": "20, RUE HUGUES-POMMIER", "city": "QUEBEC", "province": "QC", "country": "CA", "postalCode": "G1E4T9", "twitter": "None", "instagram": "None", "facebook": "None", "youtube": "None", "website": "None", "summary": "None", "logo": "None", "latitude": 46.859656399128525, "longitude": -71.19372871412088}, "858095326RR0001": {"name": "TRISH'S WISH FOUNDATION", "designationCode": "C", "categoryCode": "09", "address": "53 HOWARD AVE", "city": "LINDSAY", "province": "ON", "country": "CA", "postalCode": "K9V2W1", "twitter": "None", "instagram": "None", "facebook": "None", "youtube": "None", "website": "None", "summary": "None", "logo": "None", "latitude": 44.34970550624669, "longitude": -78.7484955226738}, "119271534RR0001": {"name": "TRIUMF", "designationCode": "C", "categoryCode": "21", "address": "4004 WESTBROOK MALL", "city": "VANCOUVER", "province": "BC", "country": "CA", "postalCode": "V6T2A3", "twitter": "None", "instagram": "None", "facebook": "None", "youtube": "None", "website": "None", "summary": "None", "logo": "None", "latitude": 49.24740806139689, "longitude": -123.23176200115107}, "817121965RR0001": {"name": "TRIUMPH CHINESE EVANGELICAL MISSIONARY CHURCH", "designationCode": "C", "categoryCode": "39", "address": "89 CENTRE AVENUE", "city": "NORTH YORK", "province": "ON", "country": "CA", "postalCode": "M2M2L7", "twitter": "None", "instagram": "None", "facebook": "None", "youtube": "None", "website": "None", "summary": "None", "logo": "None", "latitude": 43.793224852011456, "longitude": -79.4108755810204}, "877116012RR0001": {"name": "TRIUMPH CHRISTIAN CHURCH", "designationCode": "C", "categoryCode": "39", "address": "242 DICENZO DR", "city": "HAMILTON", "province": "ON", "country": "CA", "postalCode": "L9B2X7", "twitter": "None", "instagram": "None", "facebook": "None", "youtube": "None", "website": "None", "summary": "None", "logo": "None", "latitude": 43.20646317291819, "longitude": -79.8888810996594}, "107833394RR0118": {"name": "TRIUMPHANT PENTECOSTAL TABERNACLE", "designationCode": "C", "categoryCode": "36", "address": "P.O. BOX 111", "city": "CATALINA", "province": "NL", "country": "CA", "postalCode": "A0C1J0", "twitter": "None", "instagram": "None", "facebook": "None", "youtube": "None", "website": "None", "summary": "None", "logo": "None", "latitude": 48.632553000000016, "longitude": -53.041862249999994}, "119271567RR0002": {"name": "TRIVITT MEMORIAL CHURCH", "designationCode": "C", "categoryCode": "30", "address": "264 MAIN STREET               P.O. BOX 253", "city": "EXETER", "province": "ON", "country": "CA", "postalCode": "N0M1S6", "twitter": "None", "instagram": "None", "facebook": "None", "youtube": "None", "website": "None", "summary": "None", "logo": "None", "latitude": 43.349276168474795, "longitude": -81.48096750481878}, "119271575RR0001": {"name": "TRIWOOD COMMUNITY ASSOCIATION", "designationCode": "C", "categoryCode": "56", "address": "2244 CHICOUTIMI DR NW", "city": "CALGARY", "province": "AB", "country": "CA", "postalCode": "T2L0W1", "twitter": "None", "instagram": "None", "facebook": "None", "youtube": "None", "website": "None", "summary": "None", "logo": "None", "latitude": 51.08622349209414, "longitude": -114.1124940165042}, "890223977RR0001": {"name": "TROCHU AND DISTRICT ARBORETUM SOCIETY", "designationCode": "C", "categoryCode": "50", "address": "PO BOX 803", "city": "TROCHU", "province": "AB", "country": "CA", "postalCode": "T0M2C0", "twitter": "None", "instagram": "None", "facebook": "None", "youtube": "None", "website": "None", "summary": "None", "logo": "None", "latitude": 51.82281000000001, "longitude": -113.23290741784133}, "869637280RR0001": {"name": "TROCHU AND DISTRICT HALL DEVELOPMENT SOCIETY", "designationCode": "C", "categoryCode": "56", "address": "BOX 812", "city": "TROCHU", "province": "AB", "country": "CA", "postalCode": "T0M2C0", "twitter": "None", "instagram": "None", "facebook": "None", "youtube": "None", "website": "None", "summary": "None", "logo": "None", "latitude": 51.82281000000001, "longitude": -113.23290741784133}, "119271583RR0001": {"name": "TROCHU AND DISTRICT SENIOR CITIZENS ASSOCIATION", "designationCode": "C", "categoryCode": "56", "address": "BOX 361", "city": "TROCHU", "province": "AB", "country": "CA", "postalCode": "T0M2C0", "twitter": "None", "instagram": "None", "facebook": "None", "youtube": "None", "website": "None", "summary": "None", "logo": "None", "latitude": 51.82281000000001, "longitude": -113.23290741784133}, "108142381RR0001": {"name": "TROCHU BAPTIST CHURCH", "designationCode": "C", "categoryCode": "31", "address": "BOX 5", "city": "TROCHU", "province": "AB", "country": "CA", "postalCode": "T0M2C0", "twitter": "None", "instagram": "None", "facebook": "None", "youtube": "None", "website": "None", "summary": "None", "logo": "None", "latitude": 51.82281000000001, "longitude": -113.23290741784133}, "119271609RR0001": {"name": "TROCHU PASTORAL CHARGE", "designationCode": "C", "categoryCode": "44", "address": "BOX 28", "city": "TROCHU", "province": "AB", "country": "CA", "postalCode": "T0M2C0", "twitter": "None", "instagram": "None", "facebook": "None", "youtube": "None", "website": "None", "summary": "None", "logo": "None", "latitude": 51.82281000000001, "longitude": -113.23290741784133}, "811935543RR0001": {"name": "TRONDHJEM LUTHERAN CHURCH", "designationCode": "C", "categoryCode": "32", "address": "RURAL ROUTE #2", "city": "CAMROSE", "province": "AB", "country": "CA", "postalCode": "T4V2N1", "twitter": "None", "instagram": "None", "facebook": "None", "youtube": "None", "website": "None", "summary": "None", "logo": "None", "latitude": 53.02423500000006, "longitude": -112.82978149999994}, "892794363RR0001": {"name": "TROPAK UKRAINIAN CANADIAN CULTURAL & EDUCATIONAL SOCIETY", "designationCode": "C", "categoryCode": "22", "address": "5311 FRANCIS ROAD", "city": "RICHMOND", "province": "BC", "country": "CA", "postalCode": "V7C1K2", "twitter": "None", "instagram": "None", "facebook": "None", "youtube": "None", "website": "None", "summary": "None", "logo": "None", "latitude": 49.14841449379627, "longitude": -123.165333}, "108142506RR0001": {"name": "TROSSACHS CAMP MEETING ASSOCIATION", "designationCode": "C", "categoryCode": "39", "address": "BOX 93", "city": "PANGMAN", "province": "SK", "country": "CA", "postalCode": "S0C2C0", "twitter": "None", "instagram": "None", "facebook": "None", "youtube": "None", "website": "None", "summary": "None", "logo": "None", "latitude": 49.65007000000003, "longitude": -104.66778999999997}, "126604602RR0001": {"name": "TROUPE DU JOUR INC", "designationCode": "C", "categoryCode": "22", "address": "914 20TH STREET WEST", "city": "SASKATOON", "province": "SK", "country": "CA", "postalCode": "S7M0Y4", "twitter": "None", "instagram": "None", "facebook": "None", "youtube": "None", "website": "None", "summary": "None", "logo": "None", "latitude": 52.1262174532574, "longitude": -106.6836915}, "119271674RR0001": {"name": "TROUT CREEK AGRICULTURAL SOCIETY,", "designationCode": "C", "categoryCode": "56", "address": "BOX 131", "city": "TROUT CREEK", "province": "ON", "country": "CA", "postalCode": "P0H2L0", "twitter": "None", "instagram": "None", "facebook": "None", "youtube": "None", "website": "None", "summary": "None", "logo": "None", "latitude": 45.988230000000044, "longitude": -79.35940999999997}, "876688722RR0001": {"name": "TROUT CREEK EVANGELICAL BAPTIST CHURCH", "designationCode": "C", "categoryCode": "31", "address": "PO BOX 238", "city": "TROUT CREEK", "province": "ON", "country": "CA", "postalCode": "P0H2L0", "twitter": "None", "instagram": "None", "facebook": "None", "youtube": "None", "website": "None", "summary": "None", "logo": "None", "latitude": 45.988230000000044, "longitude": -79.35940999999997}, "891007445RR0001": {"name": "TROUT CREEK UNITED CHURCH", "designationCode": "C", "categoryCode": "44", "address": "PO BOX 97", "city": "TROUT CREEK", "province": "ON", "country": "CA", "postalCode": "P0H2L0", "twitter": "None", "instagram": "None", "facebook": "None", "youtube": "None", "website": "None", "summary": "None", "logo": "None", "latitude": 45.988230000000044, "longitude": -79.35940999999997}, "889234266RR0001": {"name": "TROY VANIN MEMORIAL AWARD", "designationCode": "B", "categoryCode": "25", "address": "90 ADAMS CLOSE", "city": "RED DEER", "province": "AB", "country": "CA", "postalCode": "T4R2W4", "twitter": "None", "instagram": "None", "facebook": "None", "youtube": "None", "website": "None", "summary": "None", "logo": "None", "latitude": 52.240486043857075, "longitude": -113.78912716677269}, "131716953RR0001": {"name": "TROYANDA UKRAINIAN DANCE ENSEMBLE INC", "designationCode": "C", "categoryCode": "22", "address": "356 MAIN STREET               BOX 2006", "city": "SELKIRK", "province": "MB", "country": "CA", "postalCode": "R1A2B2", "twitter": "None", "instagram": "None", "facebook": "None", "youtube": "None", "website": "None", "summary": "None", "logo": "None", "latitude": 50.14271483895872, "longitude": -96.87527275314214}, "131437493RR0001": {"name": "TRUCKSTOP EVANGELISM & ASSOCIATED MINISTRY CANADA", "designationCode": "C", "categoryCode": "47", "address": "777 HOWARD ROAD", "city": "HOWARD", "province": "NB", "country": "CA", "postalCode": "E9B2E1", "twitter": "None", "instagram": "None", "facebook": "None", "youtube": "None", "website": "None", "summary": "None", "logo": "None", "latitude": 46.66905391122117, "longitude": -65.78084473071446}, "135462885RR0001": {"name": "TRUE BUDDHA PAI YUIN TEMPLE", "designationCode": "C", "categoryCode": "49", "address": "1809 CENTRE ST NW", "city": "CALGARY", "province": "AB", "country": "CA", "postalCode": "T2E2S5", "twitter": "None", "instagram": "None", "facebook": "None", "youtube": "None", "website": "None", "summary": "None", "logo": "None", "latitude": 51.05229516700851, "longitude": -114.01326999176943}, "140860594RR0001": {"name": "TRUE BUDDHA PUBLICATION SOCIETY", "designationCode": "C", "categoryCode": "47", "address": "200-357 HASTINGS ST", "city": "VANCOUVER", "province": "BC", "country": "CA", "postalCode": "V6A1P3", "twitter": "None", "instagram": "None", "facebook": "None", "youtube": "None", "website": "None", "summary": "None", "logo": "None", "latitude": 49.28128752986307, "longitude": -123.09622238773156}, "139769103RR0001": {"name": "TRUE BUDDHA SCHOOL - CHIN YIN BUDDHIST SOCIETY", "designationCode": "C", "categoryCode": "35", "address": "12688 148 AVE NW", "city": "EDMONTON", "province": "AB", "country": "CA", "postalCode": "T5X6C8", "twitter": "None", "instagram": "None", "facebook": "None", "youtube": "None", "website": "None", "summary": "None", "logo": "None", "latitude": 53.61048152654483, "longitude": -113.54036310935426}}