{"821666542RR0001": {"name": "SHRI SWAMINARAYAN SIDDHANT SAJEEVAN MANDAL, CANADA", "designationCode": "C", "categoryCode": "48", "address": "108 PAINTED POST DRIVE", "city": "SCARBOROUGH", "province": "ON", "country": "CA", "postalCode": "M1H1T5", "twitter": "None", "instagram": "None", "facebook": "None", "youtube": "None", "website": "None", "summary": "None", "logo": "None", "latitude": 43.76403913517794, "longitude": -79.23124537942167}, "141017186RR0001": {"name": "SHRI VITTHAL HINDU MANDIR (TORONTO) INC.", "designationCode": "C", "categoryCode": "48", "address": "10 - 5359 TIMBERLEA BLVD", "city": "MISSISSAUGA", "province": "ON", "country": "CA", "postalCode": "L4W4N5", "twitter": "None", "instagram": "None", "facebook": "None", "youtube": "None", "website": "None", "summary": "None", "logo": "None", "latitude": 43.63022866172277, "longitude": -79.64348998505461}, "893963579RR0001": {"name": "SHRIGLEY MISSIONARY CHURCH", "designationCode": "C", "categoryCode": "39", "address": "309266 CENTRE LINE B, RR 1", "city": "BADJEROS", "province": "ON", "country": "CA", "postalCode": "N0C1A0", "twitter": "None", "instagram": "None", "facebook": "None", "youtube": "None", "website": "None", "summary": "None", "logo": "None", "latitude": 44.270543402702806, "longitude": -80.30862540575897}, "107585085RR0047": {"name": "SHRINE OF ST. THERESA PARISH, WAKAW, SK", "designationCode": "C", "categoryCode": "38", "address": "BOX 795", "city": "WAKAW", "province": "SK", "country": "CA", "postalCode": "S0K4P0", "twitter": "None", "instagram": "None", "facebook": "None", "youtube": "None", "website": "None", "summary": "None", "logo": "None", "latitude": 52.65295000000003, "longitude": -105.74270999999999}, "141013680RR0001": {"name": "SHRINERS HOSPITALS FOR CHILDREN", "designationCode": "A", "categoryCode": "13", "address": "1003, BOUL. DECARIE", "city": "MONTREAL", "province": "QC", "country": "CA", "postalCode": "H4A0A9", "twitter": "None", "instagram": "None", "facebook": "None", "youtube": "None", "website": "None", "summary": "None", "logo": "None", "latitude": 45.47192449602942, "longitude": -73.60292026770362}, "141176834RR0001": {"name": "SHRINERS' CLUB OF BRANTFORD LIMITED CHARITABLE TRUST", "designationCode": "C", "categoryCode": "09", "address": "PO BOX 24050                  185 KING GEORGE ROAD", "city": "BRANTFORD", "province": "ON", "country": "CA", "postalCode": "N3R7X3", "twitter": "None", "instagram": "None", "facebook": "None", "youtube": "None", "website": "None", "summary": "None", "logo": "None", "latitude": 43.1730996197416, "longitude": -80.27787712874304}, "119149433RR0001": {"name": "SHROMANI SIKH SANGAT TORONTO", "designationCode": "C", "categoryCode": "62", "address": "2377 DUNWIN DRIVE", "city": "MISSISSAUGA", "province": "ON", "country": "CA", "postalCode": "L5L1T1", "twitter": "None", "instagram": "None", "facebook": "None", "youtube": "None", "website": "None", "summary": "None", "logo": "None", "latitude": 43.532695329187945, "longitude": -79.67778314380494}, "125030429RR0002": {"name": "SHUBENACADIE CANAL COMMISSION", "designationCode": "C", "categoryCode": "52", "address": "54 LOCKS RD.", "city": "DARTMOUTH", "province": "NS", "country": "CA", "postalCode": "B2X2W7", "twitter": "None", "instagram": "None", "facebook": "None", "youtube": "None", "website": "None", "summary": "None", "logo": "None", "latitude": 44.70174523731883, "longitude": -63.55311756457353}, "879185007RR0001": {"name": "SHUBENACADIE CEMETARY SOCIETY", "designationCode": "C", "categoryCode": "59", "address": "78 C.N. ROAD                  BOX 143", "city": "SHUBENACADIE", "province": "NS", "country": "CA", "postalCode": "B0N2H0", "twitter": "None", "instagram": "None", "facebook": "None", "youtube": "None", "website": "None", "summary": "None", "logo": "None", "latitude": 45.085566957437514, "longitude": -63.408376826883746}, "107979080RR0001": {"name": "SHUBENACADIE PASTORAL CHARGE", "designationCode": "C", "categoryCode": "39", "address": "2869 HIGHWAY 2", "city": "SHUBENACADIE", "province": "NS", "country": "CA", "postalCode": "B0N2H0", "twitter": "None", "instagram": "None", "facebook": "None", "youtube": "None", "website": "None", "summary": "None", "logo": "None", "latitude": 45.08850329120929, "longitude": -63.403416814039765}, "106713753RR0016": {"name": "SHULUS INDIAN MISSION", "designationCode": "C", "categoryCode": "30", "address": "2158 NEALE ROAD", "city": "MERRITT", "province": "BC", "country": "CA", "postalCode": "V1K1M9", "twitter": "None", "instagram": "None", "facebook": "None", "youtube": "None", "website": "None", "summary": "None", "logo": "None", "latitude": 50.13860019058711, "longitude": -120.86321470648517}, "885693135RR0001": {"name": "SHUMILACKE FOOD BANK SOCIETY", "designationCode": "C", "categoryCode": "09", "address": "5 MILL VILLAGE RD.            P.O. BOX 225", "city": "SHUBENACADIE", "province": "NS", "country": "CA", "postalCode": "B0N2H0", "twitter": "None", "instagram": "None", "facebook": "None", "youtube": "None", "website": "None", "summary": "None", "logo": "None", "latitude": 45.0867003511165, "longitude": -63.40923729793991}, "861856938RR0001": {"name": "SHURNIAK GALLERY INC.", "designationCode": "B", "categoryCode": "50", "address": "122, 3RD AVENUE WEST          P.O. BOX 1178", "city": "ASSINIBOIA", "province": "SK", "country": "CA", "postalCode": "S0H0B0", "twitter": "None", "instagram": "None", "facebook": "None", "youtube": "None", "website": "None", "summary": "None", "logo": "None", "latitude": 49.63201029465592, "longitude": -105.99274666825423}, "130529951RR0001": {"name": "SHUSWAP AREA FAMILY EMERGENCY SOCIETY", "designationCode": "C", "categoryCode": "09", "address": "P.O. BOX 1463 STN MAIN", "city": "SALMON ARM", "province": "BC", "country": "CA", "postalCode": "V1E4P6", "twitter": "None", "instagram": "None", "facebook": "None", "youtube": "None", "website": "None", "summary": "None", "logo": "None", "latitude": 50.70318000000006, "longitude": -119.26884049999992}, "107979247RR0001": {"name": "SHUSWAP ASSOCIATION FOR COMMUNITY LIVING", "designationCode": "C", "categoryCode": "11", "address": "PO BOX 153", "city": "SALMON ARM", "province": "BC", "country": "CA", "postalCode": "V1E4N3", "twitter": "None", "instagram": "None", "facebook": "None", "youtube": "None", "website": "None", "summary": "None", "logo": "None", "latitude": 50.70318000000006, "longitude": -119.26884049999992}, "892933367RR0001": {"name": "SHUSWAP ASSOCIATION FOR THE PROMOTION OF ECO DESARROLLO", "designationCode": "C", "categoryCode": "59", "address": "1530 CARIBOO HIGHWAY          BOX 489", "city": "CLINTON", "province": "BC", "country": "CA", "postalCode": "V0K1K0", "twitter": "None", "instagram": "None", "facebook": "None", "youtube": "None", "website": "None", "summary": "None", "logo": "None", "latitude": 51.09284569507282, "longitude": -121.58526813898857}, "119149516RR0001": {"name": "SHUSWAP CHILDREN'S ASSOCIATION", "designationCode": "C", "categoryCode": "11", "address": "BOX 2579", "city": "SALMON ARM", "province": "BC", "country": "CA", "postalCode": "V1E4R5", "twitter": "None", "instagram": "None", "facebook": "None", "youtube": "None", "website": "None", "summary": "None", "logo": "None", "latitude": 50.70318000000006, "longitude": -119.26884049999992}, "140356692RR0001": {"name": "SHUSWAP CHRISTIAN EDUCATION SOCIETY", "designationCode": "C", "categoryCode": "20", "address": "350B 30TH STREET NE", "city": "SALMON ARM", "province": "BC", "country": "CA", "postalCode": "V1E1J2", "twitter": "None", "instagram": "None", "facebook": "None", "youtube": "None", "website": "None", "summary": "None", "logo": "None", "latitude": 50.70224043080216, "longitude": -119.25043674712067}, "887836468RR0001": {"name": "SHUSWAP COMMUNITY FOUNDATION", "designationCode": "A", "categoryCode": "55", "address": "PO BOX 624", "city": "SALMON ARM", "province": "BC", "country": "CA", "postalCode": "V1E4N7", "twitter": "None", "instagram": "None", "facebook": "None", "youtube": "None", "website": "None", "summary": "None", "logo": "None", "latitude": 50.70318000000006, "longitude": -119.26884049999992}, "119288918RR0309": {"name": "SHUSWAP CONGREGATION OF JEHOVAH'S WITNESSES", "designationCode": "C", "categoryCode": "61", "address": "619 TAPPEN VALLEY ROAD", "city": "TAPPEN", "province": "BC", "country": "CA", "postalCode": "V0E2X3", "twitter": "None", "instagram": "None", "facebook": "None", "youtube": "None", "website": "None", "summary": "None", "logo": "None", "latitude": 50.787136064774074, "longitude": -119.34847527086613}, "107979288RR0001": {"name": "SHUSWAP DAY CARE SOCIETY", "designationCode": "C", "categoryCode": "20", "address": "P.O. BOX 2105", "city": "SALMON ARM", "province": "BC", "country": "CA", "postalCode": "V1E4R1", "twitter": "None", "instagram": "None", "facebook": "None", "youtube": "None", "website": "None", "summary": "None", "logo": "None", "latitude": 50.70318000000006, "longitude": -119.26884049999992}, "119149508RR0001": {"name": "SHUSWAP DISTRICT ARTS COUNCIL", "designationCode": "C", "categoryCode": "22", "address": "70 HUDSON AVENUE N.E.         P.O. BOX 1181", "city": "SALMON ARM", "province": "BC", "country": "CA", "postalCode": "V1E4P3", "twitter": "None", "instagram": "None", "facebook": "None", "youtube": "None", "website": "None", "summary": "None", "logo": "None", "latitude": 50.70078030500904, "longitude": -119.28437954036598}, "888129624RR0001": {"name": "SHUSWAP ESTATES COMMUNITY ASSOCIATION", "designationCode": "C", "categoryCode": "56", "address": "24-2550 GOLF COURSE DRIVE", "city": "BLIND BAY", "province": "BC", "country": "CA", "postalCode": "V0E1H1", "twitter": "None", "instagram": "None", "facebook": "None", "youtube": "None", "website": "None", "summary": "None", "logo": "None", "latitude": 50.871927983322905, "longitude": -119.37429129508304}, "130124712RR0001": {"name": "SHUSWAP FAMILY RESOURCE AND REFERRAL SOCIETY", "designationCode": "C", "categoryCode": "59", "address": "BOX 914", "city": "SALMON ARM", "province": "BC", "country": "CA", "postalCode": "V1E4P1", "twitter": "None", "instagram": "None", "facebook": "None", "youtube": "None", "website": "None", "summary": "None", "logo": "None", "latitude": 50.70318000000006, "longitude": -119.26884049999992}, "892307976RR0001": {"name": "SHUSWAP HOSPICE SOCIETY", "designationCode": "C", "categoryCode": "01", "address": "4 - 781 MARINE PARK DR NE", "city": "SALMON ARM", "province": "BC", "country": "CA", "postalCode": "V1E2W7", "twitter": "None", "instagram": "None", "facebook": "None", "youtube": "None", "website": "None", "summary": "None", "logo": "None", "latitude": 50.70473549999999, "longitude": -119.281329}, "890431877RR0001": {"name": "SHUSWAP HOSPITAL FOUNDATION", "designationCode": "A", "categoryCode": "13", "address": "PO BOX 265", "city": "SALMON ARM", "province": "BC", "country": "CA", "postalCode": "V1E4N3", "twitter": "None", "instagram": "None", "facebook": "None", "youtube": "None", "website": "None", "summary": "None", "logo": "None", "latitude": 50.70318000000006, "longitude": -119.26884049999992}, "130327166RR0001": {"name": "SHUSWAP INDEPENDENT LIVING ASSOCIATION", "designationCode": "C", "categoryCode": "01", "address": "680 SHUSWAP ST SE", "city": "SALMON ARM", "province": "BC", "country": "CA", "postalCode": "V1E3K4", "twitter": "None", "instagram": "None", "facebook": "None", "youtube": "None", "website": "None", "summary": "None", "logo": "None", "latitude": 50.69488592200935, "longitude": -119.28498914666181}, "881233712RR0001": {"name": "SHUSWAP MUSIC FESTIVAL SOCIETY", "designationCode": "C", "categoryCode": "22", "address": "PO BOX 397 STN MAIN", "city": "SALMON ARM", "province": "BC", "country": "CA", "postalCode": "V1E4N5", "twitter": "None", "instagram": "None", "facebook": "None", "youtube": "None", "website": "None", "summary": "None", "logo": "None", "latitude": 50.70318000000006, "longitude": -119.26884049999992}, "119149540RR0001": {"name": "SHUSWAP OKANAGAN TREATMENT CENTRE SOCIETY", "designationCode": "C", "categoryCode": "57", "address": "3 - 2810 - 48TH AVENUE", "city": "VERNON", "province": "BC", "country": "CA", "postalCode": "V1T3R4", "twitter": "None", "instagram": "None", "facebook": "None", "youtube": "None", "website": "None", "summary": "None", "logo": "None", "latitude": 50.28195752120741, "longitude": -119.2693941931733}, "119149557RR0001": {"name": "SHUSWAP OUTDOORS SELF-PROPELLERS ASSOCIATION", "designationCode": "C", "categoryCode": "56", "address": "421 30TH ST NE", "city": "SALMON ARM", "province": "BC", "country": "CA", "postalCode": "V1E1J2", "twitter": "None", "instagram": "None", "facebook": "None", "youtube": "None", "website": "None", "summary": "None", "logo": "None", "latitude": 50.70288600000001, "longitude": -119.25057491219893}, "803684349RR0001": {"name": "SHUSWAP PIONEER COLLECTORS CLUB", "designationCode": "C", "categoryCode": "50", "address": "PO BOX 854 STN MAIN", "city": "SALMON ARM", "province": "BC", "country": "CA", "postalCode": "V1E4N9", "twitter": "None", "instagram": "None", "facebook": "None", "youtube": "None", "website": "None", "summary": "None", "logo": "None", "latitude": 50.70318000000006, "longitude": -119.26884049999992}, "898151691RR0001": {"name": "SHUSWAP RECREATION SOCIETY", "designationCode": "C", "categoryCode": "56", "address": "2600 10TH AVE N E", "city": "SALMON ARM", "province": "BC", "country": "CA", "postalCode": "V1E2S4", "twitter": "None", "instagram": "None", "facebook": "None", "youtube": "None", "website": "None", "summary": "None", "logo": "None", "latitude": 50.706910499567314, "longitude": -119.25539261365341}, "119149581RR0001": {"name": "SHUSWAP THEATRE SOCIETY", "designationCode": "C", "categoryCode": "22", "address": "BOX 2432", "city": "SALMON ARM", "province": "BC", "country": "CA", "postalCode": "V1E4R4", "twitter": "None", "instagram": "None", "facebook": "None", "youtube": "None", "website": "None", "summary": "None", "logo": "None", "latitude": 50.70318000000006, "longitude": -119.26884049999992}, "872756044RR0001": {"name": "SHUSWAP VOLUNTEER SEARCH & RESCUE SOCIETY", "designationCode": "C", "categoryCode": "59", "address": "P O BOX 241", "city": "SALMON ARM", "province": "BC", "country": "CA", "postalCode": "V1E4N3", "twitter": "None", "instagram": "None", "facebook": "None", "youtube": "None", "website": "None", "summary": "None", "logo": "None", "latitude": 50.70318000000006, "longitude": -119.26884049999992}, "868808197RR0001": {"name": "SHWACHMAN DIAMOND SYNDROME CANADA", "designationCode": "C", "categoryCode": "11", "address": "2152 GATLEY RD.", "city": "MISSISSAUGA", "province": "ON", "country": "CA", "postalCode": "L5H3L9", "twitter": "None", "instagram": "None", "facebook": "None", "youtube": "None", "website": "None", "summary": "None", "logo": "None", "latitude": 43.540252984448095, "longitude": -79.63815579935356}, "896977212RR0001": {"name": "SHYAN DER BUDDHIST TEMPLE", "designationCode": "C", "categoryCode": "35", "address": "844 DUNDAS ST W               SUITE 842", "city": "TORONTO", "province": "ON", "country": "CA", "postalCode": "M6J1V5", "twitter": "None", "instagram": "None", "facebook": "None", "youtube": "None", "website": "None", "summary": "None", "logo": "None", "latitude": 43.65151323454887, "longitude": -79.41004556148646}, "833912116RR0001": {"name": "SHYFT Youth Services Society", "designationCode": "C", "categoryCode": "01", "address": "P.O BOX 2000", "city": "YARMOUTH", "province": "NS", "country": "CA", "postalCode": "B5A0B2", "twitter": "None", "instagram": "None", "facebook": "None", "youtube": "None", "website": "None", "summary": "None", "logo": "None", "latitude": 43.841274000000055, "longitude": -66.11887249999994}, "869840637RR0001": {"name": "SIBYLLINES", "designationCode": "C", "categoryCode": "22", "address": "24 MONT-ROYAL OUEST           BUREAU 1002", "city": "MONTREAL", "province": "QC", "country": "CA", "postalCode": "H2T2S2", "twitter": "None", "instagram": "None", "facebook": "None", "youtube": "None", "website": "None", "summary": "None", "logo": "None", "latitude": 45.519661603929904, "longitude": -73.58668831998403}, "119149623RR0001": {"name": "SICAMOUS AND DISTRICT SENIORS CENTRE SOCIETY", "designationCode": "C", "categoryCode": "56", "address": "1091 SHUSWAP AVE", "city": "SICAMOUS", "province": "BC", "country": "CA", "postalCode": "V0E2V1", "twitter": "None", "instagram": "None", "facebook": "None", "youtube": "None", "website": "None", "summary": "None", "logo": "None", "latitude": 50.83336944546711, "longitude": -118.98478738409621}, "859399420RR0001": {"name": "SICAMOUS BIBLE CHURCH", "designationCode": "C", "categoryCode": "39", "address": "326 KAPPEL ST", "city": "SICAMOUS", "province": "BC", "country": "CA", "postalCode": "V0E2V1", "twitter": "None", "instagram": "None", "facebook": "None", "youtube": "None", "website": "None", "summary": "None", "logo": "None", "latitude": 50.82764646047074, "longitude": -118.98209305536962}, "119288918RR0073": {"name": "SICAMOUS BRITISH COLUMBIA CONGREGATION OF JEHOVAH'S WITNESSES", "designationCode": "C", "categoryCode": "61", "address": "PO BOX 1013", "city": "SICAMOUS", "province": "BC", "country": "CA", "postalCode": "V0E2V0", "twitter": "None", "instagram": "None", "facebook": "None", "youtube": "None", "website": "None", "summary": "None", "logo": "None", "latitude": 50.81994638864104, "longitude": -119.68648050671356}, "107979551RR0001": {"name": "SICAMOUS PASTORAL CHARGE", "designationCode": "C", "categoryCode": "44", "address": "BOX 594", "city": "SICAMOUS", "province": "BC", "country": "CA", "postalCode": "V0E2V0", "twitter": "None", "instagram": "None", "facebook": "None", "youtube": "None", "website": "None", "summary": "None", "logo": "None", "latitude": 50.81994638864104, "longitude": -119.68648050671356}, "119149672RR0001": {"name": "SICAMOUS PRESCHOOL", "designationCode": "C", "categoryCode": "20", "address": "BOX 833", "city": "SICAMOUS", "province": "BC", "country": "CA", "postalCode": "V0E2V0", "twitter": "None", "instagram": "None", "facebook": "None", "youtube": "None", "website": "None", "summary": "None", "logo": "None", "latitude": 50.81994638864104, "longitude": -119.68648050671356}, "818026346RR0001": {"name": "SICKKIDS CHARITABLE GIVING FUND", "designationCode": "A", "categoryCode": "13", "address": "525 UNIVERSITY AVENUE         14TH FLOOR", "city": "TORONTO", "province": "ON", "country": "CA", "postalCode": "M5G2L3", "twitter": "None", "instagram": "None", "facebook": "None", "youtube": "None", "website": "None", "summary": "None", "logo": "None", "latitude": 43.65612035527144, "longitude": -79.38867854977238}, "890327067RR0001": {"name": "SICKLE CELL ASSOCIATION OF ONTARIO", "designationCode": "C", "categoryCode": "11", "address": "1171 MCCOWAN ROAD             PO BOX 41562", "city": "SCARBOROUGH", "province": "ON", "country": "CA", "postalCode": "M1S5G8", "twitter": "None", "instagram": "None", "facebook": "None", "youtube": "None", "website": "None", "summary": "None", "logo": "None", "latitude": 43.77245790236552, "longitude": -79.25146198533913}, "833320872RR0001": {"name": "SICKLE CELL AWARENESS GROUP OF ONTARIO INC.", "designationCode": "C", "categoryCode": "11", "address": "235-415 OAKDALE RD", "city": "NORTH YORK", "province": "ON", "country": "CA", "postalCode": "M3N1W7", "twitter": "None", "instagram": "None", "facebook": "None", "youtube": "None", "website": "None", "summary": "None", "logo": "None", "latitude": 43.749175735501176, "longitude": -79.52695388784711}, "867054843RR0001": {"name": "SID WILLIAMS THEATRE SOCIETY", "designationCode": "C", "categoryCode": "22", "address": "442 CLIFFE AVENUE", "city": "COURTENAY", "province": "BC", "country": "CA", "postalCode": "V9N2J2", "twitter": "None", "instagram": "None", "facebook": "None", "youtube": "None", "website": "None", "summary": "None", "logo": "None", "latitude": 49.69193938691761, "longitude": -124.99760688417484}, "119149698RR0001": {"name": "SIDA BENEVOLES - MONTREAL", "designationCode": "C", "categoryCode": "09", "address": "2075 PLESSIS (BASEMENT)", "city": "MONTREAL", "province": "QC", "country": "CA", "postalCode": "H2L2Y4", "twitter": "None", "instagram": "None", "facebook": "None", "youtube": "None", "website": "None", "summary": "None", "logo": "None", "latitude": 45.52417507550915, "longitude": -73.56204988660637}, "897511069RR0001": {"name": "SIDA-VIE LAVAL", "designationCode": "C", "categoryCode": "09", "address": "90, BOUL. LEVESQUE E", "city": "LAVAL", "province": "QC", "country": "CA", "postalCode": "H7G1B9", "twitter": "None", "instagram": "None", "facebook": "None", "youtube": "None", "website": "None", "summary": "None", "logo": "None", "latitude": 45.563171929511164, "longitude": -73.67927699584506}, "140783887RR0001": {"name": "SIDA/AIDS MONCTON INC.", "designationCode": "C", "categoryCode": "09", "address": "80 WELDON ST.", "city": "MONCTON", "province": "NB", "country": "CA", "postalCode": "E1C5V8", "twitter": "None", "instagram": "None", "facebook": "None", "youtube": "None", "website": "None", "summary": "None", "logo": "None", "latitude": 46.08803336441804, "longitude": -64.78714608647341}, "138723598RR0001": {"name": "SIDALYS", "designationCode": "C", "categoryCode": "57", "address": "3702 SAINTE-FAMILLE", "city": "MONTREAL", "province": "QC", "country": "CA", "postalCode": "H2X2L4", "twitter": "None", "instagram": "None", "facebook": "None", "youtube": "None", "website": "None", "summary": "None", "logo": "None", "latitude": 45.512516840671836, "longitude": -73.57622507773085}, "119149714RR0001": {"name": "SIDDHA YOGA DHAM OF CANADA / SIDDHA YOGA DHAM DU CANADA", "designationCode": "C", "categoryCode": "19", "address": "1100, RUE NOTRE-DAME", "city": "LACHINE", "province": "QC", "country": "CA", "postalCode": "H8S2C4", "twitter": "None", "instagram": "None", "facebook": "None", "youtube": "None", "website": "None", "summary": "None", "logo": "None", "latitude": 45.43493946768412, "longitude": -73.6737522485429}, "891157984RR0001": {"name": "SIDDHARTHA'S INTENT SOCIETY", "designationCode": "C", "categoryCode": "39", "address": "3035 WEST 5TH AVE.", "city": "VANCOUVER", "province": "BC", "country": "CA", "postalCode": "V6K1T8", "twitter": "None", "instagram": "None", "facebook": "None", "youtube": "None", "website": "None", "summary": "None", "logo": "None", "latitude": 49.267586460470746, "longitude": -123.17282966472388}, "140235227RR0001": {"name": "SIDH SHAKTI SH. BABA BALAK NATH BIBI SATYADEVI SATSANG BHAVAN", "designationCode": "C", "categoryCode": "39", "address": "210 ISLINGTON AVE", "city": "ETOBICOKE", "province": "ON", "country": "CA", "postalCode": "M8V3B6", "twitter": "None", "instagram": "None", "facebook": "None", "youtube": "None", "website": "None", "summary": "None", "logo": "None", "latitude": 43.602861217035084, "longitude": -79.50616687985435}, "886363993RR0001": {"name": "SIDNEY AND NORTH SAANICH MEMORIAL PARK SOCIETY", "designationCode": "C", "categoryCode": "56", "address": "2243 BEACON AVE", "city": "SIDNEY", "province": "BC", "country": "CA", "postalCode": "V8L1W9", "twitter": "None", "instagram": "None", "facebook": "None", "youtube": "None", "website": "None", "summary": "None", "logo": "None", "latitude": 48.64880818885537, "longitude": -123.40576312591537}, "119149722RR0001": {"name": "SIDNEY BAPTIST CHURCH", "designationCode": "C", "categoryCode": "31", "address": "469 MARSH HILL RD", "city": "STIRLING", "province": "ON", "country": "CA", "postalCode": "K0K3E0", "twitter": "None", "instagram": "None", "facebook": "None", "youtube": "None", "website": "None", "summary": "None", "logo": "None", "latitude": 44.27054561702898, "longitude": -77.47934648450541}, "888308665RR0001": {"name": "SIDNEY COMMUNITY SERVICE CLUB CHARITABLE FOUNDATION", "designationCode": "C", "categoryCode": "59", "address": "PO BOX 23008", "city": "BELLEVILLE", "province": "ON", "country": "CA", "postalCode": "K8P5J3", "twitter": "None", "instagram": "None", "facebook": "None", "youtube": "None", "website": "None", "summary": "None", "logo": "None", "latitude": 44.16104400000006, "longitude": -77.38183249999993}, "826525479RR0001": {"name": "SIDNEY CONCERT SOCIETY", "designationCode": "C", "categoryCode": "22", "address": "BOX 2282                      2513 BEACON AVENUE", "city": "SIDNEY", "province": "BC", "country": "CA", "postalCode": "V8L3S8", "twitter": "None", "instagram": "None", "facebook": "None", "youtube": "None", "website": "None", "summary": "None", "logo": "None", "latitude": 48.64888253231591, "longitude": -123.39611027699232}, "889236998RR0001": {"name": "SIDNEY LIONS- FOOD BANK", "designationCode": "C", "categoryCode": "09", "address": "BOX 2281", "city": "SIDNEY", "province": "BC", "country": "CA", "postalCode": "V8L3S8", "twitter": "None", "instagram": "None", "facebook": "None", "youtube": "None", "website": "None", "summary": "None", "logo": "None", "latitude": 48.65020800000005, "longitude": -123.39842299999994}, "896361011RR0001": {"name": "SIDS CALGARY SOCIETY", "designationCode": "C", "categoryCode": "11", "address": "PO BOX 50087                  MARLBOROUGH POSTAL OUTLET", "city": "CALGARY", "province": "AB", "country": "CA", "postalCode": "T2A7P1", "twitter": "None", "instagram": "None", "facebook": "None", "youtube": "None", "website": "None", "summary": "None", "logo": "None", "latitude": 51.059556000000015, "longitude": -113.96975741544264}, "119149763RR0001": {"name": "SIEN LOK SOCIETY OF CALGARY", "designationCode": "C", "categoryCode": "59", "address": "PO BOX 251                    919 CENTRE STREET NW", "city": "CALGARY", "province": "AB", "country": "CA", "postalCode": "T2E2P6", "twitter": "None", "instagram": "None", "facebook": "None", "youtube": "None", "website": "None", "summary": "None", "logo": "None", "latitude": 51.05230461993159, "longitude": -114.04190816744014}, "119149789RR0001": {"name": "SIERRA CLUB CANADA FOUNDATION", "designationCode": "C", "categoryCode": "53", "address": "PO BOX 2007                   STATION B", "city": "OTTAWA", "province": "ON", "country": "CA", "postalCode": "K1P5W3", "twitter": "None", "instagram": "None", "facebook": "None", "youtube": "None", "website": "None", "summary": "None", "logo": "None", "latitude": 45.42177300000006, "longitude": -75.69115999999994}, "119149797RR0001": {"name": "SIERRA CLUB OF BRITISH COLUMBIA FOUNDATION", "designationCode": "C", "categoryCode": "52", "address": "301-2994 DOUGLAS STREET", "city": "VICTORIA", "province": "BC", "country": "CA", "postalCode": "V8T4N4", "twitter": "None", "instagram": "None", "facebook": "None", "youtube": "None", "website": "None", "summary": "None", "logo": "None", "latitude": 48.443848712447455, "longitude": -123.37005447091542}, "730687324RR0001": {"name": "SIERRA LEONE EDUCATIONAL PARTNERSHIP INC.", "designationCode": "C", "categoryCode": "21", "address": "50 BARNES STREET", "city": "WINNIPEG", "province": "MB", "country": "CA", "postalCode": "R3T4Z7", "twitter": "None", "instagram": "None", "facebook": "None", "youtube": "None", "website": "None", "summary": "None", "logo": "None", "latitude": 49.79988251621574, "longitude": -97.16501003240187}, "865680763RR0001": {"name": "SIERRA LEONE REFUGEE RESETTLEMENT, INC.", "designationCode": "C", "categoryCode": "09", "address": "35 EVERDEN ROAD", "city": "WINNIPEG", "province": "MB", "country": "CA", "postalCode": "R2N3Y1", "twitter": "None", "instagram": "None", "facebook": "None", "youtube": "None", "website": "None", "summary": "None", "logo": "None", "latitude": 49.81407428700431, "longitude": -97.08827406621832}, "899419451RR0001": {"name": "SIGIS CHILD CARE SOCIETY", "designationCode": "C", "categoryCode": "01", "address": "#1-115 LAROSE DR", "city": "ST ALBERT", "province": "AB", "country": "CA", "postalCode": "T8N2X7", "twitter": "None", "instagram": "None", "facebook": "None", "youtube": "None", "website": "None", "summary": "None", "logo": "None", "latitude": 53.642369819400386, "longitude": -113.64703136960641}, "888091444RR0001": {"name": "SIGMA ALPHA MU FOUNDATION OF CANADA", "designationCode": "C", "categoryCode": "21", "address": "5000 YONGE ST SUITE 1801", "city": "TORONTO", "province": "ON", "country": "CA", "postalCode": "M2N7E9", "twitter": "None", "instagram": "None", "facebook": "None", "youtube": "None", "website": "None", "summary": "None", "logo": "None", "latitude": 43.76605859394659, "longitude": -79.41210975523666}, "119288918RR1314": {"name": "SIGN LANGUAGE CONGREGATION OF JEHOVAH'S WITNESSES, OTTAWA, ONTARIO", "designationCode": "C", "categoryCode": "61", "address": "71 DAVENTRY CRES", "city": "NEPEAN", "province": "ON", "country": "CA", "postalCode": "K2J4M8", "twitter": "None", "instagram": "None", "facebook": "None", "youtube": "None", "website": "None", "summary": "None", "logo": "None", "latitude": 45.28766953456625, "longitude": -75.7381643319579}, "129669818RR0001": {"name": "SIGNAL HILL LIFE EDUCATION SOCIETY", "designationCode": "C", "categoryCode": "09", "address": "PO BOX 45076 LANGLEY CROSSING", "city": "LANGLEY", "province": "BC", "country": "CA", "postalCode": "V2Y0C9", "twitter": "None", "instagram": "None", "facebook": "None", "youtube": "None", "website": "None", "summary": "None", "logo": "None", "latitude": 49.11250818018715, "longitude": -122.67404059457891}, "864263926RR0001": {"name": "SIGNAL HILL SCHOOL ENHANCEMENT SOCIETY", "designationCode": "C", "categoryCode": "21", "address": "369 SIENNA PARK DRIVE   SW", "city": "CALGARY", "province": "AB", "country": "CA", "postalCode": "T3H4S2", "twitter": "None", "instagram": "None", "facebook": "None", "youtube": "None", "website": "None", "summary": "None", "logo": "None", "latitude": 51.02405509740904, "longitude": -114.1830693588781}, "897654000RR0001": {"name": "SIGNAL HILL TATTOO ASSOCIATION INC.", "designationCode": "C", "categoryCode": "50", "address": "207A KENMOUNT ROAD", "city": "ST. JOHN'S", "province": "NL", "country": "CA", "postalCode": "A1B3P9", "twitter": "None", "instagram": "None", "facebook": "None", "youtube": "None", "website": "None", "summary": "None", "logo": "None", "latitude": 47.55347268610501, "longitude": -52.77139653536073}, "141389254RR0001": {"name": "SIGNEE FEMMES-LE CENTRE DE FEMMES", "designationCode": "C", "categoryCode": "03", "address": "383, RUE LABELLE NORD", "city": "RIVIERE ROUGE", "province": "QC", "country": "CA", "postalCode": "J0T1T0", "twitter": "None", "instagram": "None", "facebook": "None", "youtube": "None", "website": "None", "summary": "None", "logo": "None", "latitude": 46.412047373016364, "longitude": -74.87275380324868}, "832170724RR0001": {"name": "SIGNET CENTRE MINISTRIES OF LETHBRIDGE", "designationCode": "C", "categoryCode": "39", "address": "733 13TH STREET NORTH", "city": "LETHBRIDGE", "province": "AB", "country": "CA", "postalCode": "T1H2T2", "twitter": "None", "instagram": "None", "facebook": "None", "youtube": "None", "website": "None", "summary": "None", "logo": "None", "latitude": 49.70981328413307, "longitude": -112.82406228587539}, "889103446RR0001": {"name": "SIKH ASSOCIATION BRANTFORD ONT", "designationCode": "C", "categoryCode": "62", "address": "483 PARK ROAD NORTH", "city": "BRANTFORD", "province": "ON", "country": "CA", "postalCode": "N3R7K8", "twitter": "None", "instagram": "None", "facebook": "None", "youtube": "None", "website": "None", "summary": "None", "logo": "None", "latitude": 43.180397737174616, "longitude": -80.24936708001081}, "107980435RR0001": {"name": "SIKH CULTURAL SOCIETY", "designationCode": "C", "categoryCode": "62", "address": "1545 HARTFORD AVE", "city": "KAMLOOPS", "province": "BC", "country": "CA", "postalCode": "V2B8J2", "twitter": "None", "instagram": "None", "facebook": "None", "youtube": "None", "website": "None", "summary": "None", "logo": "None", "latitude": 50.704429485140594, "longitude": -120.38203269317329}, "869280743RR0001": {"name": "SIKH CULTURAL SOCIETY OF METROPOLITAN WINDSOR", "designationCode": "C", "categoryCode": "62", "address": "7955 COUNTY ROAD 42", "city": "WINDSOR", "province": "ON", "country": "CA", "postalCode": "N0R1K0", "twitter": "None", "instagram": "None", "facebook": "None", "youtube": "None", "website": "None", "summary": "None", "logo": "None", "latitude": 42.27416678794823, "longitude": -82.90626705680656}, "137693115RR0001": {"name": "SIKH EDUCATION & RESEARCH CENTRE OF CORNWALL", "designationCode": "C", "categoryCode": "62", "address": "2 DOSSETTER WAY", "city": "OTTAWA", "province": "ON", "country": "CA", "postalCode": "K1G4R7", "twitter": "None", "instagram": "None", "facebook": "None", "youtube": "None", "website": "None", "summary": "None", "logo": "None", "latitude": 45.371501518725886, "longitude": -75.61096397166615}, "891798449RR0001": {"name": "SIKH EDUCATION & RESEARCH CENTRE OF WINDSOR", "designationCode": "C", "categoryCode": "62", "address": "1226 HUNTWICK PLACE", "city": "LASALLE", "province": "ON", "country": "CA", "postalCode": "N9H2B4", "twitter": "None", "instagram": "None", "facebook": "None", "youtube": "None", "website": "None", "summary": "None", "logo": "None", "latitude": 42.235951380073026, "longitude": -83.01138820366846}, "872086871RR0001": {"name": "SIKH HERITAGE CENTRE", "designationCode": "C", "categoryCode": "62", "address": "11796 AIRPORT ROAD", "city": "BRAMPTON", "province": "ON", "country": "CA", "postalCode": "L6R0C7", "twitter": "None", "instagram": "None", "facebook": "None", "youtube": "None", "website": "None", "summary": "None", "logo": "None", "latitude": 43.789842662473504, "longitude": -79.75829823803997}, "141051185RR0001": {"name": "SIKH MISSIONARY ASSOCIATION OF CANADA", "designationCode": "C", "categoryCode": "62", "address": "PO BOX 574 STN A", "city": "ABBOTSFORD", "province": "BC", "country": "CA", "postalCode": "V2T6Z8", "twitter": "None", "instagram": "None", "facebook": "None", "youtube": "None", "website": "None", "summary": "None", "logo": "None", "latitude": 49.05161700000005, "longitude": -122.32930399999994}, "865817274RR0001": {"name": "SIKH NATIONAL ARCHIVES OF CANADA", "designationCode": "C", "categoryCode": "55", "address": "1181 CECIL AVE", "city": "OTTAWA", "province": "ON", "country": "CA", "postalCode": "K1H7Z6", "twitter": "None", "instagram": "None", "facebook": "None", "youtube": "None", "website": "None", "summary": "None", "logo": "None", "latitude": 45.37969640940029, "longitude": -75.66972514224706}, "753731496RR0001": {"name": "SIKH SEWA SOCIETY TORONTO INC.", "designationCode": "C", "categoryCode": "09", "address": "50 YUILE CRT", "city": "BRAMPTON", "province": "ON", "country": "CA", "postalCode": "L6Y5J4", "twitter": "None", "instagram": "None", "facebook": "None", "youtube": "None", "website": "None", "summary": "None", "logo": "None", "latitude": 43.64519602138029, "longitude": -79.74061234794249}, "887431062RR0001": {"name": "SIKH SOCIETY HAMILTON-WENTWORTH", "designationCode": "C", "categoryCode": "62", "address": "86 COVINGTON STREET", "city": "HAMILTON", "province": "ON", "country": "CA", "postalCode": "L8E2Y5", "twitter": "None", "instagram": "None", "facebook": "None", "youtube": "None", "website": "None", "summary": "None", "logo": "None", "latitude": 43.239196184286484, "longitude": -79.75571040824646}, "107980468RR0001": {"name": "SIKH SOCIETY OF MANITOBA INC.", "designationCode": "C", "categoryCode": "62", "address": "1244 MOLLARD ROAD", "city": "WINNIPEG", "province": "MB", "country": "CA", "postalCode": "R3C2E8", "twitter": "None", "instagram": "None", "facebook": "None", "youtube": "None", "website": "None", "summary": "None", "logo": "None", "latitude": 49.97539746956003, "longitude": -97.172973}, "891836561RR0001": {"name": "SIKH SOCIETY OF SASKATCHEWAN INC.", "designationCode": "C", "categoryCode": "62", "address": "PO BOX 32083 RPO ERINDALE", "city": "SASKATOON", "province": "SK", "country": "CA", "postalCode": "S7S1N8", "twitter": "None", "instagram": "None", "facebook": "None", "youtube": "None", "website": "None", "summary": "None", "logo": "None", "latitude": 52.13993000000005, "longitude": -106.57276999999999}, "119149912RR0001": {"name": "SIKH SOCIETY, CALGARY", "designationCode": "C", "categoryCode": "62", "address": "739 - 81 STREET SW.", "city": "CALGARY", "province": "AB", "country": "CA", "postalCode": "T3H4C6", "twitter": "None", "instagram": "None", "facebook": "None", "youtube": "None", "website": "None", "summary": "None", "logo": "None", "latitude": 51.065585999999996, "longitude": -114.20504418861431}, "884674516RR0001": {"name": "SIKH SPIRITUAL CENTRE TORONTO", "designationCode": "C", "categoryCode": "62", "address": "9 CARRIER DRIVE", "city": "ETOBICOKE", "province": "ON", "country": "CA", "postalCode": "M9V4B2", "twitter": "None", "instagram": "None", "facebook": "None", "youtube": "None", "website": "None", "summary": "None", "logo": "None", "latitude": 43.73938683311269, "longitude": -79.60407791670056}, "871547824RR0001": {"name": "SIKHS FOR HUMANITY FOUNDATION", "designationCode": "C", "categoryCode": "62", "address": "2835-37TH STREET S.W. SUITE 12", "city": "CALGARY", "province": "AB", "country": "CA", "postalCode": "T3E3B3", "twitter": "None", "instagram": "None", "facebook": "None", "youtube": "None", "website": "None", "summary": "None", "logo": "None", "latitude": 51.02930680099834, "longitude": -114.14120513422564}, "816173496RR0001": {"name": "SIKHS SERVING CANADA ASSOCIATION", "designationCode": "C", "categoryCode": "09", "address": "2832 SLOUGH ST", "city": "MISSISSAUGA", "province": "ON", "country": "CA", "postalCode": "L4T1G3", "twitter": "None", "instagram": "None", "facebook": "None", "youtube": "None", "website": "None", "summary": "None", "logo": "None", "latitude": 43.7101697376942, "longitude": -79.65695210528622}, "834232969RR0001": {"name": "SIKKA FOUNDATION INC.", "designationCode": "C", "categoryCode": "09", "address": "900-400 ST. MARY AVE", "city": "WINNIPEG", "province": "MB", "country": "CA", "postalCode": "R3C4K5", "twitter": "None", "instagram": "None", "facebook": "None", "youtube": "None", "website": "None", "summary": "None", "logo": "None", "latitude": 49.88988781775004, "longitude": -97.14513647574606}, "132621590RR0001": {"name": "SILAYAN FILIPINO COMMUNITY CENTRE", "designationCode": "C", "categoryCode": "56", "address": "UNIT 5-A                      83 PAPE AVENUE", "city": "TORONTO", "province": "ON", "country": "CA", "postalCode": "M4M2V5", "twitter": "None", "instagram": "None", "facebook": "None", "youtube": "None", "website": "None", "summary": "None", "logo": "None", "latitude": 43.66094117069649, "longitude": -79.33737810280473}, "107980625RR0001": {"name": "SILENT VOICE CANADA INC.", "designationCode": "C", "categoryCode": "09", "address": "400 - 60 ST CLAIR AVE E", "city": "TORONTO", "province": "ON", "country": "CA", "postalCode": "M4T1N5", "twitter": "None", "instagram": "None", "facebook": "None", "youtube": "None", "website": "None", "summary": "None", "logo": "None", "latitude": 43.6886955, "longitude": -79.39122524999999}, "893186973RR0001": {"name": "SILOAM KOREAN EVANGELICAL CHURCH", "designationCode": "C", "categoryCode": "39", "address": "514-2433 FINCH AVE WEST", "city": "TORONTO", "province": "ON", "country": "CA", "postalCode": "M9M2E5", "twitter": "None", "instagram": "None", "facebook": "None", "youtube": "None", "website": "None", "summary": "None", "logo": "None", "latitude": 43.750586629145204, "longitude": -79.54894171666788}, "865948285RR0001": {"name": "SILOAM KOREAN METHODIST CHURCH", "designationCode": "C", "categoryCode": "39", "address": "20525 - 72 AVENUE", "city": "LANGLEY", "province": "BC", "country": "CA", "postalCode": "V2Y1T2", "twitter": "None", "instagram": "None", "facebook": "None", "youtube": "None", "website": "None", "summary": "None", "logo": "None", "latitude": 49.133474496537545, "longitude": -122.65397983236193}, "119150043RR0001": {"name": "SILOAM MISSION INC.", "designationCode": "C", "categoryCode": "39", "address": "300 PRINCESS STREET", "city": "WINNIPEG", "province": "MB", "country": "CA", "postalCode": "R3B1M3", "twitter": "None", "instagram": "None", "facebook": "None", "youtube": "None", "website": "None", "summary": "None", "logo": "None", "latitude": 49.90424381072186, "longitude": -97.13793311091212}, "119150050RR0001": {"name": "SILOAM UNITED CHURCH", "designationCode": "C", "categoryCode": "44", "address": "1240 FANSHAWE PARK RD E", "city": "LONDON", "province": "ON", "country": "CA", "postalCode": "N5X3Z8", "twitter": "None", "instagram": "None", "facebook": "None", "youtube": "None", "website": "None", "summary": "None", "logo": "None", "latitude": 43.04156394644806, "longitude": -81.23235954760798}, "119150068RR0001": {"name": "SILTON COMMUNITY CLUB", "designationCode": "C", "categoryCode": "05", "address": "BOX 317", "city": "SILTON", "province": "SK", "country": "CA", "postalCode": "S0G4L0", "twitter": "None", "instagram": "None", "facebook": "None", "youtube": "None", "website": "None", "summary": "None", "logo": "None", "latitude": 50.98678823681553, "longitude": -104.86664427875967}, "119150076RR0001": {"name": "SILTON UNITED CHURCH", "designationCode": "C", "categoryCode": "44", "address": "BOX 35", "city": "SILTON", "province": "SK", "country": "CA", "postalCode": "S0G4L0", "twitter": "None", "instagram": "None", "facebook": "None", "youtube": "None", "website": "None", "summary": "None", "logo": "None", "latitude": 50.98678823681553, "longitude": -104.86664427875967}, "897640215RR0001": {"name": "SILVA BAY SHIPYARD SCHOOL SOCIETY", "designationCode": "C", "categoryCode": "22", "address": "1197 HARRISON WAY", "city": "GABRIOLA ISLAND", "province": "BC", "country": "CA", "postalCode": "V0R1X2", "twitter": "None", "instagram": "None", "facebook": "None", "youtube": "None", "website": "None", "summary": "None", "logo": "None", "latitude": 49.164245297841376, "longitude": -123.85892437031369}, "140347378RR0001": {"name": "SILVA FOREST FOUNDATION", "designationCode": "C", "categoryCode": "52", "address": "PO BOX 9", "city": "SLOCAN PARK", "province": "BC", "country": "CA", "postalCode": "V0G2E0", "twitter": "None", "instagram": "None", "facebook": "None", "youtube": "None", "website": "None", "summary": "None", "logo": "None", "latitude": 49.76912000000004, "longitude": -117.47058999999996}}