{"119223071RR0001": {"name": "THE CHURCH AT PINE RIDGE, INC", "designationCode": "C", "categoryCode": "39", "address": "BOX 10 GRP 545 RR 5", "city": "WINNIPEG", "province": "MB", "country": "CA", "postalCode": "R2C2Z2", "twitter": "None", "instagram": "None", "facebook": "None", "youtube": "None", "website": "None", "summary": "None", "logo": "None", "latitude": 49.92420300000006, "longitude": -96.99564499999994}, "119223089RR0001": {"name": "THE CHURCH AT SASKATOON", "designationCode": "C", "categoryCode": "39", "address": "98 ST LAWRENCE CRESCENT", "city": "SASKATOON", "province": "SK", "country": "CA", "postalCode": "S7K1G5", "twitter": "None", "instagram": "None", "facebook": "None", "youtube": "None", "website": "None", "summary": "None", "logo": "None", "latitude": 52.160549467684106, "longitude": -106.64136985928214}, "132152786RR0001": {"name": "THE CHURCH AT SELWYN", "designationCode": "C", "categoryCode": "31", "address": "2686 LAKEFIELD RD", "city": "SELWYN", "province": "ON", "country": "CA", "postalCode": "K9J6X5", "twitter": "None", "instagram": "None", "facebook": "None", "youtube": "None", "website": "None", "summary": "None", "logo": "None"}, "119223097RR0001": {"name": "THE CHURCH AT SIDNEY", "designationCode": "C", "categoryCode": "39", "address": "BOX 115", "city": "SIDNEY", "province": "MB", "country": "CA", "postalCode": "R0H1L0", "twitter": "None", "instagram": "None", "facebook": "None", "youtube": "None", "website": "None", "summary": "None", "logo": "None", "latitude": 49.89945000000006, "longitude": -99.08532999999994}, "863796371RR0001": {"name": "THE CHURCH AT SOUTHPOINT", "designationCode": "C", "categoryCode": "31", "address": "15639 24 AVE", "city": "SURREY", "province": "BC", "country": "CA", "postalCode": "V4A2J6", "twitter": "None", "instagram": "None", "facebook": "None", "youtube": "None", "website": "None", "summary": "None", "logo": "None", "latitude": 49.04559150764606, "longitude": -122.78882250000001}, "119223105RR0001": {"name": "THE CHURCH AT STRATFORD", "designationCode": "A", "categoryCode": "43", "address": "128 BAYBERRY STREET           PAUL BUNYAN, P.O. BOX 765", "city": "BAYFIELD", "province": "ON", "country": "CA", "postalCode": "N0M1G0", "twitter": "None", "instagram": "None", "facebook": "None", "youtube": "None", "website": "None", "summary": "None", "logo": "None", "latitude": 43.54835183709151, "longitude": -81.70243785615469}, "119223113RR0001": {"name": "THE CHURCH AT TORONTO", "designationCode": "C", "categoryCode": "39", "address": "97 WAGON TRAILWAY", "city": "TORONTO", "province": "ON", "country": "CA", "postalCode": "M2J4V4", "twitter": "None", "instagram": "None", "facebook": "None", "youtube": "None", "website": "None", "summary": "None", "logo": "None", "latitude": 43.777631230653725, "longitude": -79.33286537552652}, "892972241RR0001": {"name": "THE CHURCH AT VICTORIA", "designationCode": "C", "categoryCode": "39", "address": "1673 EARLSTON AVE", "city": "VICTORIA", "province": "BC", "country": "CA", "postalCode": "V8P2Z8", "twitter": "None", "instagram": "None", "facebook": "None", "youtube": "None", "website": "None", "summary": "None", "logo": "None", "latitude": 48.464044513994025, "longitude": -123.32950199999999}, "119223139RR0001": {"name": "THE CHURCH AT WINKLER", "designationCode": "C", "categoryCode": "39", "address": "269 ROYAL CRESCENT", "city": "WINKLER", "province": "MB", "country": "CA", "postalCode": "R6W2W7", "twitter": "None", "instagram": "None", "facebook": "None", "youtube": "None", "website": "None", "summary": "None", "logo": "None", "latitude": 49.171081696058835, "longitude": -97.93263692933829}, "119223147RR0001": {"name": "THE CHURCH CAMP", "designationCode": "C", "categoryCode": "56", "address": "2282 YOLANDA DR", "city": "OAKVILLE", "province": "ON", "country": "CA", "postalCode": "L6L2H8", "twitter": "None", "instagram": "None", "facebook": "None", "youtube": "None", "website": "None", "summary": "None", "logo": "None", "latitude": 43.40450646681874, "longitude": -79.71602383236194}, "118859164RR0001": {"name": "THE CHURCH COUNCIL ON JUSTICE AND CORRECTIONS - LE CONSEIL DES EGLISES POUR LA JUSTICE ET LA CRIMINOLOGIE", "designationCode": "C", "categoryCode": "59", "address": "223 MAIN STREET               (LAFRAMBOISE HALL 353)", "city": "OTTAWA", "province": "ON", "country": "CA", "postalCode": "K1S1C4", "twitter": "None", "instagram": "None", "facebook": "None", "youtube": "None", "website": "None", "summary": "None", "logo": "None", "latitude": 45.408374558716496, "longitude": -75.67756136006155}, "892058843RR0001": {"name": "THE CHURCH HILL CEMETERY FOUNDATION", "designationCode": "A", "categoryCode": "55", "address": "94 COUNTRY CLUB ROAD", "city": "RIVERVIEW", "province": "NB", "country": "CA", "postalCode": "E1B4Y1", "twitter": "None", "instagram": "None", "facebook": "None", "youtube": "None", "website": "None", "summary": "None", "logo": "None", "latitude": 46.05127266028047, "longitude": -64.78366737610345}, "119223162RR0001": {"name": "THE CHURCH HILL CEMETERY FUND", "designationCode": "C", "categoryCode": "59", "address": "94 COUNTRY CLUB ROAD", "city": "RIVERVIEW", "province": "NB", "country": "CA", "postalCode": "E1B4Y1", "twitter": "None", "instagram": "None", "facebook": "None", "youtube": "None", "website": "None", "summary": "None", "logo": "None", "latitude": 46.05127266028047, "longitude": -64.78366737610345}, "119223170RR0001": {"name": "THE CHURCH HOME CHARITABLE FOUNDATION INC", "designationCode": "A", "categoryCode": "03", "address": "101 COBURG STREET", "city": "SAINT JOHN", "province": "NB", "country": "CA", "postalCode": "E2L3J8", "twitter": "None", "instagram": "None", "facebook": "None", "youtube": "None", "website": "None", "summary": "None", "logo": "None", "latitude": 45.27826564585376, "longitude": -66.0587814311846}, "133119164RR0001": {"name": "THE CHURCH IN BURNABY", "designationCode": "C", "categoryCode": "39", "address": "5190 NORFOLK ST.", "city": "BURNABY", "province": "BC", "country": "CA", "postalCode": "V5G1G1", "twitter": "None", "instagram": "None", "facebook": "None", "youtube": "None", "website": "None", "summary": "None", "logo": "None", "latitude": 49.25505086634257, "longitude": -122.98921402003506}, "889917175RR0001": {"name": "THE CHURCH IN KITCHENER", "designationCode": "C", "categoryCode": "39", "address": "1476 LINE 41                  R R #1", "city": "NEW HAMBURG", "province": "ON", "country": "CA", "postalCode": "N3A4A3", "twitter": "None", "instagram": "None", "facebook": "None", "youtube": "None", "website": "None", "summary": "None", "logo": "None", "latitude": 43.415097664012464, "longitude": -80.75143168322067}, "875193021RR0001": {"name": "THE CHURCH IN RICHMOND", "designationCode": "C", "categoryCode": "39", "address": "2483 KINGSWAY", "city": "VANCOUVER", "province": "BC", "country": "CA", "postalCode": "V5R5G8", "twitter": "None", "instagram": "None", "facebook": "None", "youtube": "None", "website": "None", "summary": "None", "logo": "None", "latitude": 49.240392299921375, "longitude": -123.05469152093472}, "840823967RR0001": {"name": "THE CHURCH IN RICHMOND HILL", "designationCode": "C", "categoryCode": "39", "address": "43 HENRICKS CRES", "city": "RICHMOND HILL", "province": "ON", "country": "CA", "postalCode": "L4B3W4", "twitter": "None", "instagram": "None", "facebook": "None", "youtube": "None", "website": "None", "summary": "None", "logo": "None", "latitude": 43.87318459674521, "longitude": -79.39558154483804}, "888564663RR0001": {"name": "THE CHURCH IN SURREY", "designationCode": "C", "categoryCode": "39", "address": "PO BOX 202", "city": "SURREY", "province": "BC", "country": "CA", "postalCode": "V3T4W8", "twitter": "None", "instagram": "None", "facebook": "None", "youtube": "None", "website": "None", "summary": "None", "logo": "None", "latitude": 49.19164800000006, "longitude": -122.85002149999994}, "869389809RR0001": {"name": "THE CHURCH IN TORONTO", "designationCode": "C", "categoryCode": "43", "address": "138 BURBANK DR.", "city": "TORONTO", "province": "ON", "country": "CA", "postalCode": "M2K1P1", "twitter": "None", "instagram": "None", "facebook": "None", "youtube": "None", "website": "None", "summary": "None", "logo": "None", "latitude": 43.778361479860465, "longitude": -79.38301338011416}, "108077256RR0001": {"name": "THE CHURCH IN VANCOUVER", "designationCode": "C", "categoryCode": "39", "address": "77 EAST 7TH AVENUE", "city": "VANCOUVER", "province": "BC", "country": "CA", "postalCode": "V5T1M4", "twitter": "None", "instagram": "None", "facebook": "None", "youtube": "None", "website": "None", "summary": "None", "logo": "None", "latitude": 49.26467046047075, "longitude": -123.10334932944775}, "133213843RR0001": {"name": "THE CHURCH IN VANCOUVER", "designationCode": "C", "categoryCode": "39", "address": "605 MOUNTAIN VIEW RD", "city": "CHILLIWACK", "province": "BC", "country": "CA", "postalCode": "V2R4Z5", "twitter": "None", "instagram": "None", "facebook": "None", "youtube": "None", "website": "None", "summary": "None", "logo": "None", "latitude": 49.068442348776045, "longitude": -121.97357702312833}, "132412354RR0001": {"name": "THE CHURCH LADS' BRIGADE", "designationCode": "C", "categoryCode": "49", "address": "PO BOX 28126", "city": "ST.JOHN'S", "province": "NL", "country": "CA", "postalCode": "A1B4J8", "twitter": "None", "instagram": "None", "facebook": "None", "youtube": "None", "website": "None", "summary": "None", "logo": "None", "latitude": 47.56938900000006, "longitude": -52.78609699999993}, "118859446RR0001": {"name": "THE CHURCH OF CHRIST INC.", "designationCode": "C", "categoryCode": "39", "address": "365 PINE GLEN RD", "city": "RIVERVIEW", "province": "NB", "country": "CA", "postalCode": "E1B4J8", "twitter": "None", "instagram": "None", "facebook": "None", "youtube": "None", "website": "None", "summary": "None", "logo": "None", "latitude": 46.05988612155927, "longitude": -64.79246590247539}, "108077298RR0001": {"name": "THE CHURCH OF FAITH OF TORONTO", "designationCode": "C", "categoryCode": "36", "address": "78 HEIMAN ST", "city": "KITCHENER", "province": "ON", "country": "CA", "postalCode": "N2M3L6", "twitter": "None", "instagram": "None", "facebook": "None", "youtube": "None", "website": "None", "summary": "None", "logo": "None", "latitude": 43.43418110964271, "longitude": -80.48776793770547}, "878663715RR0001": {"name": "THE CHURCH OF GOD (ATLANTIC/HALIFAX, NOVA SCOTIA) SOCIETY", "designationCode": "C", "categoryCode": "39", "address": "P.O. BOX 5", "city": "KENTVILLE", "province": "NS", "country": "CA", "postalCode": "B4N3V9", "twitter": "None", "instagram": "None", "facebook": "None", "youtube": "None", "website": "None", "summary": "None", "logo": "None", "latitude": 45.07663200000006, "longitude": -64.49369299999994}, "826467474RR0001": {"name": "THE CHURCH OF GOD (CHILLIWACK)", "designationCode": "C", "categoryCode": "39", "address": "46340 CHILLIWACK CENTRAL RD", "city": "CHILLIWACK", "province": "BC", "country": "CA", "postalCode": "V2P1J9", "twitter": "None", "instagram": "None", "facebook": "None", "youtube": "None", "website": "None", "summary": "None", "logo": "None", "latitude": 49.16191853231591, "longitude": -121.94213383236193}, "885093765RR0001": {"name": "THE CHURCH OF GOD (OF THE BIBLE)", "designationCode": "C", "categoryCode": "39", "address": "89-4740 20TH ST", "city": "VERNON", "province": "BC", "country": "CA", "postalCode": "V1T9N7", "twitter": "None", "instagram": "None", "facebook": "None", "youtube": "None", "website": "None", "summary": "None", "logo": "None", "latitude": 50.28076725709493, "longitude": -119.25851915117174}, "890469166RR0001": {"name": "THE CHURCH OF GOD (RESTORATION) INC.", "designationCode": "C", "categoryCode": "39", "address": "25040 ROAD 34 EAST            PO BOX 3368", "city": "STEINBACH", "province": "MB", "country": "CA", "postalCode": "R5G1P6", "twitter": "None", "instagram": "None", "facebook": "None", "youtube": "None", "website": "None", "summary": "None", "logo": "None", "latitude": 49.52572800000006, "longitude": -96.68393449999994}, "849845961RR0001": {"name": "THE CHURCH OF GOD (SABBATH-KEEPING), SCARBOROUGH", "designationCode": "C", "categoryCode": "39", "address": "55 BRIMORTON DRIVE", "city": "SCARBOROUGH", "province": "ON", "country": "CA", "postalCode": "M1P3Z3", "twitter": "None", "instagram": "None", "facebook": "None", "youtube": "None", "website": "None", "summary": "None", "logo": "None", "latitude": 43.76607056116934, "longitude": -79.25451671885274}, "119223576RR0001": {"name": "THE CHURCH OF GOD (SEVENTH-DAY) OF PARKLAND COUNTY, ALBERTA", "designationCode": "C", "categoryCode": "39", "address": "PO BOX 52117", "city": "EDMONTON", "province": "AB", "country": "CA", "postalCode": "T6G0C1", "twitter": "None", "instagram": "None", "facebook": "None", "youtube": "None", "website": "None", "summary": "None", "logo": "None", "latitude": 53.50735500000006, "longitude": -113.53590349999993}, "106924186RR0001": {"name": "THE CHURCH OF GOD AT CARSTAIRS, ALBERTA", "designationCode": "C", "categoryCode": "39", "address": "BOX 247", "city": "CARSTAIRS", "province": "AB", "country": "CA", "postalCode": "T0M0N0", "twitter": "None", "instagram": "None", "facebook": "None", "youtube": "None", "website": "None", "summary": "None", "logo": "None", "latitude": 51.562880000000064, "longitude": -114.09537999999998}, "885766923RR0001": {"name": "THE CHURCH OF GOD IN CALGARY", "designationCode": "C", "categoryCode": "39", "address": "302 - 7090 EDMONDS ST", "city": "BURNABY", "province": "BC", "country": "CA", "postalCode": "V3N0C6", "twitter": "None", "instagram": "None", "facebook": "None", "youtube": "None", "website": "None", "summary": "None", "logo": "None", "latitude": 49.21507895392121, "longitude": -122.95722700124075}, "119223287RR0001": {"name": "THE CHURCH OF GOD IN CHRIST (MENNONITE)", "designationCode": "C", "categoryCode": "34", "address": "PO BOX 57", "city": "HYAS", "province": "SK", "country": "CA", "postalCode": "S0A1K0", "twitter": "None", "instagram": "None", "facebook": "None", "youtube": "None", "website": "None", "summary": "None", "logo": "None", "latitude": 51.89998000000003, "longitude": -102.26763999999997}, "118817345RR0001": {"name": "THE CHURCH OF GOD IN CHRIST MENNONITE SALTCOATS INC.", "designationCode": "C", "categoryCode": "34", "address": "BOX 312", "city": "BREDENBURY", "province": "SK", "country": "CA", "postalCode": "S0A0H0", "twitter": "None", "instagram": "None", "facebook": "None", "youtube": "None", "website": "None", "summary": "None", "logo": "None", "latitude": 50.93959000000007, "longitude": -102.05053999999996}, "889716536RR0001": {"name": "THE CHURCH OF GOD IN CHRIST, (MENNONITE) (CRESTON)", "designationCode": "C", "categoryCode": "34", "address": "1152 HWY 21 N", "city": "CRESTON", "province": "BC", "country": "CA", "postalCode": "V0B1G6", "twitter": "None", "instagram": "None", "facebook": "None", "youtube": "None", "website": "None", "summary": "None", "logo": "None", "latitude": 49.108452076791785, "longitude": -116.52924760304971}, "849418124RR0001": {"name": "THE CHURCH OF GOD IN KINGSTON", "designationCode": "B", "categoryCode": "39", "address": "294 PALACE ROAD", "city": "KINGSTON", "province": "ON", "country": "CA", "postalCode": "K7L4T3", "twitter": "None", "instagram": "None", "facebook": "None", "youtube": "None", "website": "None", "summary": "None", "logo": "None", "latitude": 44.232648202608345, "longitude": -76.51378098892015}, "139298707RR0001": {"name": "THE CHURCH OF GOD IN RICHMOND", "designationCode": "C", "categoryCode": "39", "address": "73E 39TH AVENUE", "city": "VANCOUVER", "province": "BC", "country": "CA", "postalCode": "V5W1J6", "twitter": "None", "instagram": "None", "facebook": "None", "youtube": "None", "website": "None", "summary": "None", "logo": "None", "latitude": 49.23561733630416, "longitude": -123.1041942809154}, "889488177RR0001": {"name": "THE CHURCH OF GOD IN TORONTO", "designationCode": "C", "categoryCode": "39", "address": "PO BOX 92078                  2900 WARDEN AVENUE", "city": "SCARBOROUGH", "province": "ON", "country": "CA", "postalCode": "M1W3Y8", "twitter": "None", "instagram": "None", "facebook": "None", "youtube": "None", "website": "None", "summary": "None", "logo": "None", "latitude": 43.79846671998633, "longitude": -79.31660975219654}, "873217004RR0001": {"name": "THE CHURCH OF GOD IN VANCOUVER", "designationCode": "C", "categoryCode": "39", "address": "123 EAST 6TH AVENUE", "city": "VANCOUVER", "province": "BC", "country": "CA", "postalCode": "V5T1J6", "twitter": "None", "instagram": "None", "facebook": "None", "youtube": "None", "website": "None", "summary": "None", "logo": "None", "latitude": 49.265553518754565, "longitude": -123.10222980391252}, "119223303RR0001": {"name": "THE CHURCH OF GOD IN VICTORIA", "designationCode": "C", "categoryCode": "39", "address": "551 BAXTER AVE", "city": "VICTORIA", "province": "BC", "country": "CA", "postalCode": "V8Z2G8", "twitter": "None", "instagram": "None", "facebook": "None", "youtube": "None", "website": "None", "summary": "None", "logo": "None", "latitude": 48.47368563056165, "longitude": -123.39373052677597}, "878776947RR0001": {"name": "THE CHURCH OF GOD OF AYLMER", "designationCode": "C", "categoryCode": "39", "address": "PO BOX 82", "city": "AYLMER", "province": "ON", "country": "CA", "postalCode": "N5H2R8", "twitter": "None", "instagram": "None", "facebook": "None", "youtube": "None", "website": "None", "summary": "None", "logo": "None", "latitude": 42.773010000000056, "longitude": -80.98362349999994}, "118860808RR0001": {"name": "THE CHURCH OF GOD OF PROPHECY", "designationCode": "C", "categoryCode": "39", "address": "5 GRIZZLY WAY", "city": "COCHRANE", "province": "AB", "country": "CA", "postalCode": "T4C0B5", "twitter": "None", "instagram": "None", "facebook": "None", "youtube": "None", "website": "None", "summary": "None", "logo": "None", "latitude": 51.195007956202154, "longitude": -114.33398864349275}, "119223378RR0001": {"name": "THE CHURCH OF GOD OF PROPHECY", "designationCode": "C", "categoryCode": "39", "address": "930 MERIVALE ROAD", "city": "OTTAWA", "province": "ON", "country": "CA", "postalCode": "K1Z5Z9", "twitter": "None", "instagram": "None", "facebook": "None", "youtube": "None", "website": "None", "summary": "None", "logo": "None", "latitude": 45.382099117404344, "longitude": -75.73305126689341}, "119223386RR0001": {"name": "THE CHURCH OF GOD OF PROPHECY", "designationCode": "C", "categoryCode": "39", "address": "17 ERIE ST", "city": "OSHAWA", "province": "ON", "country": "CA", "postalCode": "L1H3R1", "twitter": "None", "instagram": "None", "facebook": "None", "youtube": "None", "website": "None", "summary": "None", "logo": "None", "latitude": 43.87808224450354, "longitude": -78.85390204175094}, "119223436RR0001": {"name": "THE CHURCH OF GOD OF PROPHECY", "designationCode": "C", "categoryCode": "39", "address": "5145 TOMKEN ROAD", "city": "MISSISSAUGA", "province": "ON", "country": "CA", "postalCode": "L4W1P1", "twitter": "None", "instagram": "None", "facebook": "None", "youtube": "None", "website": "None", "summary": "None", "logo": "None", "latitude": 43.629042738299795, "longitude": -79.6354268810378}, "119223493RR0001": {"name": "THE CHURCH OF GOD OF PROPHECY", "designationCode": "C", "categoryCode": "39", "address": "5407 38 ST", "city": "ROCKY MOUNTAIN HOUSE", "province": "AB", "country": "CA", "postalCode": "T4T1V5", "twitter": "None", "instagram": "None", "facebook": "None", "youtube": "None", "website": "None", "summary": "None", "logo": "None", "latitude": 52.38197044463038, "longitude": -114.89182897807144}, "119223501RR0001": {"name": "THE CHURCH OF GOD OF PROPHECY", "designationCode": "C", "categoryCode": "39", "address": "30 KINCORA PARK NW", "city": "CALGARY", "province": "AB", "country": "CA", "postalCode": "T3R1L7", "twitter": "None", "instagram": "None", "facebook": "None", "youtube": "None", "website": "None", "summary": "None", "logo": "None", "latitude": 51.15672952345774, "longitude": -114.1275717968434}, "131952376RR0002": {"name": "THE CHURCH OF GOD OF PROPHECY", "designationCode": "C", "categoryCode": "39", "address": "395 NORTH PARK DRIVE", "city": "BRAMPTON", "province": "ON", "country": "CA", "postalCode": "L6S6A5", "twitter": "None", "instagram": "None", "facebook": "None", "youtube": "None", "website": "None", "summary": "None", "logo": "None", "latitude": 43.724781009723536, "longitude": -79.75418611123017}, "131952376RR0008": {"name": "THE CHURCH OF GOD OF PROPHECY", "designationCode": "C", "categoryCode": "39", "address": "5255, RUE DE SOREL", "city": "MONTREAL", "province": "QC", "country": "CA", "postalCode": "H4P1G8", "twitter": "None", "instagram": "None", "facebook": "None", "youtube": "None", "website": "None", "summary": "None", "logo": "None", "latitude": 45.50058627451081, "longitude": -73.66162631432853}, "887639896RR0001": {"name": "THE CHURCH OF GOD OF PROPHECY", "designationCode": "C", "categoryCode": "39", "address": "6 DONALDA CRES", "city": "SCARBOROUGH", "province": "ON", "country": "CA", "postalCode": "M1S1N6", "twitter": "None", "instagram": "None", "facebook": "None", "youtube": "None", "website": "None", "summary": "None", "logo": "None", "latitude": 43.78607592587584, "longitude": -79.27970737440135}, "887936045RR0001": {"name": "THE CHURCH OF GOD OF PROPHECY", "designationCode": "C", "categoryCode": "39", "address": "255 BLANTYRE AVE", "city": "TORONTO", "province": "ON", "country": "CA", "postalCode": "M1N2S2", "twitter": "None", "instagram": "None", "facebook": "None", "youtube": "None", "website": "None", "summary": "None", "logo": "None", "latitude": 43.68326758257829, "longitude": -79.28218094139908}, "890166044RR0001": {"name": "THE CHURCH OF GOD OF PROPHECY", "designationCode": "C", "categoryCode": "39", "address": "1101 HERMITAGE RD NW", "city": "EDMONTON", "province": "AB", "country": "CA", "postalCode": "T5A5B8", "twitter": "None", "instagram": "None", "facebook": "None", "youtube": "None", "website": "None", "summary": "None", "logo": "None", "latitude": 53.5823136036701, "longitude": -113.39278022165136}, "890836778RR0001": {"name": "THE CHURCH OF GOD OF PROPHECY", "designationCode": "C", "categoryCode": "39", "address": "505 AVENUE DU MONT-CASSIN", "city": "MONTREAL", "province": "QC", "country": "CA", "postalCode": "H3L1W7", "twitter": "None", "instagram": "None", "facebook": "None", "youtube": "None", "website": "None", "summary": "None", "logo": "None", "latitude": 45.54144012850218, "longitude": -73.66793867963263}, "891210346RR0001": {"name": "THE CHURCH OF GOD OF PROPHECY", "designationCode": "C", "categoryCode": "39", "address": "796 E 17TH AVE", "city": "VANCOUVER", "province": "BC", "country": "CA", "postalCode": "V5V1B9", "twitter": "None", "instagram": "None", "facebook": "None", "youtube": "None", "website": "None", "summary": "None", "logo": "None", "latitude": 49.255479546742606, "longitude": -123.08796330544173}, "892830860RR0001": {"name": "THE CHURCH OF GOD OF PROPHECY", "designationCode": "C", "categoryCode": "39", "address": "12 FALCONER DRIVE             UNIT 1", "city": "MISSISSAUGA", "province": "ON", "country": "CA", "postalCode": "L5N3L9", "twitter": "None", "instagram": "None", "facebook": "None", "youtube": "None", "website": "None", "summary": "None", "logo": "None", "latitude": 43.593368292515564, "longitude": -79.72549517909233}, "893993576RR0001": {"name": "THE CHURCH OF GOD OF PROPHECY", "designationCode": "C", "categoryCode": "39", "address": "2742 EAST 16TH AVENUE", "city": "VANCOUVER", "province": "BC", "country": "CA", "postalCode": "V5M2L8", "twitter": "None", "instagram": "None", "facebook": "None", "youtube": "None", "website": "None", "summary": "None", "logo": "None", "latitude": 49.25540852120739, "longitude": -123.04851130252754}, "890007990RR0001": {"name": "THE CHURCH OF GOD OF PROPHECY AT GRANDE PRAIRIE, ALBERTA", "designationCode": "C", "categoryCode": "39", "address": "9661 126 AVE", "city": "GRANDE PRAIRIE", "province": "AB", "country": "CA", "postalCode": "T8V7H3", "twitter": "None", "instagram": "None", "facebook": "None", "youtube": "None", "website": "None", "summary": "None", "logo": "None", "latitude": 55.19475450678069, "longitude": -118.78382152553522}, "890479793RR0001": {"name": "THE CHURCH OF GOD OF PROPHECY AT VICTORIA, BRITISH COLUMBIA", "designationCode": "C", "categoryCode": "39", "address": "3250 SHELLY STREET", "city": "VICTORIA", "province": "BC", "country": "CA", "postalCode": "V8P4A5", "twitter": "None", "instagram": "None", "facebook": "None", "youtube": "None", "website": "None", "summary": "None", "logo": "None", "latitude": 48.44967009007336, "longitude": -123.33798488076216}, "892232562RR0001": {"name": "THE CHURCH OF GOD OF PROPHECY IN EDMONTON (SPANISH), ALBERTA", "designationCode": "C", "categoryCode": "39", "address": "11609 173A AVE NW", "city": "EDMONTON", "province": "AB", "country": "CA", "postalCode": "T5X6C5", "twitter": "None", "instagram": "None", "facebook": "None", "youtube": "None", "website": "None", "summary": "None", "logo": "None", "latitude": 53.635637474032094, "longitude": -113.52523049999999}, "888529849RR0001": {"name": "THE CHURCH OF GOD OF PROPHECY, WESTERN OFFICE", "designationCode": "C", "categoryCode": "39", "address": "2671 PARENT ROAD", "city": "PRINCE GEORGE", "province": "BC", "country": "CA", "postalCode": "V2N5G3", "twitter": "None", "instagram": "None", "facebook": "None", "youtube": "None", "website": "None", "summary": "None", "logo": "None", "latitude": 53.86082253563412, "longitude": -122.772861}, "862853520RR0001": {"name": "THE CHURCH OF GOD'S LOVE", "designationCode": "C", "categoryCode": "39", "address": "248 - 15 CONEFLOWER CRES", "city": "NORTH YORK", "province": "ON", "country": "CA", "postalCode": "M2R0A5", "twitter": "None", "instagram": "None", "facebook": "None", "youtube": "None", "website": "None", "summary": "None", "logo": "None", "latitude": 43.778878556583905, "longitude": -79.45054576417523}, "875836025RR0001": {"name": "THE CHURCH OF ISAAC", "designationCode": "C", "categoryCode": "37", "address": "1513 DIXIE ROAD", "city": "MISSISSAUGA", "province": "ON", "country": "CA", "postalCode": "L5E2P7", "twitter": "None", "instagram": "None", "facebook": "None", "youtube": "None", "website": "None", "summary": "None", "logo": "None", "latitude": 43.594012975907084, "longitude": -79.56461810540179}, "892733585RR0001": {"name": "THE CHURCH OF JESUS CHRIST (THE APOSTLE'S FOUNDATION)", "designationCode": "C", "categoryCode": "39", "address": "275 VAUGHAN ROAD", "city": "TORONTO", "province": "ON", "country": "CA", "postalCode": "M6C2N2", "twitter": "None", "instagram": "None", "facebook": "None", "youtube": "None", "website": "None", "summary": "None", "logo": "None", "latitude": 43.68884699692394, "longitude": -79.42696481108388}, "886364991RR0001": {"name": "THE CHURCH OF JESUS CHRIST (WORD OF FAITH), TORONTO", "designationCode": "C", "categoryCode": "39", "address": "135 KINGSWOOD DRIVE", "city": "BRAMPTON", "province": "ON", "country": "CA", "postalCode": "L6V2X5", "twitter": "None", "instagram": "None", "facebook": "None", "youtube": "None", "website": "None", "summary": "None", "logo": "None", "latitude": 43.70257096029786, "longitude": -79.76210225226515}, "867798548RR0001": {"name": "THE CHURCH OF JESUS CHRIST - ACTS 2:38", "designationCode": "C", "categoryCode": "39", "address": "A12-1250 ELGINTON AVE W #107", "city": "MISSISSAUGA", "province": "ON", "country": "CA", "postalCode": "L5V1N3", "twitter": "None", "instagram": "None", "facebook": "None", "youtube": "None", "website": "None", "summary": "None", "logo": "None", "latitude": 43.57904100000006, "longitude": -79.68395149999994}, "119223592RR0001": {"name": "THE CHURCH OF JESUS CHRIST APOSTOLIC OF CALGARY", "designationCode": "C", "categoryCode": "39", "address": "2860 38 ST S.W.", "city": "CALGARY", "province": "AB", "country": "CA", "postalCode": "T3E3G2", "twitter": "None", "instagram": "None", "facebook": "None", "youtube": "None", "website": "None", "summary": "None", "logo": "None", "latitude": 51.02724792783772, "longitude": -114.14251945738366}, "889273868RR0001": {"name": "THE CHURCH OF JESUS CHRIST OF BRANTFORD", "designationCode": "C", "categoryCode": "39", "address": "144 ALBION STREET", "city": "BRANTFORD", "province": "ON", "country": "CA", "postalCode": "N3T3M9", "twitter": "None", "instagram": "None", "facebook": "None", "youtube": "None", "website": "None", "summary": "None", "logo": "None", "latitude": 43.14724237800803, "longitude": -80.27382329505437}, "881781322RR0001": {"name": "THE CHURCH OF JESUS CHRIST OF EDMONTON (PENTECOSTAL)", "designationCode": "C", "categoryCode": "39", "address": "10 MAPLEWOOD AVE", "city": "YORK", "province": "ON", "country": "CA", "postalCode": "M6C1J1", "twitter": "None", "instagram": "None", "facebook": "None", "youtube": "None", "website": "None", "summary": "None", "logo": "None", "latitude": 43.68610123065375, "longitude": -79.42265862698362}, "889633533RR0001": {"name": "THE CHURCH OF JESUS WORLD MISSION", "designationCode": "C", "categoryCode": "39", "address": "4847 JOYCE STREET", "city": "VANCOUVER", "province": "BC", "country": "CA", "postalCode": "V5R4G4", "twitter": "None", "instagram": "None", "facebook": "None", "youtube": "None", "website": "None", "summary": "None", "logo": "None", "latitude": 49.24111757674991, "longitude": -123.02915795839328}, "894498518RR0001": {"name": "THE CHURCH OF LIVING WATER", "designationCode": "C", "categoryCode": "34", "address": "5 ROUSE ST", "city": "TILLSONBERG", "province": "ON", "country": "CA", "postalCode": "N4G5T5", "twitter": "None", "instagram": "None", "facebook": "None", "youtube": "None", "website": "None", "summary": "None", "logo": "None"}, "119226850RR0001": {"name": "THE CHURCH OF OUR SAVIOUR", "designationCode": "C", "categoryCode": "30", "address": "1 LAURENTIDE DR", "city": "DON MILLS", "province": "ON", "country": "CA", "postalCode": "M3A3C6", "twitter": "None", "instagram": "None", "facebook": "None", "youtube": "None", "website": "None", "summary": "None", "logo": "None", "latitude": 43.75174031750254, "longitude": -79.33672122846069}, "886779628RR0001": {"name": "THE CHURCH OF PRAISE", "designationCode": "C", "categoryCode": "49", "address": "P.O. BOX 68", "city": "SHARBOT LAKE", "province": "ON", "country": "CA", "postalCode": "K0H2P0", "twitter": "None", "instagram": "None", "facebook": "None", "youtube": "None", "website": "None", "summary": "None", "logo": "None", "latitude": 44.77155000000005, "longitude": -76.68740999999994}, "816044879RR0001": {"name": "THE CHURCH OF RECOVERY", "designationCode": "C", "categoryCode": "39", "address": "84 SETTLEMENT CRES", "city": "RICHMOND HILL", "province": "ON", "country": "CA", "postalCode": "L4E1E3", "twitter": "None", "instagram": "None", "facebook": "None", "youtube": "None", "website": "None", "summary": "None", "logo": "None", "latitude": 43.920761164512506, "longitude": -79.45205093810233}, "108084658RR0032": {"name": "THE CHURCH OF SAINT MARY THE VIRGIN", "designationCode": "C", "categoryCode": "30", "address": "PO BOX 47032", "city": "OTTAWA", "province": "ON", "country": "CA", "postalCode": "K1B5P9", "twitter": "None", "instagram": "None", "facebook": "None", "youtube": "None", "website": "None", "summary": "None", "logo": "None", "latitude": 45.42790200000006, "longitude": -75.60472399999993}, "872501366RR0001": {"name": "THE CHURCH OF ST ANDREW (COLE HARBOUR)", "designationCode": "C", "categoryCode": "30", "address": "2 CIRCASSION DRIVE", "city": "DARTMOUTH", "province": "NS", "country": "CA", "postalCode": "B2W5C2", "twitter": "None", "instagram": "None", "facebook": "None", "youtube": "None", "website": "None", "summary": "None", "logo": "None", "latitude": 44.6766007288074, "longitude": -63.49244633207347}, "129538492RR0001": {"name": "THE CHURCH OF ST ANDREW AND ST PAUL", "designationCode": "C", "categoryCode": "37", "address": "3415 RUE REDPATH", "city": "MONTREAL", "province": "QC", "country": "CA", "postalCode": "H3G2G2", "twitter": "None", "instagram": "None", "facebook": "None", "youtube": "None", "website": "None", "summary": "None", "logo": "None", "latitude": 45.49824086790915, "longitude": -73.58092028876464}, "888352077RR0001": {"name": "THE CHURCH OF ST CATHARINITES", "designationCode": "C", "categoryCode": "39", "address": "345 ST. PAUL ST W             RR 1", "city": "ST CATHARINES", "province": "ON", "country": "CA", "postalCode": "L2R6P7", "twitter": "None", "instagram": "None", "facebook": "None", "youtube": "None", "website": "None", "summary": "None", "logo": "None", "latitude": 43.14290465220173, "longitude": -79.27214869441403}, "130655525RR0001": {"name": "THE CHURCH OF ST CLEMENT EGLINTON", "designationCode": "C", "categoryCode": "30", "address": "70 ST CLEMENTS AVENUE", "city": "TORONTO", "province": "ON", "country": "CA", "postalCode": "M4R1H2", "twitter": "None", "instagram": "None", "facebook": "None", "youtube": "None", "website": "None", "summary": "None", "logo": "None", "latitude": 43.712313147411635, "longitude": -79.40178671469779}, "119226975RR0001": {"name": "THE CHURCH OF ST DAVID", "designationCode": "C", "categoryCode": "30", "address": "8 BLACKSTONE ST.", "city": "TORONTO", "province": "ON", "country": "CA", "postalCode": "M6L3B7", "twitter": "None", "instagram": "None", "facebook": "None", "youtube": "None", "website": "None", "summary": "None", "logo": "None", "latitude": 43.70411731473256, "longitude": -79.50029378339761}, "119226983RR0001": {"name": "THE CHURCH OF ST JOHN AND ST ANDREW", "designationCode": "C", "categoryCode": "37", "address": "50 WYNFORD DR", "city": "NORTH YORK", "province": "ON", "country": "CA", "postalCode": "M3C1J7", "twitter": "None", "instagram": "None", "facebook": "None", "youtube": "None", "website": "None", "summary": "None", "logo": "None", "latitude": 43.72435963310046, "longitude": -79.3345945359799}, "119227015RR0002": {"name": "THE CHURCH OF ST JOHN THE BAPTIST KILKENNY", "designationCode": "C", "categoryCode": "30", "address": "327 BOUL. DES HAUTEURS", "city": "ST-JEROME", "province": "QC", "country": "CA", "postalCode": "J7Y5E7", "twitter": "None", "instagram": "None", "facebook": "None", "youtube": "None", "website": "None", "summary": "None", "logo": "None", "latitude": 45.83252710381433, "longitude": -74.01959965370227}, "119182384RR0002": {"name": "THE CHURCH OF ST JOHN THE EVANGELIST", "designationCode": "C", "categoryCode": "30", "address": "137 PRESIDENT KENNEDY", "city": "MONTREAL", "province": "QC", "country": "CA", "postalCode": "H2X3P6", "twitter": "None", "instagram": "None", "facebook": "None", "youtube": "None", "website": "None", "summary": "None", "logo": "None", "latitude": 45.50962481072185, "longitude": -73.56764769458692}, "119227049RR0002": {"name": "THE CHURCH OF ST JOHN THE EVANGELIST", "designationCode": "C", "categoryCode": "30", "address": "775 OLD GOULAIS BAY RD", "city": "SAULT STE. MARIE", "province": "ON", "country": "CA", "postalCode": "P6A0B5", "twitter": "None", "instagram": "None", "facebook": "None", "youtube": "None", "website": "None", "summary": "None", "logo": "None", "latitude": 46.57903045989383, "longitude": -84.34258128965868}, "129144549RR0018": {"name": "THE CHURCH OF ST JOHN THE EVANGELIST", "designationCode": "C", "categoryCode": "30", "address": "170 SHUSWAP ST. SE", "city": "SALMON ARM", "province": "BC", "country": "CA", "postalCode": "V1E4H7", "twitter": "None", "instagram": "None", "facebook": "None", "youtube": "None", "website": "None", "summary": "None", "logo": "None", "latitude": 50.698196664723866, "longitude": -119.28499864334358}, "132463431RR0001": {"name": "THE CHURCH OF ST MARY MAGDALENE", "designationCode": "C", "categoryCode": "30", "address": "477 MANNING AVE", "city": "TORONTO", "province": "ON", "country": "CA", "postalCode": "M6G2V8", "twitter": "None", "instagram": "None", "facebook": "None", "youtube": "None", "website": "None", "summary": "None", "logo": "None", "latitude": 43.65901550597262, "longitude": -79.41400787979704}, "131908170RR0001": {"name": "THE CHURCH OF ST MARY MAGDALENE, ANGLICAN PARISH OF NAPANEE", "designationCode": "C", "categoryCode": "30", "address": "137 ROBINSON ST", "city": "NAPANEE", "province": "ON", "country": "CA", "postalCode": "K7R2S3", "twitter": "None", "instagram": "None", "facebook": "None", "youtube": "None", "website": "None", "summary": "None", "logo": "None", "latitude": 44.24631248571751, "longitude": -76.95502791116064}, "890796964RR0001": {"name": "THE CHURCH OF ST PETER ON THE ROCK", "designationCode": "C", "categoryCode": "30", "address": "7 BASILDON CRESCENT", "city": "BRAMPTON", "province": "ON", "country": "CA", "postalCode": "L6T2N1", "twitter": "None", "instagram": "None", "facebook": "None", "youtube": "None", "website": "None", "summary": "None", "logo": "None", "latitude": 43.71174874909117, "longitude": -79.71697304091423}, "119227122RR0001": {"name": "THE CHURCH OF ST TIMOTHY", "designationCode": "C", "categoryCode": "30", "address": "100 OLD ORCHARD GROVE", "city": "TORONTO", "province": "ON", "country": "CA", "postalCode": "M5M3L3", "twitter": "None", "instagram": "None", "facebook": "None", "youtube": "None", "website": "None", "summary": "None", "logo": "None", "latitude": 43.73386715130676, "longitude": -79.40892970748443}, "106924913RR0001": {"name": "THE CHURCH OF ST. ANDREW SCARBOROUGH", "designationCode": "C", "categoryCode": "30", "address": "2333 VICTORIA PARK AVE", "city": "SCARBOROUGH", "province": "ON", "country": "CA", "postalCode": "M1R1W6", "twitter": "None", "instagram": "None", "facebook": "None", "youtube": "None", "website": "None", "summary": "None", "logo": "None", "latitude": 43.765240724681135, "longitude": -79.31835801800474}, "108084658RR0051": {"name": "THE CHURCH OF ST. BARNABAS A.& M.", "designationCode": "C", "categoryCode": "30", "address": "70 JAMES STREET", "city": "OTTAWA", "province": "ON", "country": "CA", "postalCode": "K1R5M3", "twitter": "None", "instagram": "None", "facebook": "None", "youtube": "None", "website": "None", "summary": "None", "logo": "None", "latitude": 45.41230256367949, "longitude": -75.6973322561603}, "131223729RR0001": {"name": "THE CHURCH OF ST. EDMUND", "designationCode": "C", "categoryCode": "30", "address": "PO BOX 101", "city": "TOBERMORY", "province": "ON", "country": "CA", "postalCode": "N0H2R0", "twitter": "None", "instagram": "None", "facebook": "None", "youtube": "None", "website": "None", "summary": "None", "logo": "None", "latitude": 45.253840000000025, "longitude": -81.66510999999997}, "867579161RR0001": {"name": "THE CHURCH OF ST. JAMES THE APOSTLE", "designationCode": "C", "categoryCode": "30", "address": "1439 STE CATHERINE ST WEST", "city": "MONTREAL", "province": "QC", "country": "CA", "postalCode": "H3G1S6", "twitter": "None", "instagram": "None", "facebook": "None", "youtube": "None", "website": "None", "summary": "None", "logo": "None", "latitude": 45.49625542022033, "longitude": -73.57665523775151}, "106925183RR0001": {"name": "THE CHURCH OF ST. JOHN AND ST. STEPHEN HOME INC.", "designationCode": "C", "categoryCode": "01", "address": "130 UNIVERSITY AVE", "city": "SAINT JOHN", "province": "NB", "country": "CA", "postalCode": "E2K4K3", "twitter": "None", "instagram": "None", "facebook": "None", "youtube": "None", "website": "None", "summary": "None", "logo": "None", "latitude": 45.29543783184235, "longitude": -66.09097338666369}, "108099771RR0092": {"name": "THE CHURCH OF ST. JOHN THE EVANGELIST", "designationCode": "C", "categoryCode": "30", "address": "1285 HIGHWAY 8", "city": "STONEY CREEK", "province": "ON", "country": "CA", "postalCode": "L8E5K5", "twitter": "None", "instagram": "None", "facebook": "None", "youtube": "None", "website": "None", "summary": "None", "logo": "None", "latitude": 43.20771147629604, "longitude": -79.6503879897752}, "106925415RR0001": {"name": "THE CHURCH OF ST. MARY THE VIRGIN", "designationCode": "C", "categoryCode": "30", "address": "401 1ST ST", "city": "BRANDON", "province": "MB", "country": "CA", "postalCode": "R7A2W8", "twitter": "None", "instagram": "None", "facebook": "None", "youtube": "None", "website": "None", "summary": "None", "logo": "None"}, "119169357RR0002": {"name": "THE CHURCH OF ST. STEPHEN AND ST. BEDE", "designationCode": "C", "categoryCode": "30", "address": "99 TURNER AVENUE", "city": "WINNIPEG", "province": "MB", "country": "CA", "postalCode": "R3J2S9", "twitter": "None", "instagram": "None", "facebook": "None", "youtube": "None", "website": "None", "summary": "None", "logo": "None", "latitude": 49.8844134676841, "longitude": -97.24437030391252}, "108084658RR0050": {"name": "THE CHURCH OF ST. THOMAS THE APOSTLE", "designationCode": "C", "categoryCode": "30", "address": "2345 ALTA VISTA DR", "city": "OTTAWA", "province": "ON", "country": "CA", "postalCode": "K1H7M6", "twitter": "None", "instagram": "None", "facebook": "None", "youtube": "None", "website": "None", "summary": "None", "logo": "None", "latitude": 45.38408376908647, "longitude": -75.6623057584689}, "119227130RR0002": {"name": "THE CHURCH OF THE ASCENSION", "designationCode": "C", "categoryCode": "30", "address": "1476 SPARKS ST", "city": "SUDBURY", "province": "ON", "country": "CA", "postalCode": "P3A2E1", "twitter": "None", "instagram": "None", "facebook": "None", "youtube": "None", "website": "None", "summary": "None", "logo": "None", "latitude": 46.52299349321934, "longitude": -80.9425707799065}, "119227148RR0001": {"name": "THE CHURCH OF THE CHRISTIAN COMMUNITY IN CANADA", "designationCode": "C", "categoryCode": "39", "address": "901 RUTHERFORD ROAD", "city": "MAPLE", "province": "ON", "country": "CA", "postalCode": "L6A1S2", "twitter": "None", "instagram": "None", "facebook": "None", "youtube": "None", "website": "None", "summary": "None", "logo": "None", "latitude": 43.846510779877846, "longitude": -79.46400808061638}}