{"119077980RR0002": {"name": "PARISH OF PELEE ISLAND", "designationCode": "C", "categoryCode": "30", "address": "188 NORTH SHORE RD", "city": "PELEE ISLAND", "province": "ON", "country": "CA", "postalCode": "N0R1M0", "twitter": "None", "instagram": "None", "facebook": "None", "youtube": "None", "website": "None", "summary": "None", "logo": "None", "latitude": 41.80908963777501, "longitude": -82.66720838467313}, "119077998RR0001": {"name": "PARISH OF PERRYTOWN", "designationCode": "C", "categoryCode": "30", "address": "6876 COUNTY ROAD 10", "city": "PORT HOPE", "province": "ON", "country": "CA", "postalCode": "L1A3V5", "twitter": "None", "instagram": "None", "facebook": "None", "youtube": "None", "website": "None", "summary": "None", "logo": "None", "latitude": 44.04198751104647, "longitude": -78.38283879263084}, "119229920RR0029": {"name": "PARISH OF PISTOLET BAY", "designationCode": "C", "categoryCode": "30", "address": "POST OFFICE BOX 374", "city": "LUNAIRE-GRIQUET", "province": "NL", "country": "CA", "postalCode": "A0K2X0", "twitter": "None", "instagram": "None", "facebook": "None", "youtube": "None", "website": "None", "summary": "None", "logo": "None", "latitude": 51.94600800000005, "longitude": -55.35920599999993}, "119229920RR0007": {"name": "PARISH OF PLUM POINT", "designationCode": "C", "categoryCode": "30", "address": "PO BOX 75", "city": "PLUM POINT", "province": "NL", "country": "CA", "postalCode": "A0K4A0", "twitter": "None", "instagram": "None", "facebook": "None", "youtube": "None", "website": "None", "summary": "None", "logo": "None", "latitude": 51.08160000000004, "longitude": -56.876799999999946}, "119229896RR0025": {"name": "PARISH OF POUCH COVE AND TORBAY", "designationCode": "C", "categoryCode": "30", "address": "BOX 29", "city": "POUCH COVE", "province": "NL", "country": "CA", "postalCode": "A0A3L0", "twitter": "None", "instagram": "None", "facebook": "None", "youtube": "None", "website": "None", "summary": "None", "logo": "None", "latitude": 47.74800845209054, "longitude": -52.78861729827156}, "119078038RR0001": {"name": "PARISH OF PRINCE WILLIAM AND DUMFRIES CUM QUEENSBURY AND SOUTHAMPTON", "designationCode": "C", "categoryCode": "30", "address": "6833 RTN 102", "city": "DUMFRIES", "province": "NB", "country": "CA", "postalCode": "E6G1P1", "twitter": "None", "instagram": "None", "facebook": "None", "youtube": "None", "website": "None", "summary": "None", "logo": "None", "latitude": 45.95371800000005, "longitude": -67.27968349999993}, "119078046RR0001": {"name": "PARISH OF QUEEN OF HEAVEN CFB GREENWOOD", "designationCode": "C", "categoryCode": "38", "address": "14 WING                       PO BOX 5000 STN MAIN", "city": "GREENWOOD", "province": "NS", "country": "CA", "postalCode": "B0P1N0", "twitter": "None", "instagram": "None", "facebook": "None", "youtube": "None", "website": "None", "summary": "None", "logo": "None", "latitude": 44.996401052198884, "longitude": -64.92800245359393}, "119078053RR0001": {"name": "PARISH OF QUEEN OF PEACE- CFB NORTH BAY", "designationCode": "C", "categoryCode": "38", "address": "22 WING NORTH BAY", "city": "HORNELL HEIGHTS", "province": "ON", "country": "CA", "postalCode": "P0H1P0", "twitter": "None", "instagram": "None", "facebook": "None", "youtube": "None", "website": "None", "summary": "None", "logo": "None", "latitude": 46.35902400000006, "longitude": -79.40993299999994}, "119078061RR0001": {"name": "PARISH OF RAYMORE", "designationCode": "C", "categoryCode": "39", "address": "BOX 612", "city": "RAYMORE", "province": "SK", "country": "CA", "postalCode": "S0A3J0", "twitter": "None", "instagram": "None", "facebook": "None", "youtube": "None", "website": "None", "summary": "None", "logo": "None", "latitude": 51.409260000000074, "longitude": -104.52537999999998}, "119229920RR0031": {"name": "PARISH OF ROSE BLANCHE", "designationCode": "C", "categoryCode": "30", "address": "P.O. BOX 190", "city": "ROSE BLANCHE", "province": "NL", "country": "CA", "postalCode": "A0M1P0", "twitter": "None", "instagram": "None", "facebook": "None", "youtube": "None", "website": "None", "summary": "None", "logo": "None", "latitude": 47.61824000000007, "longitude": -58.69799999999998}, "118787142RR0030": {"name": "PARISH OF SAINT DUNSTAN", "designationCode": "C", "categoryCode": "30", "address": "1793 PENSHURST ROAD", "city": "VICTORIA", "province": "BC", "country": "CA", "postalCode": "V8N2N6", "twitter": "None", "instagram": "None", "facebook": "None", "youtube": "None", "website": "None", "summary": "None", "logo": "None", "latitude": 48.483593024986966, "longitude": -123.31987431282798}, "119078095RR0002": {"name": "PARISH OF SAINT FRANCIS BY THE LAKES", "designationCode": "C", "categoryCode": "30", "address": "192 FIRST LAKE DR", "city": "LOWER SACKVILLE", "province": "NS", "country": "CA", "postalCode": "B4C3J8", "twitter": "None", "instagram": "None", "facebook": "None", "youtube": "None", "website": "None", "summary": "None", "logo": "None", "latitude": 44.77651134725001, "longitude": -63.66415652798806}, "890088842RR0001": {"name": "PARISH OF SAINT GEORGE", "designationCode": "C", "categoryCode": "30", "address": "PO BOX 262", "city": "BERWICK", "province": "NS", "country": "CA", "postalCode": "B0P1E0", "twitter": "None", "instagram": "None", "facebook": "None", "youtube": "None", "website": "None", "summary": "None", "logo": "None", "latitude": 45.04982000000007, "longitude": -64.73769999999996}, "119078103RR0001": {"name": "PARISH OF SAINT JOHN THE EVANGELIST", "designationCode": "C", "categoryCode": "30", "address": "980 FALMOUTH ROAD", "city": "VICTORIA", "province": "BC", "country": "CA", "postalCode": "V8X3A3", "twitter": "None", "instagram": "None", "facebook": "None", "youtube": "None", "website": "None", "summary": "None", "logo": "None", "latitude": 48.46135884430717, "longitude": -123.36499125339034}, "129930228RR0034": {"name": "PARISH OF SAINT JOSEPH, TILLEY, NEW BRUNSWICK", "designationCode": "C", "categoryCode": "38", "address": "14646 ROUTE 105", "city": "MEDFORD", "province": "NB", "country": "CA", "postalCode": "E7H3Z1", "twitter": "None", "instagram": "None", "facebook": "None", "youtube": "None", "website": "None", "summary": "None", "logo": "None", "latitude": 46.86054175929174, "longitude": -67.6905788155474}, "118849470RR0038": {"name": "PARISH OF SAINTS JOACHIM AND ANN", "designationCode": "C", "categoryCode": "38", "address": "BOX 47", "city": "ALDERGROVE", "province": "BC", "country": "CA", "postalCode": "V4W2T7", "twitter": "None", "instagram": "None", "facebook": "None", "youtube": "None", "website": "None", "summary": "None", "logo": "None", "latitude": 49.05687300000005, "longitude": -122.47227349999994}, "118787142RR0011": {"name": "PARISH OF SALT SPRING ISLAND", "designationCode": "C", "categoryCode": "30", "address": "110 PARK DRIVE", "city": "SALT SPRING ISLAND", "province": "BC", "country": "CA", "postalCode": "V8T2R7", "twitter": "None", "instagram": "None", "facebook": "None", "youtube": "None", "website": "None", "summary": "None", "logo": "None", "latitude": 48.85636614678792, "longitude": -123.50178824924481}, "107020232RR0025": {"name": "PARISH OF SALVAGE", "designationCode": "C", "categoryCode": "30", "address": "P.O.BOX 70", "city": "EASTPORT", "province": "NL", "country": "CA", "postalCode": "A0G1Z0", "twitter": "None", "instagram": "None", "facebook": "None", "youtube": "None", "website": "None", "summary": "None", "logo": "None", "latitude": 48.65217000000007, "longitude": -53.761259999999936}, "119229920RR0033": {"name": "PARISH OF SEAL COVE", "designationCode": "C", "categoryCode": "30", "address": "PO BOX 292", "city": "BAIE VERTE", "province": "NL", "country": "CA", "postalCode": "A0K1B0", "twitter": "None", "instagram": "None", "facebook": "None", "youtube": "None", "website": "None", "summary": "None", "logo": "None", "latitude": 49.939820000000054, "longitude": -56.191389999999956}, "119229896RR0004": {"name": "PARISH OF SHEARSTOWN", "designationCode": "C", "categoryCode": "30", "address": "PO BOX 159", "city": "SHEARSTOWN", "province": "NL", "country": "CA", "postalCode": "A0A3V0", "twitter": "None", "instagram": "None", "facebook": "None", "youtube": "None", "website": "None", "summary": "None", "logo": "None", "latitude": 47.58690788484152, "longitude": -53.300696795321414}, "119229896RR0032": {"name": "PARISH OF SPANIARD'S BAY", "designationCode": "C", "categoryCode": "30", "address": "PO BOX 89", "city": "SPANIARDS BAY", "province": "NL", "country": "CA", "postalCode": "A0A3X0", "twitter": "None", "instagram": "None", "facebook": "None", "youtube": "None", "website": "None", "summary": "None", "logo": "None", "latitude": 47.62125000000003, "longitude": -53.274599999999964}, "132024167RR0001": {"name": "PARISH OF ST ALBAN'S (RICHMOND)", "designationCode": "C", "categoryCode": "30", "address": "7260 ST ALBAN'S ROAD", "city": "RICHMOND", "province": "BC", "country": "CA", "postalCode": "V6Y2K3", "twitter": "None", "instagram": "None", "facebook": "None", "youtube": "None", "website": "None", "summary": "None", "logo": "None", "latitude": 49.16040425728548, "longitude": -123.13091899440276}, "131112112RR0001": {"name": "PARISH OF ST ANSELM", "designationCode": "C", "categoryCode": "30", "address": "5210 UNIVERSITY BOULEVARD", "city": "VANCOUVER", "province": "BC", "country": "CA", "postalCode": "V6T2H5", "twitter": "None", "instagram": "None", "facebook": "None", "youtube": "None", "website": "None", "summary": "None", "logo": "None", "latitude": 49.26347272410848, "longitude": -123.2312984511322}, "119229896RR0007": {"name": "PARISH OF ST AUGUSTINE", "designationCode": "C", "categoryCode": "30", "address": "P.O. BOX 23036", "city": "ST. JOHN'S", "province": "NL", "country": "CA", "postalCode": "A1B4J9", "twitter": "None", "instagram": "None", "facebook": "None", "youtube": "None", "website": "None", "summary": "None", "logo": "None", "latitude": 47.56938900000006, "longitude": -52.78609699999993}, "136565579RR0001": {"name": "PARISH OF ST AUGUSTINE'S", "designationCode": "C", "categoryCode": "30", "address": "411 - 11 STREET SOUTH", "city": "LETHBRIDGE", "province": "AB", "country": "CA", "postalCode": "T1J2N9", "twitter": "None", "instagram": "None", "facebook": "None", "youtube": "None", "website": "None", "summary": "None", "logo": "None", "latitude": 49.694186493479116, "longitude": -112.83055909654365}, "133763219RR0001": {"name": "PARISH OF ST CATHERINE", "designationCode": "C", "categoryCode": "30", "address": "2211 PRAIRIE AVE", "city": "PORT COQUITLAM", "province": "BC", "country": "CA", "postalCode": "V3B1V8", "twitter": "None", "instagram": "None", "facebook": "None", "youtube": "None", "website": "None", "summary": "None", "logo": "None", "latitude": 49.271229508799905, "longitude": -122.77588419317328}, "129136024RR0001": {"name": "PARISH OF ST CUTHBERT", "designationCode": "C", "categoryCode": "30", "address": "11601 - 82 AVENUE", "city": "DELTA", "province": "BC", "country": "CA", "postalCode": "V4C2C3", "twitter": "None", "instagram": "None", "facebook": "None", "youtube": "None", "website": "None", "summary": "None", "logo": "None", "latitude": 49.15228350043269, "longitude": -122.90061166763806}, "892512849RR0002": {"name": "PARISH OF ST CUTHBERT, ST HILDA, ST LUKE", "designationCode": "C", "categoryCode": "30", "address": "6341 DE LORIMIER AVENUE", "city": "MONTREAL", "province": "QC", "country": "CA", "postalCode": "H2G2P5", "twitter": "None", "instagram": "None", "facebook": "None", "youtube": "None", "website": "None", "summary": "None", "logo": "None", "latitude": 45.54481321761201, "longitude": -73.59295099887483}, "130303852RR0001": {"name": "PARISH OF ST DAVID", "designationCode": "C", "categoryCode": "30", "address": "1115-51-A ST", "city": "DELTA", "province": "BC", "country": "CA", "postalCode": "V4M2Y2", "twitter": "None", "instagram": "None", "facebook": "None", "youtube": "None", "website": "None", "summary": "None", "logo": "None", "latitude": 49.02280794895821, "longitude": -123.08055281127011}, "130662794RR0001": {"name": "PARISH OF ST DAVID AND ST PAUL", "designationCode": "C", "categoryCode": "30", "address": "6310 SYCAMORE ST", "city": "POWELL RIVER", "province": "BC", "country": "CA", "postalCode": "V8A4L1", "twitter": "None", "instagram": "None", "facebook": "None", "youtube": "None", "website": "None", "summary": "None", "logo": "None", "latitude": 49.875206884538805, "longitude": -124.5499299410124}, "129620902RR0001": {"name": "PARISH OF ST FRANCIS IN THE WOOD", "designationCode": "C", "categoryCode": "30", "address": "4773 SOUTH PICCADILLY ROAD", "city": "WEST VANCOUVER", "province": "BC", "country": "CA", "postalCode": "V7W1J8", "twitter": "None", "instagram": "None", "facebook": "None", "youtube": "None", "website": "None", "summary": "None", "logo": "None", "latitude": 49.33921540608208, "longitude": -123.25517494517864}, "890434244RR0001": {"name": "PARISH OF ST GEORGE", "designationCode": "C", "categoryCode": "30", "address": "2950 LAUREL ST", "city": "VANCOUVER", "province": "BC", "country": "CA", "postalCode": "V5Z3T3", "twitter": "None", "instagram": "None", "facebook": "None", "youtube": "None", "website": "None", "summary": "None", "logo": "None", "latitude": 49.25897756298607, "longitude": -123.12423900122795}, "131779365RR0001": {"name": "PARISH OF ST HELEN", "designationCode": "C", "categoryCode": "30", "address": "10787 - 128 STREET", "city": "SURREY", "province": "BC", "country": "CA", "postalCode": "V3T3A2", "twitter": "None", "instagram": "None", "facebook": "None", "youtube": "None", "website": "None", "summary": "None", "logo": "None", "latitude": 49.19887836663975, "longitude": -122.86768201223367}, "130406176RR0001": {"name": "PARISH OF ST JAMES", "designationCode": "C", "categoryCode": "30", "address": "303 E CORDOVA ST", "city": "VANCOUVER", "province": "BC", "country": "CA", "postalCode": "V6A1L4", "twitter": "None", "instagram": "None", "facebook": "None", "youtube": "None", "website": "None", "summary": "None", "logo": "None", "latitude": 49.2822545115412, "longitude": -123.09718997155059}, "131595381RR0001": {"name": "PARISH OF ST JAMES", "designationCode": "C", "categoryCode": "30", "address": "6351 RANCHVIEW DRIVE N.W.", "city": "CALGARY", "province": "AB", "country": "CA", "postalCode": "T3G1B5", "twitter": "None", "instagram": "None", "facebook": "None", "youtube": "None", "website": "None", "summary": "None", "logo": "None", "latitude": 51.114962388568266, "longitude": -114.18138782817834}, "121836613RR0001": {"name": "PARISH OF ST JOHN", "designationCode": "C", "categoryCode": "30", "address": "1490 NANTON AVE", "city": "VANCOUVER", "province": "BC", "country": "CA", "postalCode": "V6H2E2", "twitter": "None", "instagram": "None", "facebook": "None", "youtube": "None", "website": "None", "summary": "None", "logo": "None", "latitude": 49.247401509521964, "longitude": -123.13872288634659}, "893030643RR0001": {"name": "PARISH OF ST JOHN", "designationCode": "C", "categoryCode": "30", "address": "PO BOX 236", "city": "GARIBALDI HIGHLANDS", "province": "BC", "country": "CA", "postalCode": "V0N1T0", "twitter": "None", "instagram": "None", "facebook": "None", "youtube": "None", "website": "None", "summary": "None", "logo": "None", "latitude": 49.742860000000064, "longitude": -123.11049999999994}, "886849892RR0001": {"name": "PARISH OF ST JOHN BAPTIST GULL LAKE", "designationCode": "C", "categoryCode": "30", "address": "BOX 401", "city": "GULL LAKE", "province": "SK", "country": "CA", "postalCode": "S0N1A0", "twitter": "None", "instagram": "None", "facebook": "None", "youtube": "None", "website": "None", "summary": "None", "logo": "None", "latitude": 50.09796000000006, "longitude": -108.48363999999998}, "889905048RR0001": {"name": "PARISH OF ST JOHN THE APOSTLE, PORT MOODY", "designationCode": "C", "categoryCode": "30", "address": "2208 ST. JOHNS ST", "city": "PORT MOODY", "province": "BC", "country": "CA", "postalCode": "V3H2A7", "twitter": "None", "instagram": "None", "facebook": "None", "youtube": "None", "website": "None", "summary": "None", "logo": "None", "latitude": 49.27675255504182, "longitude": -122.86350765181956}, "868939695RR0001": {"name": "PARISH OF ST JOHN, AT TRURO", "designationCode": "C", "categoryCode": "30", "address": "23 CHURCH STREET", "city": "TRURO", "province": "NS", "country": "CA", "postalCode": "B2N3Z5", "twitter": "None", "instagram": "None", "facebook": "None", "youtube": "None", "website": "None", "summary": "None", "logo": "None", "latitude": 45.36488447515726, "longitude": -63.27610569023044}, "131814923RR0001": {"name": "PARISH OF ST JOHN'S CHURCH", "designationCode": "C", "categoryCode": "30", "address": "74 SUMMER STREET", "city": "SUMMERSIDE", "province": "PE", "country": "CA", "postalCode": "C1N4P6", "twitter": "None", "instagram": "None", "facebook": "None", "youtube": "None", "website": "None", "summary": "None", "logo": "None", "latitude": 46.394243643632045, "longitude": -63.790586108257735}, "128895901RR0001": {"name": "PARISH OF ST LAURENCE", "designationCode": "C", "categoryCode": "30", "address": "825 ST LAURENCE STREET", "city": "COQUITLAM", "province": "BC", "country": "CA", "postalCode": "V3J6G7", "twitter": "None", "instagram": "None", "facebook": "None", "youtube": "None", "website": "None", "summary": "None", "logo": "None", "latitude": 49.26468558090485, "longitude": -122.84231988952057}, "132004078RR0001": {"name": "PARISH OF ST LEONARD'S ON THE HILL", "designationCode": "C", "categoryCode": "30", "address": "4241 44 ST", "city": "RED DEER", "province": "AB", "country": "CA", "postalCode": "T4N1H3", "twitter": "None", "instagram": "None", "facebook": "None", "youtube": "None", "website": "None", "summary": "None", "logo": "None", "latitude": 52.26305954342439, "longitude": -113.79458266763807}, "119079101RR0001": {"name": "PARISH OF ST MARGARET OF SCOTLAND", "designationCode": "C", "categoryCode": "30", "address": "1410 NANTON AVE", "city": "VANCOUVER", "province": "BC", "country": "CA", "postalCode": "V6H2E2", "twitter": "None", "instagram": "None", "facebook": "None", "youtube": "None", "website": "None", "summary": "None", "logo": "None", "latitude": 49.247329075864954, "longitude": -123.13708322274447}, "129087847RR0001": {"name": "PARISH OF ST MARGARET'S OF SCOTLAND CHURCH", "designationCode": "C", "categoryCode": "30", "address": "3751 ROBIE STREET", "city": "HALIFAX", "province": "NS", "country": "CA", "postalCode": "B3K4T3", "twitter": "None", "instagram": "None", "facebook": "None", "youtube": "None", "website": "None", "summary": "None", "logo": "None", "latitude": 44.668430610623666, "longitude": -63.615076787091205}, "119229920RR0022": {"name": "PARISH OF ST MARY THE VIRGIN", "designationCode": "C", "categoryCode": "30", "address": "456 CURLING ST", "city": "CORNER BROOK", "province": "NL", "country": "CA", "postalCode": "A2H3K6", "twitter": "None", "instagram": "None", "facebook": "None", "youtube": "None", "website": "None", "summary": "None", "logo": "None", "latitude": 48.96077420670445, "longitude": -58.00602167567956}, "119229896RR0012": {"name": "PARISH OF ST MARY THE VIRGIN,", "designationCode": "C", "categoryCode": "30", "address": "1 CORNWALL CRESCENT", "city": "ST JOHN'S", "province": "NL", "country": "CA", "postalCode": "A1E1Z4", "twitter": "None", "instagram": "None", "facebook": "None", "youtube": "None", "website": "None", "summary": "None", "logo": "None", "latitude": 47.545642749927886, "longitude": -52.729718108720014}, "132003294RR0001": {"name": "PARISH OF ST MARY THE VIRGIN,", "designationCode": "C", "categoryCode": "30", "address": "121 E COLUMBIA ST", "city": "NEW WESTMINSTER", "province": "BC", "country": "CA", "postalCode": "V3L3V7", "twitter": "None", "instagram": "None", "facebook": "None", "youtube": "None", "website": "None", "summary": "None", "logo": "None", "latitude": 49.22132495337297, "longitude": -122.89306342120129}, "132363946RR0002": {"name": "PARISH OF ST MARY'S CHURCH", "designationCode": "C", "categoryCode": "30", "address": "BOX 99                        20 MORDEN RD", "city": "AUBURN", "province": "NS", "country": "CA", "postalCode": "B0P1A0", "twitter": "None", "instagram": "None", "facebook": "None", "youtube": "None", "website": "None", "summary": "None", "logo": "None", "latitude": 45.018537150506155, "longitude": -64.86914941571202}, "136523222RR0001": {"name": "PARISH OF ST MARY'S KERRISDALE", "designationCode": "C", "categoryCode": "30", "address": "2490 W. 37TH AVENUE", "city": "VANCOUVER", "province": "BC", "country": "CA", "postalCode": "V6M1P5", "twitter": "None", "instagram": "None", "facebook": "None", "youtube": "None", "website": "None", "summary": "None", "logo": "None", "latitude": 49.23841150288554, "longitude": -123.16207299861503}, "892072240RR0002": {"name": "PARISH OF ST MICHAEL", "designationCode": "C", "categoryCode": "30", "address": "BOX 304", "city": "VICTORIA BEACH", "province": "MB", "country": "CA", "postalCode": "R0E2C0", "twitter": "None", "instagram": "None", "facebook": "None", "youtube": "None", "website": "None", "summary": "None", "logo": "None", "latitude": 50.69768737686306, "longitude": -96.55575829762454}, "119229920RR0014": {"name": "PARISH OF ST MICHAEL AND ALL ANGELS", "designationCode": "C", "categoryCode": "30", "address": "PO BOX 674 STN MAIN", "city": "CORNER BROOK", "province": "NL", "country": "CA", "postalCode": "A2H6G1", "twitter": "None", "instagram": "None", "facebook": "None", "youtube": "None", "website": "None", "summary": "None", "logo": "None", "latitude": 48.95286915119611, "longitude": -57.94545019053702}, "119229896RR0013": {"name": "PARISH OF ST MICHAEL AND ALL ANGELS,", "designationCode": "C", "categoryCode": "30", "address": "75 KIWANIS STREET", "city": "ST. JOHN'S", "province": "NL", "country": "CA", "postalCode": "A1B0A2", "twitter": "None", "instagram": "None", "facebook": "None", "youtube": "None", "website": "None", "summary": "None", "logo": "None", "latitude": 47.54916021201475, "longitude": -52.78576593557069}, "131638306RR0001": {"name": "PARISH OF ST MICHAEL SURREY", "designationCode": "C", "categoryCode": "30", "address": "12996 60 AVE", "city": "SURREY", "province": "BC", "country": "CA", "postalCode": "V3X2L5", "twitter": "None", "instagram": "None", "facebook": "None", "youtube": "None", "website": "None", "summary": "None", "logo": "None", "latitude": 49.11181851788916, "longitude": -122.86244233236194}, "132880691RR0002": {"name": "PARISH OF ST MICHAEL'S CHURCH", "designationCode": "C", "categoryCode": "30", "address": "1275 NEW CUMBERLAND RD", "city": "PLEASANTVILLE", "province": "NS", "country": "CA", "postalCode": "B0R1G0", "twitter": "None", "instagram": "None", "facebook": "None", "youtube": "None", "website": "None", "summary": "None", "logo": "None", "latitude": 44.336869233559014, "longitude": -64.45468561274198}, "131933160RR0001": {"name": "PARISH OF ST OSWALD, PORT KELLS", "designationCode": "C", "categoryCode": "30", "address": "UNIT #1 5708 208 ST.", "city": "LANGLEY", "province": "BC", "country": "CA", "postalCode": "V3A8L4", "twitter": "None", "instagram": "None", "facebook": "None", "youtube": "None", "website": "None", "summary": "None", "logo": "None", "latitude": 49.10558698793941, "longitude": -122.64665502727168}, "131774937RR0002": {"name": "PARISH OF ST PETER'S CHURCH", "designationCode": "C", "categoryCode": "30", "address": "3 DAKIN DRIVE", "city": "HALIFAX", "province": "NS", "country": "CA", "postalCode": "B3M2C9", "twitter": "None", "instagram": "None", "facebook": "None", "youtube": "None", "website": "None", "summary": "None", "logo": "None", "latitude": 44.68248162392521, "longitude": -63.662064508165656}, "891705576RR0001": {"name": "PARISH OF ST RAPHAEL", "designationCode": "C", "categoryCode": "38", "address": "4609 50 AVE", "city": "ST PAUL", "province": "AB", "country": "CA", "postalCode": "T0A3A3", "twitter": "None", "instagram": "None", "facebook": "None", "youtube": "None", "website": "None", "summary": "None", "logo": "None", "latitude": 53.99135148730496, "longitude": -111.28695202553523}, "872520762RR0001": {"name": "PARISH OF ST STEPHEN'S CHURCH", "designationCode": "C", "categoryCode": "30", "address": "4 NEWCOMBE'S LANE", "city": "SHIP HARBOUR", "province": "NS", "country": "CA", "postalCode": "B0J1Y0", "twitter": "None", "instagram": "None", "facebook": "None", "youtube": "None", "website": "None", "summary": "None", "logo": "None", "latitude": 44.80862405245543, "longitude": -62.877975412978316}, "119229896RR0001": {"name": "PARISH OF ST THOMAS", "designationCode": "C", "categoryCode": "30", "address": "8 MILITARY", "city": "ST.JOHN'S", "province": "NL", "country": "CA", "postalCode": "A1C2C4", "twitter": "None", "instagram": "None", "facebook": "None", "youtube": "None", "website": "None", "summary": "None", "logo": "None", "latitude": 47.57134381133139, "longitude": -52.70224403984186}, "131135949RR0001": {"name": "PARISH OF ST THOMAS", "designationCode": "C", "categoryCode": "30", "address": "2444 E 41ST AVE", "city": "VANCOUVER", "province": "BC", "country": "CA", "postalCode": "V5R2W4", "twitter": "None", "instagram": "None", "facebook": "None", "youtube": "None", "website": "None", "summary": "None", "logo": "None", "latitude": 49.2328255100989, "longitude": -123.05693177699231}, "119229896RR0010": {"name": "PARISH OF ST TIMOTHY", "designationCode": "C", "categoryCode": "30", "address": "P.O.BOX 169", "city": "RIGOLET", "province": "NL", "country": "CA", "postalCode": "A0P1P0", "twitter": "None", "instagram": "None", "facebook": "None", "youtube": "None", "website": "None", "summary": "None", "logo": "None", "latitude": 54.170120000000054, "longitude": -58.43438999999995}, "119078194RR0001": {"name": "PARISH OF ST. AGNES", "designationCode": "C", "categoryCode": "30", "address": "530 E 12 TH ST.", "city": "NORTH VANCOUVER", "province": "BC", "country": "CA", "postalCode": "V7L2K4", "twitter": "None", "instagram": "None", "facebook": "None", "youtube": "None", "website": "None", "summary": "None", "logo": "None", "latitude": 49.31883349711448, "longitude": -123.05856222300767}, "872161203RR0001": {"name": "PARISH OF ST. AIDAN", "designationCode": "C", "categoryCode": "39", "address": "124 - 1ST AVENUE N.E.", "city": "MOOSE JAW", "province": "SK", "country": "CA", "postalCode": "S6H0Y8", "twitter": "None", "instagram": "None", "facebook": "None", "youtube": "None", "website": "None", "summary": "None", "logo": "None", "latitude": 50.39150972568427, "longitude": -105.53205927431571}, "119078236RR0001": {"name": "PARISH OF ST. ALBAN THE MARTYR", "designationCode": "C", "categoryCode": "30", "address": "7717-19TH AVE", "city": "BURNABY", "province": "BC", "country": "CA", "postalCode": "V3N1E8", "twitter": "None", "instagram": "None", "facebook": "None", "youtube": "None", "website": "None", "summary": "None", "logo": "None", "latitude": 49.223508075509145, "longitude": -122.93957323677057}, "119078210RR0003": {"name": "PARISH OF ST. ALBAN'S CHURCH", "designationCode": "C", "categoryCode": "30", "address": "345 PLEASANT ST.", "city": "DARTMOUTH", "province": "NS", "country": "CA", "postalCode": "B2Y3S4", "twitter": "None", "instagram": "None", "facebook": "None", "youtube": "None", "website": "None", "summary": "None", "logo": "None", "latitude": 44.65109243104038, "longitude": -63.54699256823847}, "869979047RR0001": {"name": "PARISH OF ST. ANDREW & ST. MARK", "designationCode": "C", "categoryCode": "30", "address": "865 LAKE SHORE DRIVE", "city": "DORVAL", "province": "QC", "country": "CA", "postalCode": "H9S2C7", "twitter": "None", "instagram": "None", "facebook": "None", "youtube": "None", "website": "None", "summary": "None", "logo": "None", "latitude": 45.43878443551245, "longitude": -73.74229288496159}, "119078251RR0002": {"name": "PARISH OF ST. ANDREW'S CHURCH", "designationCode": "C", "categoryCode": "30", "address": "2553 ST. MARGARETS BAY RD", "city": "TIMBERLEA", "province": "NS", "country": "CA", "postalCode": "B3T1H1", "twitter": "None", "instagram": "None", "facebook": "None", "youtube": "None", "website": "None", "summary": "None", "logo": "None", "latitude": 44.661861941456394, "longitude": -63.74577907781776}, "846476125RR0001": {"name": "PARISH OF ST. ANNE", "designationCode": "C", "categoryCode": "38", "address": "P.O. BOX 807", "city": "GULL LAKE", "province": "SK", "country": "CA", "postalCode": "S0N1A0", "twitter": "None", "instagram": "None", "facebook": "None", "youtube": "None", "website": "None", "summary": "None", "logo": "None", "latitude": 50.09796000000006, "longitude": -108.48363999999998}, "860578699RR0001": {"name": "PARISH OF ST. ATHANASIUS", "designationCode": "C", "categoryCode": "30", "address": "RR #1 3436 SHANNONVILLE ROAD", "city": "ROSLIN", "province": "ON", "country": "CA", "postalCode": "K0K2Y0", "twitter": "None", "instagram": "None", "facebook": "None", "youtube": "None", "website": "None", "summary": "None", "logo": "None", "latitude": 44.34322379462169, "longitude": -77.30295253064246}, "119078335RR0001": {"name": "PARISH OF ST. AUGUSTINE", "designationCode": "C", "categoryCode": "30", "address": "8680 HUDSON STREET", "city": "VANCOUVER", "province": "BC", "country": "CA", "postalCode": "V6P4M5", "twitter": "None", "instagram": "None", "facebook": "None", "youtube": "None", "website": "None", "summary": "None", "logo": "None", "latitude": 49.20723715598132, "longitude": -123.13454804605013}, "888235991RR0002": {"name": "PARISH OF ST. AUGUSTINE'S CHURCH", "designationCode": "C", "categoryCode": "30", "address": "290 PURCELL'S COVE ROAD", "city": "HALIFAX", "province": "NS", "country": "CA", "postalCode": "B3P1C3", "twitter": "None", "instagram": "None", "facebook": "None", "youtube": "None", "website": "None", "summary": "None", "logo": "None", "latitude": 44.62366701973552, "longitude": -63.595240165156554}, "132041310RR0001": {"name": "PARISH OF ST. BARNABAS", "designationCode": "C", "categoryCode": "30", "address": "414 8142 120 A STREET", "city": "SURREY", "province": "BC", "country": "CA", "postalCode": "V3W0N1", "twitter": "None", "instagram": "None", "facebook": "None", "youtube": "None", "website": "None", "summary": "None", "logo": "None", "latitude": 49.151099608661774, "longitude": -122.88836639327147}, "119078384RR0001": {"name": "PARISH OF ST. BARNABAS CHURCH", "designationCode": "C", "categoryCode": "30", "address": "1735 NEW CHESTER RD           RR 1", "city": "NEW CHESTER", "province": "NS", "country": "CA", "postalCode": "B0J2K0", "twitter": "None", "instagram": "None", "facebook": "None", "youtube": "None", "website": "None", "summary": "None", "logo": "None", "latitude": 45.04080794304386, "longitude": -62.22506857080595}, "872590765RR0001": {"name": "PARISH OF ST. BARNABAS CHURCH", "designationCode": "C", "categoryCode": "30", "address": "RR 1", "city": "BLUE ROCKS LUNENBURG", "province": "NS", "country": "CA", "postalCode": "B0J2C0", "twitter": "None", "instagram": "None", "facebook": "None", "youtube": "None", "website": "None", "summary": "None", "logo": "None", "latitude": 44.374725, "longitude": -64.300968}, "119077857RR0001": {"name": "PARISH OF ST. BRENDAN'S -CFB HALIFAX (STADACONA)", "designationCode": "C", "categoryCode": "39", "address": "MARITIME FORCES ATLANTIC      P.O BOX 99000 STN FORCES", "city": "HALIFAX", "province": "NS", "country": "CA", "postalCode": "B3K5X5", "twitter": "None", "instagram": "None", "facebook": "None", "youtube": "None", "website": "None", "summary": "None", "logo": "None", "latitude": 44.645478000000054, "longitude": -63.576552499999934}, "119078434RR0001": {"name": "PARISH OF ST. CHAD", "designationCode": "C", "categoryCode": "30", "address": "3874 TRAFALGAR ST", "city": "VANCOUVER", "province": "BC", "country": "CA", "postalCode": "V6L2M4", "twitter": "None", "instagram": "None", "facebook": "None", "youtube": "None", "website": "None", "summary": "None", "logo": "None", "latitude": 49.25207214572812, "longitude": -123.1651815845073}, "119078467RR0001": {"name": "PARISH OF ST. CHRISTOPHER", "designationCode": "C", "categoryCode": "30", "address": "1068 INGLEWOOD AVE", "city": "WEST VANCOUVER", "province": "BC", "country": "CA", "postalCode": "V7T1Y9", "twitter": "None", "instagram": "None", "facebook": "None", "youtube": "None", "website": "None", "summary": "None", "logo": "None", "latitude": 49.3344714884588, "longitude": -123.14492061226844}, "118787142RR0043": {"name": "PARISH OF ST. CHRISTOPHER'S AND ST. AIDAN'S COWICHAN LAKE", "designationCode": "C", "categoryCode": "30", "address": "BOX 1081", "city": "LAKE COWICHAN", "province": "BC", "country": "CA", "postalCode": "V0R2G0", "twitter": "None", "instagram": "None", "facebook": "None", "youtube": "None", "website": "None", "summary": "None", "logo": "None", "latitude": 48.810804726537235, "longitude": -123.97042104319344}, "119078483RR0001": {"name": "PARISH OF ST. CLEMENT", "designationCode": "C", "categoryCode": "30", "address": "3400 INSTITUTE RD", "city": "N-VANCOUVER", "province": "BC", "country": "CA", "postalCode": "V7K2K9", "twitter": "None", "instagram": "None", "facebook": "None", "youtube": "None", "website": "None", "summary": "None", "logo": "None", "latitude": 49.33985347544573, "longitude": -123.03672887062179}, "119078608RR0001": {"name": "PARISH OF ST. FAITH", "designationCode": "C", "categoryCode": "30", "address": "7284 CYPRESS STREET", "city": "VANCOUVER", "province": "BC", "country": "CA", "postalCode": "V6P5M3", "twitter": "None", "instagram": "None", "facebook": "None", "youtube": "None", "website": "None", "summary": "None", "logo": "None", "latitude": 49.21972116180967, "longitude": -123.14956796612623}, "108018656RR0001": {"name": "PARISH OF ST. GEORGE", "designationCode": "C", "categoryCode": "39", "address": "2222 BRUNSWICK STREET", "city": "HALIFAX", "province": "NS", "country": "CA", "postalCode": "B3K2Z3", "twitter": "None", "instagram": "None", "facebook": "None", "youtube": "None", "website": "None", "summary": "None", "logo": "None", "latitude": 44.65359515624111, "longitude": -63.5826271988861}, "119078632RR0001": {"name": "PARISH OF ST. GEORGE", "designationCode": "C", "categoryCode": "30", "address": "23500 DEWDNEY TRUNK ROAD", "city": "MAPLE RIDGE", "province": "BC", "country": "CA", "postalCode": "V2X3L8", "twitter": "None", "instagram": "None", "facebook": "None", "youtube": "None", "website": "None", "summary": "None", "logo": "None", "latitude": 49.22032753895234, "longitude": -122.569974}, "119078681RR0001": {"name": "PARISH OF ST. GEORGE'S", "designationCode": "C", "categoryCode": "30", "address": "199 TEMPERANCE ST", "city": "NEW GLASGOW", "province": "NS", "country": "CA", "postalCode": "B2H3B3", "twitter": "None", "instagram": "None", "facebook": "None", "youtube": "None", "website": "None", "summary": "None", "logo": "None", "latitude": 45.585806552599664, "longitude": -62.64263716030913}, "108020793RR0001": {"name": "PARISH OF ST. JAMES CHURCH", "designationCode": "C", "categoryCode": "30", "address": "PO BOX 341", "city": "BRIDGETOWN", "province": "NS", "country": "CA", "postalCode": "B0S1C0", "twitter": "None", "instagram": "None", "facebook": "None", "youtube": "None", "website": "None", "summary": "None", "logo": "None", "latitude": 44.85015000000004, "longitude": -65.29881999999998}, "119078731RR0001": {"name": "PARISH OF ST. JAMES' CHURCH", "designationCode": "C", "categoryCode": "39", "address": "BOX 25", "city": "MAHONE BAY", "province": "NS", "country": "CA", "postalCode": "B0J2E0", "twitter": "None", "instagram": "None", "facebook": "None", "youtube": "None", "website": "None", "summary": "None", "logo": "None", "latitude": 44.5107664683721, "longitude": -64.5603343504879}, "119078756RR0002": {"name": "PARISH OF ST. JAMES' CHURCH", "designationCode": "C", "categoryCode": "30", "address": "ENVELOPE RECORDER             PO BOX 459", "city": "PICTOU", "province": "NS", "country": "CA", "postalCode": "B0K1H0", "twitter": "None", "instagram": "None", "facebook": "None", "youtube": "None", "website": "None", "summary": "None", "logo": "None"}, "888208790RR0002": {"name": "PARISH OF ST. JAMES' CHURCH", "designationCode": "C", "categoryCode": "30", "address": "53 MILLSIDE DRIVE", "city": "PORTER'S LAKE", "province": "NS", "country": "CA", "postalCode": "B3A3T1", "twitter": "None", "instagram": "None", "facebook": "None", "youtube": "None", "website": "None", "summary": "None", "logo": "None", "latitude": 44.7468695323159, "longitude": -63.293539384817365}, "107814345RR0002": {"name": "PARISH OF ST. JOHN THE BAPTIST", "designationCode": "C", "categoryCode": "30", "address": "28 KING STREET", "city": "NORTH SYDNEY", "province": "NS", "country": "CA", "postalCode": "B2A2S4", "twitter": "None", "instagram": "None", "facebook": "None", "youtube": "None", "website": "None", "summary": "None", "logo": "None", "latitude": 46.20899301941838, "longitude": -60.253174481418334}, "119078962RR0001": {"name": "PARISH OF ST. JOHN THE BAPTIST, SARDIS", "designationCode": "C", "categoryCode": "30", "address": "46098 HIGGINSON ROAD", "city": "CHILLIWACK", "province": "BC", "country": "CA", "postalCode": "V2R2A9", "twitter": "None", "instagram": "None", "facebook": "None", "youtube": "None", "website": "None", "summary": "None", "logo": "None", "latitude": 49.12538546765546, "longitude": -121.94876407989524}, "118787142RR0051": {"name": "PARISH OF ST. JOHN THE DIVINE", "designationCode": "C", "categoryCode": "30", "address": "579 5TH STREET", "city": "COURTENAY", "province": "BC", "country": "CA", "postalCode": "V9N1K2", "twitter": "None", "instagram": "None", "facebook": "None", "youtube": "None", "website": "None", "summary": "None", "logo": "None", "latitude": 49.68946186058333, "longitude": -125.00323977513082}, "108022864RR0001": {"name": "PARISH OF ST. JOHN THE EVANGELIST", "designationCode": "C", "categoryCode": "30", "address": "ST JOHN'S ANGLICAN CHURCH     PO BOX 157", "city": "PINCHER CREEK", "province": "AB", "country": "CA", "postalCode": "T0K1W0", "twitter": "None", "instagram": "None", "facebook": "None", "youtube": "None", "website": "None", "summary": "None", "logo": "None", "latitude": 49.48817610802999, "longitude": -113.94040239057814}, "119229896RR0041": {"name": "PARISH OF ST. JOHN THE EVANGELIST, CBS", "designationCode": "C", "categoryCode": "30", "address": "P O BOX 13033                 STATION TOPSAIL", "city": "CONCEPTION BAY SOUTH", "province": "NL", "country": "CA", "postalCode": "A1W2K1", "twitter": "None", "instagram": "None", "facebook": "None", "youtube": "None", "website": "None", "summary": "None", "logo": "None", "latitude": 47.53896323837952, "longitude": -52.93666456018887}, "888229598RR0002": {"name": "PARISH OF ST. JOHN'S CHURCH", "designationCode": "C", "categoryCode": "30", "address": "P.O. BOX 116", "city": "NEW GERMANY", "province": "NS", "country": "CA", "postalCode": "B0R1E0", "twitter": "None", "instagram": "None", "facebook": "None", "youtube": "None", "website": "None", "summary": "None", "logo": "None", "latitude": 44.53315800000006, "longitude": -64.71399049999994}, "119079002RR0001": {"name": "PARISH OF ST. KIRYLA OF TURAU", "designationCode": "C", "categoryCode": "39", "address": "524 ST CLARENS AVE", "city": "TORONTO", "province": "ON", "country": "CA", "postalCode": "M6H3W7", "twitter": "None", "instagram": "None", "facebook": "None", "youtube": "None", "website": "None", "summary": "None", "logo": "None", "latitude": 43.66098959755326, "longitude": -79.44273634750981}, "119229896RR0024": {"name": "PARISH OF ST. LAWRENCE", "designationCode": "C", "categoryCode": "30", "address": "1824A PORTUGAL COVE ROAD", "city": "PORTUGAL COVE - ST. PHILIPS", "province": "NL", "country": "CA", "postalCode": "A1M2N2", "twitter": "None", "instagram": "None", "facebook": "None", "youtube": "None", "website": "None", "summary": "None", "logo": "None", "latitude": 47.62870192478961, "longitude": -52.84776081998377}, "128967353RR0054": {"name": "PARISH OF ST. LEONARD OF MANOTICK", "designationCode": "C", "categoryCode": "38", "address": "5332 LONG ISLAND ROAD", "city": "MANOTICK", "province": "ON", "country": "CA", "postalCode": "K4M1E8", "twitter": "None", "instagram": "None", "facebook": "None", "youtube": "None", "website": "None", "summary": "None", "logo": "None", "latitude": 45.23819848623711, "longitude": -75.69212422707571}, "119229920RR0004": {"name": "PARISH OF ST. LUKE", "designationCode": "C", "categoryCode": "30", "address": "PO BOX 117", "city": "SPRINGDALE", "province": "NL", "country": "CA", "postalCode": "A0J1T0", "twitter": "None", "instagram": "None", "facebook": "None", "youtube": "None", "website": "None", "summary": "None", "logo": "None", "latitude": 49.497243000000054, "longitude": -56.07671299999993}, "119079044RR0001": {"name": "PARISH OF ST. LUKE, PEMBINA CROSSING", "designationCode": "C", "categoryCode": "30", "address": "BOX 309", "city": "MANITOU", "province": "MB", "country": "CA", "postalCode": "R0G1G0", "twitter": "None", "instagram": "None", "facebook": "None", "youtube": "None", "website": "None", "summary": "None", "logo": "None", "latitude": 49.23673000000008, "longitude": -98.53495999999996}, "108027822RR0001": {"name": "PARISH OF ST. LUKE'S CHURCH", "designationCode": "C", "categoryCode": "30", "address": "9 VETERANS AVE", "city": "DARTMOUTH", "province": "NS", "country": "CA", "postalCode": "B2W3E2", "twitter": "None", "instagram": "None", "facebook": "None", "youtube": "None", "website": "None", "summary": "None", "logo": "None", "latitude": 44.68116063338893, "longitude": -63.53425046491414}}