{"818717613RR0001": {"name": "KELFIELD GOSPEL CHAPEL INC.", "designationCode": "C", "categoryCode": "39", "address": "215 - 930 HERITAGE VIEW", "city": "SASKATOON", "province": "SK", "country": "CA", "postalCode": "S7H5S6", "twitter": "None", "instagram": "None", "facebook": "None", "youtube": "None", "website": "None", "summary": "None", "logo": "None", "latitude": 52.10586944845013, "longitude": -106.57601836760647}, "118978451RR0001": {"name": "KELLEY-LENSEN FUND", "designationCode": "B", "categoryCode": "11", "address": "#204-321A-21ST STREET EAST", "city": "SASKATOON", "province": "SK", "country": "CA", "postalCode": "S7K0C1", "twitter": "None", "instagram": "None", "facebook": "None", "youtube": "None", "website": "None", "summary": "None", "logo": "None", "latitude": 52.12673100000002, "longitude": -106.66199474999999}, "841968670RR0001": {"name": "KELLIGREWS ECOLOGICAL ENHANCEMENT PROGRAM INC.", "designationCode": "C", "categoryCode": "59", "address": "P. O. BOX 17173", "city": "KELLIGREWS", "province": "NL", "country": "CA", "postalCode": "A1X3A1", "twitter": "None", "instagram": "None", "facebook": "None", "youtube": "None", "website": "None", "summary": "None", "logo": "None", "latitude": 47.488230000000044, "longitude": -53.02352999999994}, "140375155RR0001": {"name": "KELLIHER & DISTRICT HERITAGE MUSEUM INC.", "designationCode": "C", "categoryCode": "50", "address": "PO BOX 111", "city": "KELLIHER", "province": "SK", "country": "CA", "postalCode": "S0A1V0", "twitter": "None", "instagram": "None", "facebook": "None", "youtube": "None", "website": "None", "summary": "None", "logo": "None", "latitude": 51.26209000000006, "longitude": -103.73799999999994}, "107561474RR0001": {"name": "KELLIHER PASTORAL CHARGE", "designationCode": "C", "categoryCode": "44", "address": "P. O. BOX 368", "city": "KELLIHER", "province": "SK", "country": "CA", "postalCode": "S0A1V0", "twitter": "None", "instagram": "None", "facebook": "None", "youtube": "None", "website": "None", "summary": "None", "logo": "None", "latitude": 51.26209000000006, "longitude": -103.73799999999994}, "898837349RR0001": {"name": "KELLY AND WILDA CARLSON SCHOLARSHIP", "designationCode": "B", "categoryCode": "25", "address": "POST OFFICE BOX 214", "city": "ERICKSON", "province": "MB", "country": "CA", "postalCode": "R0J0P0", "twitter": "None", "instagram": "None", "facebook": "None", "youtube": "None", "website": "None", "summary": "None", "logo": "None", "latitude": 50.49852000000004, "longitude": -99.90785999999997}, "118855691RR0001": {"name": "KELLY CREEK COMMUNITY CHURCH", "designationCode": "C", "categoryCode": "39", "address": "2380 ZILLINSKY ROAD", "city": "POWELL RIVER", "province": "BC", "country": "CA", "postalCode": "V8A0N8", "twitter": "None", "instagram": "None", "facebook": "None", "youtube": "None", "website": "None", "summary": "None", "logo": "None", "latitude": 49.778765437976496, "longitude": -124.37544930273548}, "107561532RR0001": {"name": "KELLY CREEK COMMUNITY SCHOOL ASSOCIATION", "designationCode": "C", "categoryCode": "21", "address": "2341 ZILINSKY RD", "city": "POWELL RIVER", "province": "BC", "country": "CA", "postalCode": "V8A0N8", "twitter": "None", "instagram": "None", "facebook": "None", "youtube": "None", "website": "None", "summary": "None", "logo": "None", "latitude": 49.77653652783064, "longitude": -124.37467136892043}, "118978519RR0001": {"name": "KELLY ROAD GOSPEL CHAPEL", "designationCode": "C", "categoryCode": "39", "address": "7046 S KELLY RD", "city": "PRINCE GEOGE", "province": "BC", "country": "CA", "postalCode": "V2K2G9", "twitter": "None", "instagram": "None", "facebook": "None", "youtube": "None", "website": "None", "summary": "None", "logo": "None", "latitude": 53.99371547956361, "longitude": -122.8011132608243}, "118978683RR0001": {"name": "KELOWNA & DISTRICT S.H.A.R.E. SOCIETY", "designationCode": "C", "categoryCode": "59", "address": "581 GASTON AVE", "city": "KELOWNA", "province": "BC", "country": "CA", "postalCode": "V1Y7E6", "twitter": "None", "instagram": "None", "facebook": "None", "youtube": "None", "website": "None", "summary": "None", "logo": "None", "latitude": 49.895408538952346, "longitude": -119.490723}, "880921614RR0001": {"name": "KELOWNA AND DISTRICT GENEALOGICAL SOCIETY", "designationCode": "C", "categoryCode": "50", "address": "994 TRONSON DRIVE", "city": "KELOWNA", "province": "BC", "country": "CA", "postalCode": "V1Y4E1", "twitter": "None", "instagram": "None", "facebook": "None", "youtube": "None", "website": "None", "summary": "None", "logo": "None", "latitude": 49.897818, "longitude": -119.46222984606752}, "107561730RR0001": {"name": "KELOWNA ART GALLERY ASSOCIATION", "designationCode": "C", "categoryCode": "50", "address": "1315 WATER ST", "city": "KELOWNA", "province": "BC", "country": "CA", "postalCode": "V1Y9R3", "twitter": "None", "instagram": "None", "facebook": "None", "youtube": "None", "website": "None", "summary": "None", "logo": "None", "latitude": 49.89119748305441, "longitude": -119.49657169775978}, "855746244RR0001": {"name": "KELOWNA BALLET SOCIETY", "designationCode": "C", "categoryCode": "22", "address": "2283 LECKIE RD", "city": "KELOWNA", "province": "BC", "country": "CA", "postalCode": "V1X6Y5", "twitter": "None", "instagram": "None", "facebook": "None", "youtube": "None", "website": "None", "summary": "None", "logo": "None", "latitude": 49.88556848802876, "longitude": -119.43616959512381}, "118978592RR0001": {"name": "KELOWNA BIBLE CHAPEL", "designationCode": "C", "categoryCode": "39", "address": "1423 VINELAND ST.", "city": "KELOWNA", "province": "BC", "country": "CA", "postalCode": "V1Y7R9", "twitter": "None", "instagram": "None", "facebook": "None", "youtube": "None", "website": "None", "summary": "None", "logo": "None", "latitude": 49.888026649460436, "longitude": -119.45890005698574}, "132024043RR0001": {"name": "KELOWNA BUDDHIST SOCIETY,", "designationCode": "C", "categoryCode": "35", "address": "PO BOX 22092 RPO CAPRI CTRE", "city": "KELOWNA", "province": "BC", "country": "CA", "postalCode": "V1Y9N9", "twitter": "None", "instagram": "None", "facebook": "None", "youtube": "None", "website": "None", "summary": "None", "logo": "None", "latitude": 49.88175774996267, "longitude": -119.473641}, "129921177RR0001": {"name": "KELOWNA CHILD CARE SOCIETY", "designationCode": "C", "categoryCode": "01", "address": "1890 AMBROSI ROAD             UNIT 4", "city": "KELOWNA", "province": "BC", "country": "CA", "postalCode": "V1Y4R9", "twitter": "None", "instagram": "None", "facebook": "None", "youtube": "None", "website": "None", "summary": "None", "logo": "None", "latitude": 49.879673999999994, "longitude": -119.4498466211839}, "118978634RR0001": {"name": "KELOWNA CHRISTIAN CENTER SOCIETY", "designationCode": "C", "categoryCode": "47", "address": "905 BADKE ROAD", "city": "KELOWNA", "province": "BC", "country": "CA", "postalCode": "V1X5Z5", "twitter": "None", "instagram": "None", "facebook": "None", "youtube": "None", "website": "None", "summary": "None", "logo": "None", "latitude": 49.89079076349035, "longitude": -119.40420241912182}, "107561805RR0001": {"name": "KELOWNA CHRISTIAN REFORMED CHURCH", "designationCode": "C", "categoryCode": "39", "address": "239 SNOWSELL ST", "city": "KELOWNA", "province": "BC", "country": "CA", "postalCode": "V1V2E4", "twitter": "None", "instagram": "None", "facebook": "None", "youtube": "None", "website": "None", "summary": "None", "logo": "None", "latitude": 49.92326402900084, "longitude": -119.44211270121839}, "118978808RR0001": {"name": "KELOWNA COMMUNITY MUSIC SCHOOL SOCIETY", "designationCode": "C", "categoryCode": "22", "address": "728 DEHART AVE", "city": "KELOWNA", "province": "BC", "country": "CA", "postalCode": "V1Y6A1", "twitter": "None", "instagram": "None", "facebook": "None", "youtube": "None", "website": "None", "summary": "None", "logo": "None", "latitude": 49.88174152596791, "longitude": -119.48776191618097}, "118880665RR0001": {"name": "KELOWNA COMMUNITY RESOURCES SOCIETY", "designationCode": "C", "categoryCode": "09", "address": "620 LEON AVE", "city": "KELOWNA", "province": "BC", "country": "CA", "postalCode": "V1Y9T2", "twitter": "None", "instagram": "None", "facebook": "None", "youtube": "None", "website": "None", "summary": "None", "logo": "None", "latitude": 49.8845255115412, "longitude": -119.48953066763806}, "132351107RR0001": {"name": "KELOWNA FAMILY SERVICE CENTRE SOCIETY", "designationCode": "C", "categoryCode": "09", "address": "204-347 LEON AVE", "city": "KELOWNA", "province": "BC", "country": "CA", "postalCode": "V1Y8C7", "twitter": "None", "instagram": "None", "facebook": "None", "youtube": "None", "website": "None", "summary": "None", "logo": "None", "latitude": 49.88451047013695, "longitude": -119.49592113918865}, "869795807RR0001": {"name": "KELOWNA FLIGHTCRAFT CHARITABLE FOUNDATION", "designationCode": "B", "categoryCode": "03", "address": "500-1620 DICKSON AVENUE", "city": "KELOWNA", "province": "BC", "country": "CA", "postalCode": "V1Y9Y2", "twitter": "None", "instagram": "None", "facebook": "None", "youtube": "None", "website": "None", "summary": "None", "logo": "None", "latitude": 49.880640397075474, "longitude": -119.4625129012528}, "889651048RR0001": {"name": "KELOWNA FRIENDS OF THE LIBRARY", "designationCode": "A", "categoryCode": "53", "address": "P.O. BOX 20165 TCM", "city": "KELOWNA", "province": "BC", "country": "CA", "postalCode": "V1Y9H2", "twitter": "None", "instagram": "None", "facebook": "None", "youtube": "None", "website": "None", "summary": "None", "logo": "None", "latitude": 49.88697900000005, "longitude": -119.49661249999994}, "875018905RR0001": {"name": "KELOWNA FULL GOSPEL CHURCH SOCIETY", "designationCode": "C", "categoryCode": "39", "address": "2100 GORDON DR", "city": "KELOWNA", "province": "BC", "country": "CA", "postalCode": "V1Y3J3", "twitter": "None", "instagram": "None", "facebook": "None", "youtube": "None", "website": "None", "summary": "None", "logo": "None", "latitude": 49.87536872056713, "longitude": -119.47715427943288}, "118978733RR0001": {"name": "KELOWNA GENERAL HOSPITAL FOUNDATION", "designationCode": "A", "categoryCode": "13", "address": "2268 PANDOSY ST", "city": "KELOWNA", "province": "BC", "country": "CA", "postalCode": "V1Y1T2", "twitter": "None", "instagram": "None", "facebook": "None", "youtube": "None", "website": "None", "summary": "None", "logo": "None", "latitude": 49.87334055514528, "longitude": -119.4912977794513}, "107562035RR0001": {"name": "KELOWNA GOSPEL FELLOWSHIP CHURCH", "designationCode": "C", "categoryCode": "34", "address": "3714 GORDON DR", "city": "KELOWNA", "province": "BC", "country": "CA", "postalCode": "V1W4M8", "twitter": "None", "instagram": "None", "facebook": "None", "youtube": "None", "website": "None", "summary": "None", "logo": "None", "latitude": 49.849851603121856, "longitude": -119.47733995397853}, "107562043RR0001": {"name": "KELOWNA GOSPEL MISSION SOCIETY", "designationCode": "C", "categoryCode": "39", "address": "PO BOX 22087 CAPRI PO", "city": "KELOWNA", "province": "BC", "country": "CA", "postalCode": "V1Y9N9", "twitter": "None", "instagram": "None", "facebook": "None", "youtube": "None", "website": "None", "summary": "None", "logo": "None", "latitude": 49.88175774996267, "longitude": -119.473641}, "894351246RR0001": {"name": "KELOWNA JAPANESE CANADIAN COMMUNITY SENIOR CITIZEN SOCIETY", "designationCode": "C", "categoryCode": "01", "address": "1920 BURTCH RD", "city": "KELOWNA", "province": "BC", "country": "CA", "postalCode": "V1Y4B2", "twitter": "None", "instagram": "None", "facebook": "None", "youtube": "None", "website": "None", "summary": "None", "logo": "None", "latitude": 49.87961958090486, "longitude": -119.46586614065961}, "867395733RR0001": {"name": "KELOWNA KOREAN PRESBYTERIAN CHURCH", "designationCode": "C", "categoryCode": "39", "address": "1580 BERNARD AVENUE", "city": "KELOWNA", "province": "BC", "country": "CA", "postalCode": "V1Y6R9", "twitter": "None", "instagram": "None", "facebook": "None", "youtube": "None", "website": "None", "summary": "None", "logo": "None", "latitude": 49.88630046047076, "longitude": -119.46386245322873}, "118978626RR0001": {"name": "KELOWNA MUSEUMS SOCIETY", "designationCode": "C", "categoryCode": "50", "address": "470 QUEENSWAY AVE", "city": "KELOWNA", "province": "BC", "country": "CA", "postalCode": "V1Y6S7", "twitter": "None", "instagram": "None", "facebook": "None", "youtube": "None", "website": "None", "summary": "None", "logo": "None", "latitude": 49.88741265458223, "longitude": -119.49401513767809}, "139342869RR0001": {"name": "KELOWNA NORDIC SKI CLUB", "designationCode": "C", "categoryCode": "56", "address": "PO BOX 22089 CAPRI PO", "city": "KELOWNA", "province": "BC", "country": "CA", "postalCode": "V1Y9N9", "twitter": "None", "instagram": "None", "facebook": "None", "youtube": "None", "website": "None", "summary": "None", "logo": "None", "latitude": 49.88175774996267, "longitude": -119.473641}, "864459342RR0001": {"name": "KELOWNA PROFESSIONAL FIREFIGHTERS CHARITABLE SOCIETY", "designationCode": "A", "categoryCode": "03", "address": "1616 WATER STREET", "city": "KELOWNA", "province": "BC", "country": "CA", "postalCode": "V1Y1J9", "twitter": "None", "instagram": "None", "facebook": "None", "youtube": "None", "website": "None", "summary": "None", "logo": "None", "latitude": 49.88514599999999, "longitude": -119.49666362507904}, "118978865RR0001": {"name": "KELOWNA RIGHT TO LIFE SOCIETY", "designationCode": "C", "categoryCode": "09", "address": "212 1821 HARVEY AVE", "city": "KELOWNA", "province": "BC", "country": "CA", "postalCode": "V1Y6G4", "twitter": "None", "instagram": "None", "facebook": "None", "youtube": "None", "website": "None", "summary": "None", "logo": "None", "latitude": 49.88179935537254, "longitude": -119.45628157231373}, "118818491RR0081": {"name": "KELOWNA SEVENTH-DAY ADVENTIST CHURCH", "designationCode": "C", "categoryCode": "41", "address": "PO 1000", "city": "ABBOTSFORD", "province": "BC", "country": "CA", "postalCode": "V2S4P5", "twitter": "None", "instagram": "None", "facebook": "None", "youtube": "None", "website": "None", "summary": "None", "logo": "None", "latitude": 49.03851300000005, "longitude": -122.29441549999993}, "118978881RR0001": {"name": "KELOWNA SOCIETY FOR CHRISTIAN EDUCATION", "designationCode": "C", "categoryCode": "20", "address": "2870 BENVOULIN RD", "city": "KELOWNA", "province": "BC", "country": "CA", "postalCode": "V1W2E3", "twitter": "None", "instagram": "None", "facebook": "None", "youtube": "None", "website": "None", "summary": "None", "logo": "None", "latitude": 49.86309281937336, "longitude": -119.45416932869631}, "129288957RR0001": {"name": "KELOWNA TRINITY BAPTIST CHURCH", "designationCode": "C", "categoryCode": "31", "address": "1905 SPRINGFIELD RD", "city": "KELOWNA", "province": "BC", "country": "CA", "postalCode": "V1Y7V7", "twitter": "None", "instagram": "None", "facebook": "None", "youtube": "None", "website": "None", "summary": "None", "logo": "None", "latitude": 49.87720153895233, "longitude": -119.45394229961335}, "854013968RR0001": {"name": "KELOWNA TRINITY BAPTIST CHURCH LEGACY FOUNDATION", "designationCode": "C", "categoryCode": "39", "address": "1905 SPRINGFIELD ROAD.", "city": "KELOWNA", "province": "BC", "country": "CA", "postalCode": "V1Y7V7", "twitter": "None", "instagram": "None", "facebook": "None", "youtube": "None", "website": "None", "summary": "None", "logo": "None", "latitude": 49.87720153895233, "longitude": -119.45394229961335}, "131467748RR0001": {"name": "KELOWNA VICTORY LIFE FELLOWSHIP, INC", "designationCode": "C", "categoryCode": "39", "address": "259 VALLEY RD", "city": "KELOWNA", "province": "BC", "country": "CA", "postalCode": "V1V2G2", "twitter": "None", "instagram": "None", "facebook": "None", "youtube": "None", "website": "None", "summary": "None", "logo": "None", "latitude": 49.918034887284364, "longitude": -119.43561739587864}, "848283545RR0001": {"name": "KELOWNA VINEYARD CHURCH", "designationCode": "C", "categoryCode": "49", "address": "BOX 21133                     ORCHARD PARK POST OFFICE", "city": "KELOWNA", "province": "BC", "country": "CA", "postalCode": "V1Y9N8", "twitter": "None", "instagram": "None", "facebook": "None", "youtube": "None", "website": "None", "summary": "None", "logo": "None", "latitude": 49.881860000000074, "longitude": -119.45378999999997}, "889492666RR0001": {"name": "KELOWNA VISUAL AND PERFORMING ARTS CENTRE SOCIETY", "designationCode": "C", "categoryCode": "22", "address": "421 CAWSTON AVENUE", "city": "KELOWNA", "province": "BC", "country": "CA", "postalCode": "V1Y6Z1", "twitter": "None", "instagram": "None", "facebook": "None", "youtube": "None", "website": "None", "summary": "None", "logo": "None", "latitude": 49.89161930288052, "longitude": -119.4948243998956}, "867373672RR0001": {"name": "KELSEY CONSERVATION DISTRICT", "designationCode": "C", "categoryCode": "52", "address": "BOX 1860", "city": "THE PAS", "province": "MB", "country": "CA", "postalCode": "R9A1L6", "twitter": "None", "instagram": "None", "facebook": "None", "youtube": "None", "website": "None", "summary": "None", "logo": "None", "latitude": 53.81342700000006, "longitude": -101.25038149999993}, "118897255RR0001": {"name": "KELSTERN COMMUNITY CHURCH INC.", "designationCode": "C", "categoryCode": "34", "address": "BOX 114", "city": "HODGEVILLE", "province": "SK", "country": "CA", "postalCode": "S0H2B0", "twitter": "None", "instagram": "None", "facebook": "None", "youtube": "None", "website": "None", "summary": "None", "logo": "None", "latitude": 50.109860000000026, "longitude": -106.96109999999999}, "119209260RR0001": {"name": "KELVIN, TEETERVILLE, VANESSA (KTV) UNITED CHURCH", "designationCode": "C", "categoryCode": "44", "address": "RR 3                          910 TOWNLINE ROAD", "city": "SCOTLAND", "province": "ON", "country": "CA", "postalCode": "N0E1R0", "twitter": "None", "instagram": "None", "facebook": "None", "youtube": "None", "website": "None", "summary": "None", "logo": "None", "latitude": 43.04510700000006, "longitude": -80.33617699999994}, "118978949RR0001": {"name": "KELVINGTON AGRICULTURAL SOCIETY", "designationCode": "A", "categoryCode": "56", "address": "BOX 771", "city": "KELVINGTON", "province": "SK", "country": "CA", "postalCode": "S0A1W0", "twitter": "None", "instagram": "None", "facebook": "None", "youtube": "None", "website": "None", "summary": "None", "logo": "None", "latitude": 50.942659313471935, "longitude": -102.0486202158667}, "140696014RR0001": {"name": "KELVINGTON SENIORS CLUB INC", "designationCode": "C", "categoryCode": "09", "address": "BOX 1024", "city": "KELVINGTON", "province": "SK", "country": "CA", "postalCode": "S0A1W0", "twitter": "None", "instagram": "None", "facebook": "None", "youtube": "None", "website": "None", "summary": "None", "logo": "None", "latitude": 50.942659313471935, "longitude": -102.0486202158667}, "892639600RR0001": {"name": "KELWOOD AGRICULTURAL SOCIETY", "designationCode": "C", "categoryCode": "52", "address": "BOX 52", "city": "KELWOOD", "province": "MB", "country": "CA", "postalCode": "R0J0Y0", "twitter": "None", "instagram": "None", "facebook": "None", "youtube": "None", "website": "None", "summary": "None", "logo": "None", "latitude": 50.624870000000044, "longitude": -99.46165999999994}, "859111726RR0001": {"name": "KELWOOD AND AREA SKATING RINK", "designationCode": "C", "categoryCode": "56", "address": "BOX 144", "city": "KELWOOD", "province": "MB", "country": "CA", "postalCode": "R0J0Y0", "twitter": "None", "instagram": "None", "facebook": "None", "youtube": "None", "website": "None", "summary": "None", "logo": "None", "latitude": 50.624870000000044, "longitude": -99.46165999999994}, "118979004RR0001": {"name": "KELWOOD DROP IN CENTRE", "designationCode": "C", "categoryCode": "56", "address": "BOX 102", "city": "KELWOOD", "province": "MB", "country": "CA", "postalCode": "R0J0Y0", "twitter": "None", "instagram": "None", "facebook": "None", "youtube": "None", "website": "None", "summary": "None", "logo": "None", "latitude": 50.624870000000044, "longitude": -99.46165999999994}, "119288918RR0465": {"name": "KELWOOD MANITOBA CONGREGATION OF JEHOVAH'S WITNESSES", "designationCode": "C", "categoryCode": "61", "address": "PO BOX 101", "city": "RIDING MOUNTAIN", "province": "MB", "country": "CA", "postalCode": "R0J1T0", "twitter": "None", "instagram": "None", "facebook": "None", "youtube": "None", "website": "None", "summary": "None", "logo": "None", "latitude": 50.531930000000045, "longitude": -99.46731999999997}, "118979020RR0001": {"name": "KELWOOD-MCCREARY PASTORAL CHARGE", "designationCode": "C", "categoryCode": "44", "address": "BOX 63", "city": "MCCREARY", "province": "MB", "country": "CA", "postalCode": "R0J1B0", "twitter": "None", "instagram": "None", "facebook": "None", "youtube": "None", "website": "None", "summary": "None", "logo": "None", "latitude": 50.772380000000055, "longitude": -99.49212999999997}, "118979038RR0001": {"name": "KEMBLE PASTORAL CHARGE", "designationCode": "C", "categoryCode": "44", "address": "424013 TAYLOR SIDEROAD", "city": "KEMBLE", "province": "ON", "country": "CA", "postalCode": "N0H1S0", "twitter": "None", "instagram": "None", "facebook": "None", "youtube": "None", "website": "None", "summary": "None", "logo": "None", "latitude": 44.733274361556916, "longitude": -80.95762508338399}, "895620524RR0001": {"name": "KEMPENFELT BAY SCHOOL", "designationCode": "C", "categoryCode": "20", "address": "2145 INNISFIL BEACH RD", "city": "INNISFIL", "province": "ON", "country": "CA", "postalCode": "L9S4B9", "twitter": "None", "instagram": "None", "facebook": "None", "youtube": "None", "website": "None", "summary": "None", "logo": "None", "latitude": 44.3005858990492, "longitude": -79.61057843615465}, "119288918RR1199": {"name": "KEMPENFELT CONGREGATION OF JEHOVAH'S WITNESSES, BARRIE, ONTARIO", "designationCode": "C", "categoryCode": "61", "address": "115 FERRIS LANE", "city": "BARRIE", "province": "ON", "country": "CA", "postalCode": "L4M2Y1", "twitter": "None", "instagram": "None", "facebook": "None", "youtube": "None", "website": "None", "summary": "None", "logo": "None", "latitude": 44.4068773277743, "longitude": -79.69242296251956}, "118979079RR0001": {"name": "KEMPT ROAD CEMETERY", "designationCode": "A", "categoryCode": "59", "address": "PO BOX 42", "city": "CLEVELAND", "province": "NS", "country": "CA", "postalCode": "B0E1J0", "twitter": "None", "instagram": "None", "facebook": "None", "youtube": "None", "website": "None", "summary": "None", "logo": "None", "latitude": 45.66811000000007, "longitude": -61.23210999999998}, "118979095RR0001": {"name": "KEMPT UNITED BAPTIST CHURCH", "designationCode": "C", "categoryCode": "31", "address": "20 MUSGRAVE ROAD", "city": "SUMMERVILLE", "province": "NS", "country": "CA", "postalCode": "B0N2K0", "twitter": "None", "instagram": "None", "facebook": "None", "youtube": "None", "website": "None", "summary": "None", "logo": "None", "latitude": 45.09747268495033, "longitude": -64.1698451673496}, "118979103RR0001": {"name": "KEMPT UNITED BAPTIST CHURCH", "designationCode": "C", "categoryCode": "31", "address": "RR#2 CALEDONIA KEMPT", "city": "QUEENS CO", "province": "NS", "country": "CA", "postalCode": "B0T1B0", "twitter": "None", "instagram": "None", "facebook": "None", "youtube": "None", "website": "None", "summary": "None", "logo": "None", "latitude": 44.3658188498631, "longitude": -65.07745621956198}, "118979061RR0001": {"name": "KEMPTOWN UNITED CHURCH CEMETERY SOCIETY", "designationCode": "C", "categoryCode": "59", "address": "72 HAZEL DRIVE", "city": "TRURO", "province": "NS", "country": "CA", "postalCode": "B2N7A3", "twitter": "None", "instagram": "None", "facebook": "None", "youtube": "None", "website": "None", "summary": "None", "logo": "None", "latitude": 45.38273233498768, "longitude": -63.24695372548918}, "118979111RR0001": {"name": "KEMPTVILLE AND DISTRICT HOME SUPPORT INC.", "designationCode": "C", "categoryCode": "59", "address": "215 SANDERS ST.               P.O. BOX 1192, SUITE 101", "city": "KEMPVILLE", "province": "ON", "country": "CA", "postalCode": "K0G1J0", "twitter": "None", "instagram": "None", "facebook": "None", "youtube": "None", "website": "None", "summary": "None", "logo": "None", "latitude": 45.01820869372581, "longitude": -75.64770095609107}, "121270599RR0001": {"name": "KEMPTVILLE AREA FAMILY RESOURCE CENTRE", "designationCode": "C", "categoryCode": "01", "address": "BOX 1810", "city": "KEMPTVILLE", "province": "ON", "country": "CA", "postalCode": "K0G1J0", "twitter": "None", "instagram": "None", "facebook": "None", "youtube": "None", "website": "None", "summary": "None", "logo": "None", "latitude": 44.98774800000005, "longitude": -75.69332899999993}, "896670320RR0001": {"name": "KEMPTVILLE COLLEGE FOUNDATION", "designationCode": "A", "categoryCode": "23", "address": "1568 MERIVALE ROAD, UNIT 257", "city": "OTTAWA", "province": "ON", "country": "CA", "postalCode": "K2G5Y7", "twitter": "None", "instagram": "None", "facebook": "None", "youtube": "None", "website": "None", "summary": "None", "logo": "None", "latitude": 45.351826408534926, "longitude": -75.73418209608137}, "107562514RR0001": {"name": "KEMPTVILLE DISTRICT HOSPITAL", "designationCode": "C", "categoryCode": "10", "address": "PO BG 2007 CONCESSION RD", "city": "KEMPTVILLE", "province": "ON", "country": "CA", "postalCode": "K0G1J0", "twitter": "None", "instagram": "None", "facebook": "None", "youtube": "None", "website": "None", "summary": "None", "logo": "None", "latitude": 45.00475515524794, "longitude": -75.65029131986391}, "118979145RR0001": {"name": "KEMPTVILLE DISTRICT HOSPITAL AUXILIARY", "designationCode": "C", "categoryCode": "19", "address": "PO BOX 2007", "city": "KEMPTVILLE", "province": "ON", "country": "CA", "postalCode": "K0G1J0", "twitter": "None", "instagram": "None", "facebook": "None", "youtube": "None", "website": "None", "summary": "None", "logo": "None", "latitude": 44.98774800000005, "longitude": -75.69332899999993}, "118979152RR0001": {"name": "KEMPTVILLE DISTRICT HOSPITAL FOUNDATION", "designationCode": "A", "categoryCode": "13", "address": "BOX 2007", "city": "KEMPTVILLE", "province": "ON", "country": "CA", "postalCode": "K0G1J0", "twitter": "None", "instagram": "None", "facebook": "None", "youtube": "None", "website": "None", "summary": "None", "logo": "None", "latitude": 44.98774800000005, "longitude": -75.69332899999993}, "118979178RR0001": {"name": "KEMPTVILLE DISTRICT VOLUNTEER FIRE DEPARTMENT", "designationCode": "C", "categoryCode": "59", "address": "3597 HIGHWAY 203", "city": "EAST KEMPTVILLE", "province": "NS", "country": "CA", "postalCode": "B5A5P5", "twitter": "None", "instagram": "None", "facebook": "None", "youtube": "None", "website": "None", "summary": "None", "logo": "None", "latitude": 44.08513293626448, "longitude": -65.76855211163162}, "118979194RR0001": {"name": "KEMPTVILLE HORTICULTURAL SOCIETY", "designationCode": "C", "categoryCode": "52", "address": "P.O. BOX 451", "city": "KEMPTVILLE", "province": "ON", "country": "CA", "postalCode": "K0G1J0", "twitter": "None", "instagram": "None", "facebook": "None", "youtube": "None", "website": "None", "summary": "None", "logo": "None", "latitude": 44.98774800000005, "longitude": -75.69332899999993}, "878986421RR0001": {"name": "KEMPTVILLE PENTECOSTAL TABERNACLE", "designationCode": "C", "categoryCode": "36", "address": "1964 COUNTY ROAD 43", "city": "KEMPTVILLE", "province": "ON", "country": "CA", "postalCode": "K0G1J0", "twitter": "None", "instagram": "None", "facebook": "None", "youtube": "None", "website": "None", "summary": "None", "logo": "None", "latitude": 45.00026133783455, "longitude": -75.693310445381}, "118979236RR0001": {"name": "KEMPTVILLE RECREATION COMMISSION", "designationCode": "C", "categoryCode": "56", "address": "2206, HWY 203", "city": "KEMPTVILLE", "province": "NS", "country": "CA", "postalCode": "B5A5P4", "twitter": "None", "instagram": "None", "facebook": "None", "youtube": "None", "website": "None", "summary": "None", "logo": "None", "latitude": 44.0469884164937, "longitude": -65.83469241491981}, "107562563RR0001": {"name": "KEMPTVILLE UNITED BAPTIST CHURCH", "designationCode": "C", "categoryCode": "31", "address": "16 NORTH KEMPTVILLE RD", "city": "KEMPTVILLE", "province": "NS", "country": "CA", "postalCode": "B5A5P2", "twitter": "None", "instagram": "None", "facebook": "None", "youtube": "None", "website": "None", "summary": "None", "logo": "None", "latitude": 44.04646683680533, "longitude": -65.83541949151723}, "888300290RR0001": {"name": "KEMPTVILLE YOUTH CENTRE", "designationCode": "C", "categoryCode": "09", "address": "5 OXFORD STREET WEST          PO BOX 1124", "city": "KEMPTVILLE", "province": "ON", "country": "CA", "postalCode": "K0G1J0", "twitter": "None", "instagram": "None", "facebook": "None", "youtube": "None", "website": "None", "summary": "None", "logo": "None", "latitude": 45.016797173206655, "longitude": -75.64896000294284}, "861560175RR0001": {"name": "KEN AND TERESA SARGENT FAMILY CHARITABLE FOUNDATION", "designationCode": "B", "categoryCode": "03", "address": "705 HIGHFIELD PLACE           10010 - 106 STREET", "city": "EDMONTON", "province": "AB", "country": "CA", "postalCode": "T5J3L8", "twitter": "None", "instagram": "None", "facebook": "None", "youtube": "None", "website": "None", "summary": "None", "logo": "None", "latitude": 53.53914536081135, "longitude": -113.50298770376219}, "896305315RR0001": {"name": "KEN BROWN RECOVERY HOME FOUNDATION", "designationCode": "A", "categoryCode": "03", "address": "8 HERRICK STREET", "city": "SAULT STE. MARIE", "province": "ON", "country": "CA", "postalCode": "P6A2T4", "twitter": "None", "instagram": "None", "facebook": "None", "youtube": "None", "website": "None", "summary": "None", "logo": "None", "latitude": 46.508031585636694, "longitude": -84.32450402885344}, "118979251RR0001": {"name": "KENABEEK COMMUNITY SOCIETY", "designationCode": "C", "categoryCode": "56", "address": "RR#1", "city": "KENABEEK", "province": "ON", "country": "CA", "postalCode": "P0J1M0", "twitter": "None", "instagram": "None", "facebook": "None", "youtube": "None", "website": "None", "summary": "None", "logo": "None", "latitude": 47.63859000000008, "longitude": -80.07116999999994}, "895280329RR0001": {"name": "KENABEEK CONSERVATIVE MENNONITE CHURCH", "designationCode": "C", "categoryCode": "34", "address": "RR#2", "city": "KENABEEK", "province": "ON", "country": "CA", "postalCode": "P0J1M0", "twitter": "None", "instagram": "None", "facebook": "None", "youtube": "None", "website": "None", "summary": "None", "logo": "None", "latitude": 47.63859000000008, "longitude": -80.07116999999994}, "890690142RR0001": {"name": "KENAMATEWIN NATIVE LEARNING CENTRE", "designationCode": "C", "categoryCode": "21", "address": "BOX 10003 HARBOUR PO", "city": "KENORA", "province": "ON", "country": "CA", "postalCode": "P9N4T1", "twitter": "None", "instagram": "None", "facebook": "None", "youtube": "None", "website": "None", "summary": "None", "logo": "None", "latitude": 49.77125700000006, "longitude": -94.48912249999994}, "118979269RR0001": {"name": "KENASTON AND DISTRICT PUBLIC CEMETERY SOCIETY", "designationCode": "C", "categoryCode": "59", "address": "BOX 26", "city": "KENASTON", "province": "SK", "country": "CA", "postalCode": "S0G2N0", "twitter": "None", "instagram": "None", "facebook": "None", "youtube": "None", "website": "None", "summary": "None", "logo": "None", "latitude": 51.50007000000005, "longitude": -106.28451999999999}, "118903236RR0001": {"name": "KENASTON EVANGELICAL MISSIONARY CHURCH", "designationCode": "C", "categoryCode": "39", "address": "TREASURER                     BOX 271", "city": "KENASTON", "province": "SK", "country": "CA", "postalCode": "S0G2N0", "twitter": "None", "instagram": "None", "facebook": "None", "youtube": "None", "website": "None", "summary": "None", "logo": "None", "latitude": 51.50007000000005, "longitude": -106.28451999999999}, "130304611RR0001": {"name": "KENASTON SENIORS INC.", "designationCode": "C", "categoryCode": "09", "address": "PO BOX 361", "city": "KENASTON", "province": "SK", "country": "CA", "postalCode": "S0G2N0", "twitter": "None", "instagram": "None", "facebook": "None", "youtube": "None", "website": "None", "summary": "None", "logo": "None", "latitude": 51.50007000000005, "longitude": -106.28451999999999}, "875694200RR0001": {"name": "KENDAL UNITED CHURCH", "designationCode": "C", "categoryCode": "44", "address": "21 KENDAL CHURCH STREET", "city": "KENDAL", "province": "ON", "country": "CA", "postalCode": "L0A1E0", "twitter": "None", "instagram": "None", "facebook": "None", "youtube": "None", "website": "None", "summary": "None", "logo": "None", "latitude": 44.028942395630324, "longitude": -78.53633671820748}, "139298442RR0001": {"name": "KENDALL LANE HOUSING SOCIETY", "designationCode": "C", "categoryCode": "01", "address": "PO BOX 556", "city": "WINDSOR", "province": "NS", "country": "CA", "postalCode": "B0N2T0", "twitter": "None", "instagram": "None", "facebook": "None", "youtube": "None", "website": "None", "summary": "None", "logo": "None", "latitude": 44.990170000000035, "longitude": -64.12904999999995}, "119288918RR0771": {"name": "KENDALWOOD CONGREGATION OF JEHOVAH'S WITNESSES", "designationCode": "C", "categoryCode": "61", "address": "300 ATHOL ST", "city": "WHITBY", "province": "ON", "country": "CA", "postalCode": "L1N3Z4", "twitter": "None", "instagram": "None", "facebook": "None", "youtube": "None", "website": "None", "summary": "None", "logo": "None", "latitude": 43.878089043568636, "longitude": -78.93887302334218}, "107797383RR0100": {"name": "KENDALWOOD SEVENTH-DAY ADVENTIST CHURCH", "designationCode": "C", "categoryCode": "41", "address": "300 KENDALWOOD RD", "city": "WHITBY", "province": "ON", "country": "CA", "postalCode": "L1N2G3", "twitter": "None", "instagram": "None", "facebook": "None", "youtube": "None", "website": "None", "summary": "None", "logo": "None", "latitude": 43.8850570979573, "longitude": -78.90151205003123}, "886575018RR0001": {"name": "KENDRA MEIER FOUNDATION", "designationCode": "B", "categoryCode": "05", "address": "BOX 342", "city": "LEADER", "province": "SK", "country": "CA", "postalCode": "S0N1H0", "twitter": "None", "instagram": "None", "facebook": "None", "youtube": "None", "website": "None", "summary": "None", "logo": "None", "latitude": 50.883410000000026, "longitude": -109.55153999999999}, "118979301RR0001": {"name": "KENESSERIE CAMP INCORPORATED", "designationCode": "C", "categoryCode": "56", "address": "29938 JANE ROAD               BOX 36", "city": "THAMESVILLE", "province": "ON", "country": "CA", "postalCode": "N0P2K0", "twitter": "None", "instagram": "None", "facebook": "None", "youtube": "None", "website": "None", "summary": "None", "logo": "None", "latitude": 42.61101311265674, "longitude": -81.96278735239162}, "118979327RR0001": {"name": "KENILWORTH COMMUNITY LEAGUE", "designationCode": "C", "categoryCode": "56", "address": "7104 87 AVE NW", "city": "EDMONTON", "province": "AB", "country": "CA", "postalCode": "T6B3C2", "twitter": "None", "instagram": "None", "facebook": "None", "youtube": "None", "website": "None", "summary": "None", "logo": "None", "latitude": 53.52206251933147, "longitude": -113.4368415}, "118979343RR0001": {"name": "KENMUIR BAPTIST CHURCH", "designationCode": "C", "categoryCode": "31", "address": "1640 CARMEN DR", "city": "MISSISSAUGA", "province": "ON", "country": "CA", "postalCode": "L5G3Z1", "twitter": "None", "instagram": "None", "facebook": "None", "youtube": "None", "website": "None", "summary": "None", "logo": "None", "latitude": 43.575427605574696, "longitude": -79.59085793245403}, "897622841RR0001": {"name": "KENNEBEC SENIORS HOUSING INC.", "designationCode": "C", "categoryCode": "01", "address": "475 WOODWARD AV", "city": "SAINT JOHN", "province": "NB", "country": "CA", "postalCode": "E2K4N1", "twitter": "None", "instagram": "None", "facebook": "None", "youtube": "None", "website": "None", "summary": "None", "logo": "None", "latitude": 45.293877608921555, "longitude": -66.11031040882337}, "107563025RR0001": {"name": "KENNEBECASIS BAPTIST CHURCH INC.", "designationCode": "C", "categoryCode": "31", "address": "383 HAMPTON RD", "city": "QUISPAMSIS", "province": "NB", "country": "CA", "postalCode": "E2E4T8", "twitter": "None", "instagram": "None", "facebook": "None", "youtube": "None", "website": "None", "summary": "None", "logo": "None", "latitude": 45.42157071801602, "longitude": -65.95137416876324}, "118979368RR0001": {"name": "KENNEBECASIS PUBLIC LIBRARY INC.", "designationCode": "C", "categoryCode": "50", "address": "1 LANDING COURT", "city": "QUISPAMSIS", "province": "NB", "country": "CA", "postalCode": "E2E4R2", "twitter": "None", "instagram": "None", "facebook": "None", "youtube": "None", "website": "None", "summary": "None", "logo": "None", "latitude": 45.40789325422706, "longitude": -65.9662653706791}, "892303603RR0001": {"name": "KENNEBECASIS VALLEY - COMMUNITY - CAPACITY - CHILDREN INC.", "designationCode": "C", "categoryCode": "09", "address": "95 JAMES RENFORTH DRIVE", "city": "ROTHESAY", "province": "NB", "country": "CA", "postalCode": "E2H1K7", "twitter": "None", "instagram": "None", "facebook": "None", "youtube": "None", "website": "None", "summary": "None", "logo": "None", "latitude": 45.35526879739166, "longitude": -66.01398920664772}, "889043790RR0001": {"name": "KENNEBECASIS VALLEY HIGH SCHOOL ACTIVITIES COMMITTEE, INC.", "designationCode": "C", "categoryCode": "21", "address": "PO BOX 4813", "city": "ROTHESAY", "province": "NB", "country": "CA", "postalCode": "E2E5X5", "twitter": "None", "instagram": "None", "facebook": "None", "youtube": "None", "website": "None", "summary": "None", "logo": "None", "latitude": 45.380919929916686, "longitude": -65.99681338202436}, "885783530RR0001": {"name": "KENNEDY COMMUNITY HALL", "designationCode": "C", "categoryCode": "56", "address": "PO BOX 93", "city": "KENNEDY", "province": "SK", "country": "CA", "postalCode": "S0G2R0", "twitter": "None", "instagram": "None", "facebook": "None", "youtube": "None", "website": "None", "summary": "None", "logo": "None", "latitude": 50.013730000000066, "longitude": -102.35028999999997}, "118979400RR0001": {"name": "KENNEDY FRIENDSHIP CLUB INC.", "designationCode": "C", "categoryCode": "59", "address": "BOX 158", "city": "KENNEDY", "province": "SK", "country": "CA", "postalCode": "S0G2R0", "twitter": "None", "instagram": "None", "facebook": "None", "youtube": "None", "website": "None", "summary": "None", "logo": "None", "latitude": 50.013730000000066, "longitude": -102.35028999999997}, "118979418RR0001": {"name": "KENNEDY HOUSE SENIORS SOCIETY", "designationCode": "C", "categoryCode": "56", "address": "11760-88 AVE", "city": "DELTA", "province": "BC", "country": "CA", "postalCode": "V4C3C5", "twitter": "None", "instagram": "None", "facebook": "None", "youtube": "None", "website": "None", "summary": "None", "logo": "None", "latitude": 49.16312453987155, "longitude": -122.89689279663428}, "102807245RR0001": {"name": "KENNEDY HOUSE YOUTH SERVICES INC.", "designationCode": "C", "categoryCode": "01", "address": "404 - 10 MILNER BUSINESS CRT", "city": "SCARBOROUGH", "province": "ON", "country": "CA", "postalCode": "M1B3C6", "twitter": "None", "instagram": "None", "facebook": "None", "youtube": "None", "website": "None", "summary": "None", "logo": "None", "latitude": 43.78883270162739, "longitude": -79.23516587223698}, "107563058RR0001": {"name": "KENNEDY PASTORAL CHARGE", "designationCode": "C", "categoryCode": "44", "address": "BOX 113", "city": "LANGBANK", "province": "SK", "country": "CA", "postalCode": "S0G2X0", "twitter": "None", "instagram": "None", "facebook": "None", "youtube": "None", "website": "None", "summary": "None", "logo": "None", "latitude": 50.04884000000004, "longitude": -102.30207999999999}, "107563124RR0001": {"name": "KENNEDY RD. CHURCH OF THE NAZARENE", "designationCode": "C", "categoryCode": "39", "address": "661 KENNEDY RD", "city": "SCARBOROUGH", "province": "ON", "country": "CA", "postalCode": "M1K2B8", "twitter": "None", "instagram": "None", "facebook": "None", "youtube": "None", "website": "None", "summary": "None", "logo": "None", "latitude": 43.72552211102769, "longitude": -79.26508084217237}, "118979459RR0001": {"name": "KENNEDY ROAD TABERNACLE BENEVOLENT ASSOCIATION", "designationCode": "C", "categoryCode": "09", "address": "141 KENNEDY ROAD, NORTH", "city": "BRAMPTON", "province": "ON", "country": "CA", "postalCode": "L6V1X9", "twitter": "None", "instagram": "None", "facebook": "None", "youtube": "None", "website": "None", "summary": "None", "logo": "None", "latitude": 43.703405771827775, "longitude": -79.75990138014282}, "130973324RR0001": {"name": "KENNEDY ROAD TABERNACLE,", "designationCode": "C", "categoryCode": "36", "address": "141 KENNEDY ROAD, NORTH", "city": "BRAMPTON", "province": "ON", "country": "CA", "postalCode": "L6V1X9", "twitter": "None", "instagram": "None", "facebook": "None", "youtube": "None", "website": "None", "summary": "None", "logo": "None", "latitude": 43.703405771827775, "longitude": -79.75990138014282}, "891587065RR0001": {"name": "KENNER C V I FOUNDATION INC", "designationCode": "C", "categoryCode": "21", "address": "633 MONAGHAN RD", "city": "PETERBOROUGH", "province": "ON", "country": "CA", "postalCode": "K9J5J2", "twitter": "None", "instagram": "None", "facebook": "None", "youtube": "None", "website": "None", "summary": "None", "logo": "None", "latitude": 44.278022895506616, "longitude": -78.3261431738142}, "118979475RR0001": {"name": "KENNER COLLEGIATE W.R. SCOTT MEMORIAL SCHOLARSHIP TRUST", "designationCode": "C", "categoryCode": "21", "address": "1994 FISHER DR P.O. BOX 719   KAWARTHA PINE RIDGE DIS SCH BO", "city": "PETERBOROUGH", "province": "ON", "country": "CA", "postalCode": "K9J7A1", "twitter": "None", "instagram": "None", "facebook": "None", "youtube": "None", "website": "None", "summary": "None", "logo": "None", "latitude": 44.26026409074394, "longitude": -78.35251916965822}}