{"119293983RR0001": {"name": "International Apostolic Ministries", "designationCode": "C", "categoryCode": "49", "address": "2000 ALDERMEAD RD.", "city": "MISSISSAUGA", "province": "ON", "country": "CA", "postalCode": "L5M3A6", "twitter": "None", "instagram": "None", "facebook": "None", "youtube": "None", "website": "None", "summary": "None", "logo": "None", "latitude": 43.559370693288855, "longitude": -79.69435910517065}, "137883146RR0001": {"name": "International Assembly of God", "designationCode": "C", "categoryCode": "39", "address": "54 MOUTRAY STREET", "city": "TORONTO", "province": "ON", "country": "CA", "postalCode": "M6K1W5", "twitter": "None", "instagram": "None", "facebook": "None", "youtube": "None", "website": "None", "summary": "None", "logo": "None", "latitude": 43.651354220122144, "longitude": -79.4349688610998}, "871270757RR0001": {"name": "International Association for Human Values - Association Internationale pour les valeurs humaines", "designationCode": "C", "categoryCode": "29", "address": "#2600 - 160 ELGIN STREET", "city": "OTTAWA", "province": "ON", "country": "CA", "postalCode": "K1P1C3", "twitter": "None", "instagram": "None", "facebook": "None", "youtube": "None", "website": "None", "summary": "None", "logo": "None", "latitude": 45.42103723991791, "longitude": -75.6931236390969}, "884237728RR0001": {"name": "International Association for Individuals with Autistic Spectrum Disorders / Association Internationale pour Individus avec Troubles de Spectre Autistique", "designationCode": "C", "categoryCode": "10", "address": "23 - 2100 AV DE MARLOWE", "city": "MONTREAL", "province": "QC", "country": "CA", "postalCode": "H4A3L5", "twitter": "None", "instagram": "None", "facebook": "None", "youtube": "None", "website": "None", "summary": "None", "logo": "None", "latitude": 45.47475877127951, "longitude": -73.60659329352518}, "897222790RR0001": {"name": "International Association of Infant Massage, Canada - Association internationale en massage b\u00e9b\u00e9, Canada", "designationCode": "C", "categoryCode": "19", "address": "605 ROUTE 3", "city": "SMITHFIELD", "province": "NB", "country": "CA", "postalCode": "E6K2T1", "twitter": "None", "instagram": "None", "facebook": "None", "youtube": "None", "website": "None", "summary": "None", "logo": "None", "latitude": 45.8122512752104, "longitude": -66.90767372469828}, "794818120RR0001": {"name": "International Bible House Publishing Foundation", "designationCode": "B", "categoryCode": "43", "address": "3777 MARINE WAY", "city": "BURNABY", "province": "BC", "country": "CA", "postalCode": "V5J5A7", "twitter": "None", "instagram": "None", "facebook": "None", "youtube": "None", "website": "None", "summary": "None", "logo": "None", "latitude": 49.20551742920048, "longitude": -123.02056607079953}, "838086510RR0001": {"name": "International Bodhisattva Sangha of Canada", "designationCode": "C", "categoryCode": "35", "address": "PO BOX 21074                  MEADOWVALE POSTAL OUTLET", "city": "MISSISSAUGA", "province": "ON", "country": "CA", "postalCode": "L5N6A2", "twitter": "None", "instagram": "None", "facebook": "None", "youtube": "None", "website": "None", "summary": "None", "logo": "None", "latitude": 43.6057725179135, "longitude": -79.75966853445514}, "853992709RR0001": {"name": "International Center of Integral Theotherapy CENTI", "designationCode": "C", "categoryCode": "47", "address": "709-10 MALTA AVENUE", "city": "BRAMPTON", "province": "ON", "country": "CA", "postalCode": "L6Y4G6", "twitter": "None", "instagram": "None", "facebook": "None", "youtube": "None", "website": "None", "summary": "None", "logo": "None", "latitude": 43.65701974046418, "longitude": -79.72675516129009}, "850105537RR0001": {"name": "International Centre for Development Learning Society", "designationCode": "B", "categoryCode": "09", "address": "BOX 395", "city": "COCHRANE", "province": "AB", "country": "CA", "postalCode": "T4C1A6", "twitter": "None", "instagram": "None", "facebook": "None", "youtube": "None", "website": "None", "summary": "None", "logo": "None", "latitude": 51.19089900000006, "longitude": -114.46804249999994}, "874091242RR0002": {"name": "International Charity for Africa ( ICAFRICA ) Inc.", "designationCode": "C", "categoryCode": "09", "address": "207 BANK ST UNIT 462", "city": "OTTAWA", "province": "ON", "country": "CA", "postalCode": "K2P2N2", "twitter": "None", "instagram": "None", "facebook": "None", "youtube": "None", "website": "None", "summary": "None", "logo": "None", "latitude": 45.41747337053488, "longitude": -75.69814690380306}, "819043670RR0001": {"name": "International Charity for Ill Children", "designationCode": "C", "categoryCode": "11", "address": "451 WHITBY SHORES GREENWAY", "city": "WHITBY", "province": "ON", "country": "CA", "postalCode": "L1N9R4", "twitter": "None", "instagram": "None", "facebook": "None", "youtube": "None", "website": "None", "summary": "None", "logo": "None", "latitude": 43.85490468720069, "longitude": -78.9483933788734}, "811670199RR0001": {"name": "International Christian Church of Canada inc.", "designationCode": "C", "categoryCode": "39", "address": "56 AITKEN AVE", "city": "MIRAMICHI", "province": "NB", "country": "CA", "postalCode": "E1V3X1", "twitter": "None", "instagram": "None", "facebook": "None", "youtube": "None", "website": "None", "summary": "None", "logo": "None", "latitude": 47.00477878019498, "longitude": -65.58183601278193}, "845209139RR0001": {"name": "International Christian Hope of Canada", "designationCode": "C", "categoryCode": "09", "address": "13519-119 STREET", "city": "EDMONTON", "province": "AB", "country": "CA", "postalCode": "T5E5M9", "twitter": "None", "instagram": "None", "facebook": "None", "youtube": "None", "website": "None", "summary": "None", "logo": "None", "latitude": 53.59706932944775, "longitude": -113.52678474184914}, "841287063RR0001": {"name": "International Community Church of Canada / \u00c9glise communautaire internationale du Canada", "designationCode": "C", "categoryCode": "39", "address": "385 MILL STREET SOUTH", "city": "BRAMPTON", "province": "ON", "country": "CA", "postalCode": "L6Y3H6", "twitter": "None", "instagram": "None", "facebook": "None", "youtube": "None", "website": "None", "summary": "None", "logo": "None", "latitude": 43.66731237633461, "longitude": -79.74220483071714}, "852478189RR0001": {"name": "International Conservation Fund of Canada Inc.", "designationCode": "C", "categoryCode": "52", "address": "P.O BOX 40", "city": "CHESTER", "province": "NS", "country": "CA", "postalCode": "B0J1J0", "twitter": "None", "instagram": "None", "facebook": "None", "youtube": "None", "website": "None", "summary": "None", "logo": "None", "latitude": 44.549654888646664, "longitude": -64.2288348174421}, "825566888RR0001": {"name": "International Cornerstone Fellowshiop of Social Brethren Church", "designationCode": "C", "categoryCode": "39", "address": "655 MARKS ST", "city": "MILTON", "province": "ON", "country": "CA", "postalCode": "L9T0P8", "twitter": "None", "instagram": "None", "facebook": "None", "youtube": "None", "website": "None", "summary": "None", "logo": "None", "latitude": 43.4924126297536, "longitude": -79.8738641194818}, "807812094RR0001": {"name": "International Farm On Foundation", "designationCode": "C", "categoryCode": "59", "address": "POST OFFICE BOX 576", "city": "BASHAW", "province": "AB", "country": "CA", "postalCode": "T0B0H0", "twitter": "None", "instagram": "None", "facebook": "None", "youtube": "None", "website": "None", "summary": "None", "logo": "None", "latitude": 52.58378000000005, "longitude": -112.97087999999997}, "869411587RR0001": {"name": "International Fellowship of Christians and Jews of Canada", "designationCode": "C", "categoryCode": "09", "address": "449 THE QUEENSWAY SOUTH       SUITE 218", "city": "KESWICK", "province": "ON", "country": "CA", "postalCode": "L4P2C9", "twitter": "None", "instagram": "None", "facebook": "None", "youtube": "None", "website": "None", "summary": "None", "logo": "None", "latitude": 44.213992397166614, "longitude": -79.4646832036762}, "886388198RR0001": {"name": "International Fellowship Church of God", "designationCode": "C", "categoryCode": "39", "address": "91 MADISON AVE S", "city": "KITCHENER", "province": "ON", "country": "CA", "postalCode": "N2G3M4", "twitter": "None", "instagram": "None", "facebook": "None", "youtube": "None", "website": "None", "summary": "None", "logo": "None", "latitude": 43.444331487362284, "longitude": -80.48419832970754}, "814053666RR0001": {"name": "International Followers of Jesus Christ Church", "designationCode": "C", "categoryCode": "39", "address": "18 CALUMET CRESCENT", "city": "SCARBOROUGH", "province": "ON", "country": "CA", "postalCode": "M1H1W5", "twitter": "None", "instagram": "None", "facebook": "None", "youtube": "None", "website": "None", "summary": "None", "logo": "None", "latitude": 43.76250289203072, "longitude": -79.23599728937022}, "138512843RR0001": {"name": "International Friendship Regina Inc.", "designationCode": "C", "categoryCode": "47", "address": "106 LITZENBERGER CRESCENT", "city": "REGINA", "province": "SK", "country": "CA", "postalCode": "S4R5X6", "twitter": "None", "instagram": "None", "facebook": "None", "youtube": "None", "website": "None", "summary": "None", "logo": "None", "latitude": 50.49049926135085, "longitude": -104.64801860816482}, "857085211RR0001": {"name": "International Gospel Missionary Church", "designationCode": "C", "categoryCode": "39", "address": "17 DUNLOP PL", "city": "KITCHENER", "province": "ON", "country": "CA", "postalCode": "N2P1J3", "twitter": "None", "instagram": "None", "facebook": "None", "youtube": "None", "website": "None", "summary": "None", "logo": "None", "latitude": 43.39841804385709, "longitude": -80.44427420425313}, "800868754RR0001": {"name": "International House of Prayer", "designationCode": "C", "categoryCode": "39", "address": "300 - 1634 HARVEY AVE", "city": "KELOWNA", "province": "BC", "country": "CA", "postalCode": "V1Y6G2", "twitter": "None", "instagram": "None", "facebook": "None", "youtube": "None", "website": "None", "summary": "None", "logo": "None", "latitude": 49.882060483264674, "longitude": -119.46307402553522}, "818481723RR0001": {"name": "International House of Promise Centre", "designationCode": "C", "categoryCode": "39", "address": "229 - 2 ORCHARD HEIGHTS BLVD", "city": "AURORA", "province": "ON", "country": "CA", "postalCode": "L4G3W3", "twitter": "None", "instagram": "None", "facebook": "None", "youtube": "None", "website": "None", "summary": "None", "logo": "None", "latitude": 44.00888015130676, "longitude": -79.47352982621643}, "806548632RR0001": {"name": "International Islamic Propagation Centre Canada", "designationCode": "C", "categoryCode": "60", "address": "201-7045 EDWARDS BOULEVARD", "city": "MISSISSAUGA", "province": "ON", "country": "CA", "postalCode": "L5S1X2", "twitter": "None", "instagram": "None", "facebook": "None", "youtube": "None", "website": "None", "summary": "None", "logo": "None", "latitude": 43.64925191897959, "longitude": -79.70407792656832}, "820787992RR0001": {"name": "International KS Foundation", "designationCode": "C", "categoryCode": "11", "address": "80 JOHN STREET                APT. 4106", "city": "TORONTO", "province": "ON", "country": "CA", "postalCode": "M5V3X4", "twitter": "None", "instagram": "None", "facebook": "None", "youtube": "None", "website": "None", "summary": "None", "logo": "None", "latitude": 43.64689788175893, "longitude": -79.38993612839725}, "844191494RR0001": {"name": "International Medical Health Organization (Canada)", "designationCode": "C", "categoryCode": "10", "address": "5637 FINCH AVENUE EAST        SUITE 7", "city": "TORONTO", "province": "ON", "country": "CA", "postalCode": "M1B2T9", "twitter": "None", "instagram": "None", "facebook": "None", "youtube": "None", "website": "None", "summary": "None", "logo": "None", "latitude": 43.81398584090296, "longitude": -79.23825752994996}, "879780724RR0001": {"name": "International Mennonite Health Association Inc.", "designationCode": "C", "categoryCode": "13", "address": "15 COLERIDGE PARK DR", "city": "WINNIPEG", "province": "MB", "country": "CA", "postalCode": "R3K0B2", "twitter": "None", "instagram": "None", "facebook": "None", "youtube": "None", "website": "None", "summary": "None", "logo": "None", "latitude": 49.86766948600598, "longitude": -97.30990927837729}, "824727978RR0001": {"name": "International Nepal Fellowship Canada", "designationCode": "C", "categoryCode": "11", "address": "10TH-888 3RD ST SW", "city": "CALGARY", "province": "AB", "country": "CA", "postalCode": "T2P5C5", "twitter": "None", "instagram": "None", "facebook": "None", "youtube": "None", "website": "None", "summary": "None", "logo": "None", "latitude": 51.04810324127135, "longitude": -114.07018760690465}, "865548333RR0001": {"name": "International Network on Personal Meaning, Inc./Reseau International de la Signification de la Vie", "designationCode": "C", "categoryCode": "15", "address": "13 BALLYCONNOR COURT", "city": "TORONTO", "province": "ON", "country": "CA", "postalCode": "M2M4C5", "twitter": "None", "instagram": "None", "facebook": "None", "youtube": "None", "website": "None", "summary": "None", "logo": "None", "latitude": 43.799970791303465, "longitude": -79.38691980708651}, "118837517RR0001": {"name": "International Pentecostal Worship and Gospel Fellowship", "designationCode": "C", "categoryCode": "39", "address": "247 CARRIER DRIVE             UNIT #1", "city": "ETOBICOKE", "province": "ON", "country": "CA", "postalCode": "M9W5Y9", "twitter": "None", "instagram": "None", "facebook": "None", "youtube": "None", "website": "None", "summary": "None", "logo": "None", "latitude": 43.75042897313713, "longitude": -79.61592076397923}, "806753489RR0001": {"name": "International Reformed Church of God Sabbath Day", "designationCode": "C", "categoryCode": "39", "address": "1203 WESTON ROAD, 2", "city": "TORONTO", "province": "ON", "country": "CA", "postalCode": "M6M4P6", "twitter": "None", "instagram": "None", "facebook": "None", "youtube": "None", "website": "None", "summary": "None", "logo": "None", "latitude": 43.687823771596626, "longitude": -79.49168520231989}, "890578149RR0001": {"name": "International Reformed Theological College Society", "designationCode": "C", "categoryCode": "47", "address": "14-2865 273 STREET", "city": "ALDERGROVE", "province": "BC", "country": "CA", "postalCode": "V4W0A7", "twitter": "None", "instagram": "None", "facebook": "None", "youtube": "None", "website": "None", "summary": "None", "logo": "None", "latitude": 49.05439200000001, "longitude": -122.46706542235512}, "842271462RR0001": {"name": "International Revival Church, Toronto", "designationCode": "C", "categoryCode": "39", "address": "5605 TAW AVENUE", "city": "MISSISSAUGA", "province": "ON", "country": "CA", "postalCode": "L5V1W4", "twitter": "None", "instagram": "None", "facebook": "None", "youtube": "None", "website": "None", "summary": "None", "logo": "None", "latitude": 43.59139257536492, "longitude": -79.70016358869512}, "842032252RR0001": {"name": "International Sion Fellowship Ministries", "designationCode": "C", "categoryCode": "39", "address": "2338 CREDIT VALLEY ROAD", "city": "MISSISSAUGA", "province": "ON", "country": "CA", "postalCode": "L5M4C9", "twitter": "None", "instagram": "None", "facebook": "None", "youtube": "None", "website": "None", "summary": "None", "logo": "None", "latitude": 43.55448410101573, "longitude": -79.70532807297033}, "837963859RR0001": {"name": "International Society for Krishna Consciousness (Iskcon Scarborough)", "designationCode": "C", "categoryCode": "48", "address": "3500 MCNICOLL AVENUE          UNIT 3", "city": "TORONTO", "province": "ON", "country": "CA", "postalCode": "M1V4C7", "twitter": "None", "instagram": "None", "facebook": "None", "youtube": "None", "website": "None", "summary": "None", "logo": "None", "latitude": 43.82334523786711, "longitude": -79.25113782154189}, "826389231RR0001": {"name": "International Society for Krishna Consciousness Saskatoon Inc.", "designationCode": "C", "categoryCode": "48", "address": "315 FLEMING BAY", "city": "SASKATOON", "province": "SK", "country": "CA", "postalCode": "S7W0E6", "twitter": "None", "instagram": "None", "facebook": "None", "youtube": "None", "website": "None", "summary": "None", "logo": "None", "latitude": 52.14299763777502, "longitude": -106.55397555663903}, "118971027RR0002": {"name": "International Society for Krishna Consiousness (Outaouais Region) Inc. / L'Association Internationale pour la Consciencede Krishna (Outaouais) Inc.", "designationCode": "C", "categoryCode": "48", "address": "212 SOMERSET STREET EAST", "city": "OTTAWA", "province": "ON", "country": "CA", "postalCode": "K1N6V4", "twitter": "None", "instagram": "None", "facebook": "None", "youtube": "None", "website": "None", "summary": "None", "logo": "None", "latitude": 45.42253562585844, "longitude": -75.67896959963072}, "811953223RR0001": {"name": "International Support for Acid and Burn Survivors Canada", "designationCode": "C", "categoryCode": "11", "address": "315 SIERRA MORENA GREEN SW.", "city": "CALGARY", "province": "AB", "country": "CA", "postalCode": "T3H3H8", "twitter": "None", "instagram": "None", "facebook": "None", "youtube": "None", "website": "None", "summary": "None", "logo": "None", "latitude": 51.02253401234218, "longitude": -114.18703577662363}, "849367115RR0001": {"name": "International Surgical Health Initiatives (Canada) Inc./Initiatives internationales de sant\u00e9 chirurgicale (Canada) Inc.", "designationCode": "C", "categoryCode": "11", "address": "2007 MODIGLIANI", "city": "ST-LAURENT", "province": "QC", "country": "CA", "postalCode": "H4R3H2", "twitter": "None", "instagram": "None", "facebook": "None", "youtube": "None", "website": "None", "summary": "None", "logo": "None", "latitude": 45.509057076894145, "longitude": -73.71550476406614}, "816661623RR0001": {"name": "International Swaminarayan Satsang Organisation (Canada)", "designationCode": "C", "categoryCode": "48", "address": "9 - 1270 FINCH AVE W", "city": "NORTH YORK", "province": "ON", "country": "CA", "postalCode": "M3J3J7", "twitter": "None", "instagram": "None", "facebook": "None", "youtube": "None", "website": "None", "summary": "None", "logo": "None", "latitude": 43.76424599999999, "longitude": -79.48763774999999}, "820234193RR0001": {"name": "International Swaminarayan Satsang Organization of Edmonton (ISSO-Edmonton)", "designationCode": "C", "categoryCode": "48", "address": "3628 16 ST NW", "city": "EDMONTON", "province": "AB", "country": "CA", "postalCode": "T6T0M5", "twitter": "None", "instagram": "None", "facebook": "None", "youtube": "None", "website": "None", "summary": "None", "logo": "None", "latitude": 53.471406973769774, "longitude": -113.36771220596064}, "839336187RR0001": {"name": "International Swaminarayan Satsang Organization of Saskatchewan Inc.", "designationCode": "C", "categoryCode": "48", "address": "5241 CANUCK CRESCENT", "city": "REGINA", "province": "SK", "country": "CA", "postalCode": "S4W0H2", "twitter": "None", "instagram": "None", "facebook": "None", "youtube": "None", "website": "None", "summary": "None", "logo": "None", "latitude": 50.4163154402821, "longitude": -104.65546184074495}, "126599919RR0001": {"name": "International Teams Canada Inc.", "designationCode": "C", "categoryCode": "47", "address": "1 UNION STREET", "city": "ELMIRA", "province": "ON", "country": "CA", "postalCode": "N3B3J9", "twitter": "None", "instagram": "None", "facebook": "None", "youtube": "None", "website": "None", "summary": "None", "logo": "None", "latitude": 43.5953688373536, "longitude": -80.55319497247422}, "832454649RR0001": {"name": "International Translators and Interpreters Foundation", "designationCode": "C", "categoryCode": "20", "address": "106-525- 75 AVENUE SOUTHWEST", "city": "CALGARY", "province": "AB", "country": "CA", "postalCode": "T2V1R8", "twitter": "None", "instagram": "None", "facebook": "None", "youtube": "None", "website": "None", "summary": "None", "logo": "None", "latitude": 50.98597650000001, "longitude": -114.07387724999998}, "813505724RR0001": {"name": "International Vision Organization", "designationCode": "B", "categoryCode": "11", "address": "44 COLERIDGE CRES NW", "city": "CALGARY", "province": "AB", "country": "CA", "postalCode": "T2K1X9", "twitter": "None", "instagram": "None", "facebook": "None", "youtube": "None", "website": "None", "summary": "None", "logo": "None", "latitude": 51.08871564418031, "longitude": -114.09307753260435}, "800105553RR0001": {"name": "International Vision Volunteers Canada", "designationCode": "C", "categoryCode": "19", "address": "4947 TOPLAND RD", "city": "COURTENAY", "province": "BC", "country": "CA", "postalCode": "V9N5Y2", "twitter": "None", "instagram": "None", "facebook": "None", "youtube": "None", "website": "None", "summary": "None", "logo": "None", "latitude": 49.717308327262444, "longitude": -124.99651659514262}, "847419306RR0001": {"name": "International Wellness and Environment Foundation", "designationCode": "C", "categoryCode": "11", "address": "638 50TH AVE W", "city": "VANCOUVER", "province": "BC", "country": "CA", "postalCode": "V6P1A3", "twitter": "None", "instagram": "None", "facebook": "None", "youtube": "None", "website": "None", "summary": "None", "logo": "None", "latitude": 49.225252506780684, "longitude": -123.11928283389116}, "804153336RR0001": {"name": "International Widows & Orphans Fund Society", "designationCode": "C", "categoryCode": "09", "address": "P.O. BOX 190, 30 FRONT STREET", "city": "NANAIMO", "province": "BC", "country": "CA", "postalCode": "V9R5K9", "twitter": "None", "instagram": "None", "facebook": "None", "youtube": "None", "website": "None", "summary": "None", "logo": "None", "latitude": 49.169014774078136, "longitude": -123.93715179433323}, "126123819RR0001": {"name": "International Women of Saskatoon IWS Inc.", "designationCode": "C", "categoryCode": "09", "address": "301 - 336 5TH AVE N", "city": "SASKATOON", "province": "SK", "country": "CA", "postalCode": "S7K2P4", "twitter": "None", "instagram": "None", "facebook": "None", "youtube": "None", "website": "None", "summary": "None", "logo": "None", "latitude": 52.144977924595416, "longitude": -106.65520994935275}, "824740088RR0001": {"name": "International Youth Fellowship", "designationCode": "C", "categoryCode": "39", "address": "70 MCGRISKIN ROAD", "city": "TORONTO", "province": "ON", "country": "CA", "postalCode": "M1S5C5", "twitter": "None", "instagram": "None", "facebook": "None", "youtube": "None", "website": "None", "summary": "None", "logo": "None", "latitude": 43.79441315852013, "longitude": -79.24616559813018}, "808874549RR0001": {"name": "Internet for Humanity Society", "designationCode": "C", "categoryCode": "19", "address": "PO BOX 52020                  BEACON AVE RPO", "city": "SIDNEY", "province": "BC", "country": "CA", "postalCode": "V8L5V9", "twitter": "None", "instagram": "None", "facebook": "None", "youtube": "None", "website": "None", "summary": "None", "logo": "None", "latitude": 48.6489321537863, "longitude": -123.4001876452279}, "804151439RR0001": {"name": "Internet Sense First / Premier Sens Internet", "designationCode": "C", "categoryCode": "29", "address": "57 WELLINGTON AVE.", "city": "INGERSOLL", "province": "ON", "country": "CA", "postalCode": "N5C1C2", "twitter": "None", "instagram": "None", "facebook": "None", "youtube": "None", "website": "None", "summary": "None", "logo": "None", "latitude": 43.03498334416294, "longitude": -80.87673796378895}, "847665452RR0001": {"name": "Intersections Media Opportunities for Youth Society", "designationCode": "C", "categoryCode": "59", "address": "52A POWELL STREET             THIRD FLOOR", "city": "VANCOUVER", "province": "BC", "country": "CA", "postalCode": "V6A1E7", "twitter": "None", "instagram": "None", "facebook": "None", "youtube": "None", "website": "None", "summary": "None", "logo": "None", "latitude": 49.28315643331078, "longitude": -123.10295819289747}, "860334887RR0001": {"name": "InterAction Theatre Company Inc.", "designationCode": "C", "categoryCode": "22", "address": "228 GERMAIN STREET", "city": "SAINT JOHN", "province": "NB", "country": "CA", "postalCode": "E2L2G4", "twitter": "None", "instagram": "None", "facebook": "None", "youtube": "None", "website": "None", "summary": "None", "logo": "None", "latitude": 45.268820811270125, "longitude": -66.05922772993259}, "815364252RR0001": {"name": "InterChurch Health Ministries of Saskatchewan", "designationCode": "C", "categoryCode": "11", "address": "411 - 1802 ALEXANDRA AVE", "city": "SASKATOON", "province": "SK", "country": "CA", "postalCode": "S7K8A6", "twitter": "None", "instagram": "None", "facebook": "None", "youtube": "None", "website": "None", "summary": "None", "logo": "None", "latitude": 52.15517194310119, "longitude": -106.64224620889901}, "891480147RR0002": {"name": "Intred Training and Education", "designationCode": "B", "categoryCode": "21", "address": "801-95 LOMBARD STREET", "city": "TORONTO", "province": "ON", "country": "CA", "postalCode": "M5C2V3", "twitter": "None", "instagram": "None", "facebook": "None", "youtube": "None", "website": "None", "summary": "None", "logo": "None", "latitude": 43.65218786037867, "longitude": -79.37335445392121}, "821135209RR0001": {"name": "Intrepid Pens DTES Reading & Writing Society", "designationCode": "C", "categoryCode": "20", "address": "1250-1500 WEST GEORGIA ST,    BOX 62", "city": "VANCOUVER", "province": "BC", "country": "CA", "postalCode": "V6G2Z6", "twitter": "None", "instagram": "None", "facebook": "None", "youtube": "None", "website": "None", "summary": "None", "logo": "None", "latitude": 49.290187500000016, "longitude": -123.130035}, "851154864RR0001": {"name": "Inuk First Aid Instruction & Health Promotion", "designationCode": "C", "categoryCode": "11", "address": "370 STONE ROAD WEST UNIT 17   P.O. BOX 25046", "city": "GUELPH", "province": "ON", "country": "CA", "postalCode": "N1G4T4", "twitter": "None", "instagram": "None", "facebook": "None", "youtube": "None", "website": "None", "summary": "None", "logo": "None", "latitude": 43.51781273071199, "longitude": -80.23655620194545}, "817779515RR0001": {"name": "Inuvik Homeless Shelter Advisory", "designationCode": "C", "categoryCode": "01", "address": "185 KINGMINGYA ROAD           PO BOX 1301", "city": "INUVIK", "province": "NT", "country": "CA", "postalCode": "X0E0T0", "twitter": "None", "instagram": "None", "facebook": "None", "youtube": "None", "website": "None", "summary": "None", "logo": "None", "latitude": 68.35857091886699, "longitude": -133.72212582265854}, "836438291RR0001": {"name": "Invermere Companion Animal Network Society", "designationCode": "C", "categoryCode": "54", "address": "PO BOX 2448", "city": "INVERMERE", "province": "BC", "country": "CA", "postalCode": "V0A1K0", "twitter": "None", "instagram": "None", "facebook": "None", "youtube": "None", "website": "None", "summary": "None", "logo": "None", "latitude": 50.50916700000006, "longitude": -116.03037049999993}, "802977819RR0001": {"name": "Inverness Food Bank Society", "designationCode": "C", "categoryCode": "09", "address": "50 UPPER RAILWAY STREET       P.O. BOX 123", "city": "INVERNESS", "province": "NS", "country": "CA", "postalCode": "B0E1N0", "twitter": "None", "instagram": "None", "facebook": "None", "youtube": "None", "website": "None", "summary": "None", "logo": "None", "latitude": 46.228598749639424, "longitude": -61.30381344284136}, "808424485RR0001": {"name": "InvisAbilities", "designationCode": "C", "categoryCode": "11", "address": "445 LEES LANE", "city": "OAKVILLE", "province": "ON", "country": "CA", "postalCode": "L6L4S9", "twitter": "None", "instagram": "None", "facebook": "None", "youtube": "None", "website": "None", "summary": "None", "logo": "None", "latitude": 43.42447907827912, "longitude": -79.70043330347983}, "826902751RR0001": {"name": "Inwes Education and Research Institute", "designationCode": "C", "categoryCode": "21", "address": "DEP. OF HISTORY,U. OF OTTAWA  55 LAURIER AVE E-DESMARAIS9144", "city": "OTTAWA", "province": "ON", "country": "CA", "postalCode": "K1N6N5", "twitter": "None", "instagram": "None", "facebook": "None", "youtube": "None", "website": "None", "summary": "None", "logo": "None", "latitude": 45.42365397005005, "longitude": -75.6869329781001}, "118971399RR0001": {"name": "Inwood Manor Inc.", "designationCode": "C", "categoryCode": "09", "address": "BOX 137                       17 HIGHWAY 17", "city": "INWOOD", "province": "MB", "country": "CA", "postalCode": "R0C1P0", "twitter": "None", "instagram": "None", "facebook": "None", "youtube": "None", "website": "None", "summary": "None", "logo": "None", "latitude": 50.507037, "longitude": -97.50478963040598}, "818254336RR0001": {"name": "In2Action Foundation", "designationCode": "A", "categoryCode": "03", "address": "504 8 AVENUE EAST             PO BOX 1372", "city": "BOW ISLAND", "province": "AB", "country": "CA", "postalCode": "T0K0G0", "twitter": "None", "instagram": "None", "facebook": "None", "youtube": "None", "website": "None", "summary": "None", "logo": "None", "latitude": 49.866554503750926, "longitude": -111.36952260935425}, "894945633RR0076": {"name": "In2One Community Church of the Christian and Missionary Alliance in Canada, Stouffville ON", "designationCode": "C", "categoryCode": "39", "address": "101 FIRBANK LANE", "city": "STOUFFVILLE", "province": "ON", "country": "CA", "postalCode": "L4A0G6", "twitter": "None", "instagram": "None", "facebook": "None", "youtube": "None", "website": "None", "summary": "None", "logo": "None", "latitude": 43.96749019069178, "longitude": -79.2298592334237}, "893540419RR0001": {"name": "Iodine Global Network", "designationCode": "A", "categoryCode": "13", "address": "P.O BOX 51030                 375 DES EPINETTES", "city": "OTTAWA", "province": "ON", "country": "CA", "postalCode": "K1E3E6", "twitter": "None", "instagram": "None", "facebook": "None", "youtube": "None", "website": "None", "summary": "None", "logo": "None", "latitude": 45.46576184765404, "longitude": -75.49534885599257}, "818094211RR0001": {"name": "Ipsita Nova Dance Projects Inc.", "designationCode": "C", "categoryCode": "22", "address": "153 DELAWARE AVENUE", "city": "TORONTO", "province": "ON", "country": "CA", "postalCode": "M6H2T2", "twitter": "None", "instagram": "None", "facebook": "None", "youtube": "None", "website": "None", "summary": "None", "logo": "None", "latitude": 43.6599609775232, "longitude": -79.42755899345048}, "119288918RR1527": {"name": "Iqaluit Congregation of Jehovah's Witnesses, Nunavut", "designationCode": "C", "categoryCode": "61", "address": "5029B QAQQALIAQ ST            BOX 375", "city": "IQALUIT", "province": "NU", "country": "CA", "postalCode": "X0A0H0", "twitter": "None", "instagram": "None", "facebook": "None", "youtube": "None", "website": "None", "summary": "None", "logo": "None", "latitude": 63.755564365527206, "longitude": -68.51848707721649}, "814933131RR0001": {"name": "Iqaluit Humane Society 2007", "designationCode": "C", "categoryCode": "54", "address": "PO BOX 11089", "city": "IQUALUIT", "province": "NU", "country": "CA", "postalCode": "X0A0H0", "twitter": "None", "instagram": "None", "facebook": "None", "youtube": "None", "website": "None", "summary": "None", "logo": "None", "latitude": 62.81090700000006, "longitude": -92.08155949999994}, "815989702RR0001": {"name": "Iranian Church of Richmond Hill", "designationCode": "C", "categoryCode": "39", "address": "101 ELGIN MILLS RD W", "city": "RICHMOND HILL", "province": "ON", "country": "CA", "postalCode": "L4C4M1", "twitter": "None", "instagram": "None", "facebook": "None", "youtube": "None", "website": "None", "summary": "None", "logo": "None", "latitude": 43.888775840902966, "longitude": -79.44510511045077}, "848606067RR0001": {"name": "Iranian Railroad for Queer Refugees", "designationCode": "C", "categoryCode": "09", "address": "312-477 SHERBOURNE STREET", "city": "TORONTO", "province": "ON", "country": "CA", "postalCode": "M4X1K5", "twitter": "None", "instagram": "None", "facebook": "None", "youtube": "None", "website": "None", "summary": "None", "logo": "None", "latitude": 43.66686367361068, "longitude": -79.37454101468651}, "852053610RR0001": {"name": "Iranian-Canadian Centre for Art and Culture", "designationCode": "C", "categoryCode": "22", "address": "505 - 685 SHEPPARD AVE E", "city": "NORTH YORK", "province": "ON", "country": "CA", "postalCode": "M2K1B6", "twitter": "None", "instagram": "None", "facebook": "None", "youtube": "None", "website": "None", "summary": "None", "logo": "None", "latitude": 43.76901948474339, "longitude": -79.37750481865483}, "856950415RR0001": {"name": "Iraqi Community Services of Ontario", "designationCode": "C", "categoryCode": "09", "address": "217 - 23 WESTMORE DR", "city": "ETOBICOKE", "province": "ON", "country": "CA", "postalCode": "M9V3Y7", "twitter": "None", "instagram": "None", "facebook": "None", "youtube": "None", "website": "None", "summary": "None", "logo": "None", "latitude": 43.74203285625237, "longitude": -79.6041611112015}, "821548187RR0001": {"name": "Irene Cooper Educational Trust", "designationCode": "B", "categoryCode": "25", "address": "109 - 1633 HILLSIDE AVE", "city": "VICTORIA", "province": "BC", "country": "CA", "postalCode": "V8T2C4", "twitter": "None", "instagram": "None", "facebook": "None", "youtube": "None", "website": "None", "summary": "None", "logo": "None", "latitude": 48.4451084615386, "longitude": -123.33458004466515}, "820608677RR0001": {"name": "Irish Choral Society of Canada", "designationCode": "C", "categoryCode": "22", "address": "SUITE 206                     757 VICTORIA PARK AVENUE", "city": "TORONTO", "province": "ON", "country": "CA", "postalCode": "M4C5N8", "twitter": "None", "instagram": "None", "facebook": "None", "youtube": "None", "website": "None", "summary": "None", "logo": "None", "latitude": 43.69232099584506, "longitude": -79.28874048566018}, "833577141RR0001": {"name": "Irishtown Community Centre Inc.", "designationCode": "C", "categoryCode": "56", "address": "2603 RTE 115", "city": "IRISHTOWN", "province": "NB", "country": "CA", "postalCode": "E1H2M5", "twitter": "None", "instagram": "None", "facebook": "None", "youtube": "None", "website": "None", "summary": "None", "logo": "None", "latitude": 46.211429406385186, "longitude": -64.80456598944063}, "806305264RR0001": {"name": "Irma and Vincenzo Pulla Charitable Foundation", "designationCode": "B", "categoryCode": "03", "address": "555 STEEPROCK ROAD,", "city": "TORONTO", "province": "ON", "country": "CA", "postalCode": "M3J2Z6", "twitter": "None", "instagram": "None", "facebook": "None", "youtube": "None", "website": "None", "summary": "None", "logo": "None", "latitude": 43.759047252784775, "longitude": -79.46981254853164}, "836687434RR0001": {"name": "Irma Fire Fighters Association", "designationCode": "A", "categoryCode": "59", "address": "POST OFFICE BOX 234           4927-50 AVENUE", "city": "IRMA", "province": "AB", "country": "CA", "postalCode": "T0B2H0", "twitter": "None", "instagram": "None", "facebook": "None", "youtube": "None", "website": "None", "summary": "None", "logo": "None", "latitude": 52.91244069274061, "longitude": -111.22959650750182}, "817326044RR0001": {"name": "Iroquois Falls Family Health Team", "designationCode": "C", "categoryCode": "11", "address": "58A ANSON DRIVE", "city": "IROQUOIS FALLS", "province": "ON", "country": "CA", "postalCode": "P0K1E0", "twitter": "None", "instagram": "None", "facebook": "None", "youtube": "None", "website": "None", "summary": "None", "logo": "None", "latitude": 48.768674053037756, "longitude": -80.68534472635179}, "889659868RR0001": {"name": "Iroquois-Matilda Pastoral Charge", "designationCode": "C", "categoryCode": "44", "address": "POST OFFICE BOX 328", "city": "IROQUOIS", "province": "ON", "country": "CA", "postalCode": "K0E1K0", "twitter": "None", "instagram": "None", "facebook": "None", "youtube": "None", "website": "None", "summary": "None", "logo": "None", "latitude": 44.83310183222831, "longitude": -75.31301785738373}, "835533696RR0001": {"name": "Isabella Community Centre", "designationCode": "C", "categoryCode": "56", "address": "P.O. BOX 19", "city": "ISABELLA", "province": "MB", "country": "CA", "postalCode": "R0M0Y0", "twitter": "None", "instagram": "None", "facebook": "None", "youtube": "None", "website": "None", "summary": "None", "logo": "None", "latitude": 50.26742000000007, "longitude": -100.87662999999998}, "851378844RR0001": {"name": "Isabella's Umbrella NICU Support Foundation", "designationCode": "C", "categoryCode": "11", "address": "77 LADWIG CLOSE", "city": "RED DEER", "province": "AB", "country": "CA", "postalCode": "T4R2V7", "twitter": "None", "instagram": "None", "facebook": "None", "youtube": "None", "website": "None", "summary": "None", "logo": "None", "latitude": 52.24742851399404, "longitude": -113.75295372300768}, "836848929RR0001": {"name": "Isaiah Projects", "designationCode": "A", "categoryCode": "47", "address": "376 OTTERBEIN ROAD", "city": "KITCHENER", "province": "ON", "country": "CA", "postalCode": "N2B3V9", "twitter": "None", "instagram": "None", "facebook": "None", "youtube": "None", "website": "None", "summary": "None", "logo": "None", "latitude": 43.465179120751216, "longitude": -80.42747707672125}, "840454698RR0001": {"name": "Isaiah 61 Foundation", "designationCode": "B", "categoryCode": "03", "address": "SUITE 1700                    1631 DICKSON AVENUE", "city": "KELOWNA", "province": "BC", "country": "CA", "postalCode": "V1Y0B5", "twitter": "None", "instagram": "None", "facebook": "None", "youtube": "None", "website": "None", "summary": "None", "logo": "None", "latitude": 49.88064051067581, "longitude": -119.46192316763806}, "836692202RR0001": {"name": "Isberg Charitable Trust", "designationCode": "B", "categoryCode": "05", "address": "328 RIVERVIEW DRIVE", "city": "TORONTO", "province": "ON", "country": "CA", "postalCode": "M4N3E1", "twitter": "None", "instagram": "None", "facebook": "None", "youtube": "None", "website": "None", "summary": "None", "logo": "None", "latitude": 43.73228149711447, "longitude": -79.38976135928213}, "845453448RR0001": {"name": "Isee Solutions Society", "designationCode": "C", "categoryCode": "21", "address": "305-307 WHITMAN ROAD", "city": "KELOWNA", "province": "BC", "country": "CA", "postalCode": "V1V2P3", "twitter": "None", "instagram": "None", "facebook": "None", "youtube": "None", "website": "None", "summary": "None", "logo": "None", "latitude": 49.91675977754261, "longitude": -119.44214086653612}, "845316108RR0001": {"name": "Ishan Forever Young Foundation", "designationCode": "A", "categoryCode": "03", "address": "1584 WILLOW WAY", "city": "MISSISSAUGA", "province": "ON", "country": "CA", "postalCode": "L5M3W7", "twitter": "None", "instagram": "None", "facebook": "None", "youtube": "None", "website": "None", "summary": "None", "logo": "None", "latitude": 43.589215772664495, "longitude": -79.70515646404877}, "835331661RR0001": {"name": "Isisa Foundation", "designationCode": "A", "categoryCode": "03", "address": "460 - 745 THURLOW ST", "city": "VANCOUVER", "province": "BC", "country": "CA", "postalCode": "V6E0C5", "twitter": "None", "instagram": "None", "facebook": "None", "youtube": "None", "website": "None", "summary": "None", "logo": "None", "latitude": 49.285181832553974, "longitude": -123.1240751383693}, "805766912RR0001": {"name": "Islamic Association of Sault Ste. Marie", "designationCode": "C", "categoryCode": "60", "address": "2 TOWERS ST", "city": "SAULT STE. MARIE", "province": "ON", "country": "CA", "postalCode": "P6A2T9", "twitter": "None", "instagram": "None", "facebook": "None", "youtube": "None", "website": "None", "summary": "None", "logo": "None", "latitude": 46.50740562949379, "longitude": -84.32513334289352}, "847024932RR0001": {"name": "Islamic Association of Western Canada", "designationCode": "C", "categoryCode": "60", "address": "#4-7090 180 ST", "city": "SURREY", "province": "BC", "country": "CA", "postalCode": "V3S3T9", "twitter": "None", "instagram": "None", "facebook": "None", "youtube": "None", "website": "None", "summary": "None", "logo": "None", "latitude": 49.130602575076466, "longitude": -122.72367807548048}, "709877690RR0001": {"name": "Islamic Centers Trust (ICT)", "designationCode": "C", "categoryCode": "43", "address": "2200 SOUTH SHERIDAN WAY       SUITE# 223", "city": "MISSISSAUGA", "province": "ON", "country": "CA", "postalCode": "L5J2M4", "twitter": "None", "instagram": "None", "facebook": "None", "youtube": "None", "website": "None", "summary": "None", "logo": "None", "latitude": 43.52065847570554, "longitude": -79.65112440409152}, "814790580RR0001": {"name": "Islamic Centre of Courtice", "designationCode": "C", "categoryCode": "60", "address": "122 SPRUCEWOOD CRESCENT,", "city": "BOWMANVILLE", "province": "ON", "country": "CA", "postalCode": "L1C5H4", "twitter": "None", "instagram": "None", "facebook": "None", "youtube": "None", "website": "None", "summary": "None", "logo": "None", "latitude": 43.92675984901037, "longitude": -78.67258426660496}, "106899925RR0001": {"name": "Islamic Centre of Qu\u00e9bec - El Markaz Islami", "designationCode": "C", "categoryCode": "60", "address": "2520, CHEMIN LAVAL", "city": "SAINT-LAURENT", "province": "QC", "country": "CA", "postalCode": "H4L3A1", "twitter": "None", "instagram": "None", "facebook": "None", "youtube": "None", "website": "None", "summary": "None", "logo": "None", "latitude": 45.521345316665794, "longitude": -73.70505326545113}, "808018642RR0001": {"name": "Islamic Heritage of Canada", "designationCode": "C", "categoryCode": "60", "address": "9 TAPLANE DRIVE", "city": "MARKHAM", "province": "ON", "country": "CA", "postalCode": "L3S2Z9", "twitter": "None", "instagram": "None", "facebook": "None", "youtube": "None", "website": "None", "summary": "None", "logo": "None", "latitude": 43.84098986037865, "longitude": -79.26004411864508}, "845532225RR0001": {"name": "Islamic Humanitarian Service Foundation", "designationCode": "A", "categoryCode": "03", "address": "1500 WEST GEORGIA STREET      SUITE 1250   BOX 62", "city": "VANCOUVER", "province": "BC", "country": "CA", "postalCode": "V6G2Z6", "twitter": "None", "instagram": "None", "facebook": "None", "youtube": "None", "website": "None", "summary": "None", "logo": "None", "latitude": 49.2900638104334, "longitude": -123.12989899362336}, "803768258RR0001": {"name": "Islamic Society of Ajax", "designationCode": "C", "categoryCode": "60", "address": "1501 HARWOOD AVE N", "city": "AJAX", "province": "ON", "country": "CA", "postalCode": "L1T4T9", "twitter": "None", "instagram": "None", "facebook": "None", "youtube": "None", "website": "None", "summary": "None", "logo": "None", "latitude": 43.887219872612334, "longitude": -79.03696044001408}, "801073453RR0001": {"name": "Islamic Society of Belleville (ISB)", "designationCode": "C", "categoryCode": "60", "address": "33 MOIRA ST W", "city": "BELLEVILLE", "province": "ON", "country": "CA", "postalCode": "K8P1S1", "twitter": "None", "instagram": "None", "facebook": "None", "youtube": "None", "website": "None", "summary": "None", "logo": "None", "latitude": 44.16838167609217, "longitude": -77.3882622152174}, "808204028RR0001": {"name": "Islamic Society of Guelph", "designationCode": "C", "categoryCode": "60", "address": "126 NORWICH STREET EAST", "city": "GUELPH", "province": "ON", "country": "CA", "postalCode": "N1E2G7", "twitter": "None", "instagram": "None", "facebook": "None", "youtube": "None", "website": "None", "summary": "None", "logo": "None", "latitude": 43.551419898147586, "longitude": -80.25176390677457}}