{"119288918RR1233": {"name": "SECORD WOODS CONGREGATION OF JEHOVAH'S WITNESSES", "designationCode": "C", "categoryCode": "61", "address": "58 PATRICIA ST", "city": "THOROLD", "province": "ON", "country": "CA", "postalCode": "L2V3W1", "twitter": "None", "instagram": "None", "facebook": "None", "youtube": "None", "website": "None", "summary": "None", "logo": "None", "latitude": 43.114626000000015, "longitude": -79.20133333192925}, "840777148RR0001": {"name": "SECOURS AU CHIEN BOXER DU QUEBEC/BOXER RESCUE OF QUEBEC", "designationCode": "C", "categoryCode": "54", "address": "706 MAIN ROAD", "city": "HUDSON", "province": "QC", "country": "CA", "postalCode": "J0P1H0", "twitter": "None", "instagram": "None", "facebook": "None", "youtube": "None", "website": "None", "summary": "None", "logo": "None", "latitude": 45.470670066333895, "longitude": -74.17287301748514}, "119144186RR0001": {"name": "SECOURS AUX AIN\u00c9S/ELDERAID", "designationCode": "A", "categoryCode": "01", "address": "130 AVENUE DE L'EPEE", "city": "OUTEMONT", "province": "QC", "country": "CA", "postalCode": "H2V3T2", "twitter": "None", "instagram": "None", "facebook": "None", "youtube": "None", "website": "None", "summary": "None", "logo": "None", "latitude": 45.5174456658204, "longitude": -73.59933130503771}, "103115812RR0001": {"name": "SECOURS AUX LEPREUX CANADA INC. THE LEPROSY RELIEF CANADA INC.", "designationCode": "C", "categoryCode": "11", "address": "305-1805 RUE SAUVE OUEST", "city": "MONTREAL", "province": "QC", "country": "CA", "postalCode": "H4N3H4", "twitter": "None", "instagram": "None", "facebook": "None", "youtube": "None", "website": "None", "summary": "None", "logo": "None", "latitude": 45.531413400681174, "longitude": -73.66743352821463}, "119144210RR0001": {"name": "SECOURS TIERS-MONDE QUEBEC INC.", "designationCode": "C", "categoryCode": "03", "address": "18 NOTRE-DAME", "city": "LEVIS", "province": "QC", "country": "CA", "postalCode": "G6V4A4", "twitter": "None", "instagram": "None", "facebook": "None", "youtube": "None", "website": "None", "summary": "None", "logo": "None", "latitude": 46.8105626277917, "longitude": -71.18161650732893}, "119144178RR0001": {"name": "SECOURS-AMITIE (ESTRIE) INC.", "designationCode": "C", "categoryCode": "09", "address": "CP 1596 SUCC PL DE LA CITE", "city": "SHERBROOKE", "province": "QC", "country": "CA", "postalCode": "J1H5M4", "twitter": "None", "instagram": "None", "facebook": "None", "youtube": "None", "website": "None", "summary": "None", "logo": "None", "latitude": 45.39993924181269, "longitude": -71.89518081045317}, "890998180RR0001": {"name": "SECOURS-AMITIE INC", "designationCode": "C", "categoryCode": "09", "address": "83 RUE DU PECHEUR NORD", "city": "LAMEQUE", "province": "NB", "country": "CA", "postalCode": "E8T1K5", "twitter": "None", "instagram": "None", "facebook": "None", "youtube": "None", "website": "None", "summary": "None", "logo": "None", "latitude": 47.7983761934331, "longitude": -64.64441116732094}, "891460446RR0001": {"name": "SECOURS-MISSIONS", "designationCode": "C", "categoryCode": "49", "address": "20 RUE DU JUVENAT", "city": "SAINT ROMUALD", "province": "QC", "country": "CA", "postalCode": "G6W7X2", "twitter": "None", "instagram": "None", "facebook": "None", "youtube": "None", "website": "None", "summary": "None", "logo": "None", "latitude": 46.762269420508794, "longitude": -71.23352128273473}, "844093344RR0001": {"name": "SECRET PLACE MINISTRY INC.", "designationCode": "C", "categoryCode": "49", "address": "630 ROBERTA AVENUE", "city": "WINNIPEG", "province": "MB", "country": "CA", "postalCode": "R2K0L1", "twitter": "None", "instagram": "None", "facebook": "None", "youtube": "None", "website": "None", "summary": "None", "logo": "None", "latitude": 49.92614113737097, "longitude": -97.08108257467244}, "892721903RR0001": {"name": "SECRET SANTA", "designationCode": "C", "categoryCode": "09", "address": "P.O. BOX 902", "city": "UNITY", "province": "SK", "country": "CA", "postalCode": "S0K4L0", "twitter": "None", "instagram": "None", "facebook": "None", "youtube": "None", "website": "None", "summary": "None", "logo": "None", "latitude": 52.437110000000075, "longitude": -109.14557999999994}, "107965352RR0001": {"name": "SECRETARIAT DE L'ACTION CATHOLIQUE", "designationCode": "C", "categoryCode": "49", "address": "2 RUE ST-CHARLES-BORROMEE NORD", "city": "JOLIETTE", "province": "QC", "country": "CA", "postalCode": "J6E4R2", "twitter": "None", "instagram": "None", "facebook": "None", "youtube": "None", "website": "None", "summary": "None", "logo": "None", "latitude": 46.02706174689812, "longitude": -73.43820616406099}, "864471628RR0001": {"name": "SECURI-COEUR MARIA-CHAPDELAINE", "designationCode": "C", "categoryCode": "11", "address": "1879 RUE DES M\u00c9L\u00c8ZES", "city": "DOLBEAU-MISTASSINI", "province": "QC", "country": "CA", "postalCode": "G8L2E5", "twitter": "None", "instagram": "None", "facebook": "None", "youtube": "None", "website": "None", "summary": "None", "logo": "None", "latitude": 48.88216066720538, "longitude": -72.23743511824105}, "119144285RR0001": {"name": "SECWEPEMC CULTURAL EDUCATION SOCIETY", "designationCode": "C", "categoryCode": "21", "address": "PO BOX 30 STN MAIN", "city": "KAMLOOPS", "province": "BC", "country": "CA", "postalCode": "V2C5K3", "twitter": "None", "instagram": "None", "facebook": "None", "youtube": "None", "website": "None", "summary": "None", "logo": "None", "latitude": 50.675883000000056, "longitude": -120.33898099999993}, "893031385RR0001": {"name": "SEDALIA FULL GOSPEL CHURCH", "designationCode": "C", "categoryCode": "39", "address": "BOX 12", "city": "SEDALIA", "province": "AB", "country": "CA", "postalCode": "T0J3C0", "twitter": "None", "instagram": "None", "facebook": "None", "youtube": "None", "website": "None", "summary": "None", "logo": "None", "latitude": 51.69261000000006, "longitude": -110.66642999999999}, "119144301RR0001": {"name": "SEDALIA HALL CLUB", "designationCode": "C", "categoryCode": "56", "address": "BOX 37", "city": "SEDALIA", "province": "AB", "country": "CA", "postalCode": "T0J3C0", "twitter": "None", "instagram": "None", "facebook": "None", "youtube": "None", "website": "None", "summary": "None", "logo": "None", "latitude": 51.69261000000006, "longitude": -110.66642999999999}, "887552669RR0001": {"name": "SEDGEWICK CEMETERY MEMORIAL ASSOCIATION", "designationCode": "C", "categoryCode": "59", "address": "BOX 129", "city": "SEDGEWICK", "province": "AB", "country": "CA", "postalCode": "T0B4C0", "twitter": "None", "instagram": "None", "facebook": "None", "youtube": "None", "website": "None", "summary": "None", "logo": "None", "latitude": 52.766850000000034, "longitude": -111.68503999999996}, "131429920RR0001": {"name": "SEDGEWICK EARLY CHILDHOOD CENTRE", "designationCode": "C", "categoryCode": "20", "address": "PO BOX 406", "city": "SEDGEWICK", "province": "AB", "country": "CA", "postalCode": "T0B4C0", "twitter": "None", "instagram": "None", "facebook": "None", "youtube": "None", "website": "None", "summary": "None", "logo": "None", "latitude": 52.766850000000034, "longitude": -111.68503999999996}, "132004029RR0001": {"name": "SEDGEWICK HISTORICAL SOCIETY", "designationCode": "C", "categoryCode": "21", "address": "BOX 538 - 4813-27 ST", "city": "SEDGEWICK", "province": "AB", "country": "CA", "postalCode": "T0B4C0", "twitter": "None", "instagram": "None", "facebook": "None", "youtube": "None", "website": "None", "summary": "None", "logo": "None", "latitude": 52.776258000000055, "longitude": -111.69707299999993}, "119144327RR0001": {"name": "SEDGEWICK MEMORIAL PRESBYTERIAN CHURCH", "designationCode": "C", "categoryCode": "37", "address": "1954 BALMORAL RD", "city": "TATAMAGOUCHE", "province": "NS", "country": "CA", "postalCode": "B0K1V0", "twitter": "None", "instagram": "None", "facebook": "None", "youtube": "None", "website": "None", "summary": "None", "logo": "None", "latitude": 45.64007516876855, "longitude": -63.250547248486505}, "126890888RR0001": {"name": "SEDGEWICK MUNICIPAL LIBRARY", "designationCode": "C", "categoryCode": "50", "address": "BOX 569", "city": "SEDGEWICK", "province": "AB", "country": "CA", "postalCode": "T0B4C0", "twitter": "None", "instagram": "None", "facebook": "None", "youtube": "None", "website": "None", "summary": "None", "logo": "None", "latitude": 52.766850000000034, "longitude": -111.68503999999996}, "134537893RR0001": {"name": "SEDGEWICK S D A CHURCH", "designationCode": "C", "categoryCode": "41", "address": "5816 HIGHWAY 2A", "city": "LACOMBE", "province": "AB", "country": "CA", "postalCode": "T4L2G5", "twitter": "None", "instagram": "None", "facebook": "None", "youtube": "None", "website": "None", "summary": "None", "logo": "None", "latitude": 52.474063600197404, "longitude": -113.71692568401835}, "119144343RR0001": {"name": "SEDGEWICK SENIOR CITIZENS CLUB", "designationCode": "C", "categoryCode": "56", "address": "BOX 561", "city": "SEDGEWICK", "province": "AB", "country": "CA", "postalCode": "T0B4C0", "twitter": "None", "instagram": "None", "facebook": "None", "youtube": "None", "website": "None", "summary": "None", "logo": "None", "latitude": 52.766850000000034, "longitude": -111.68503999999996}, "119144350RR0001": {"name": "SEDGEWICK UNITED CHURCH", "designationCode": "C", "categoryCode": "44", "address": "BOX 81", "city": "SEDGEWICK", "province": "AB", "country": "CA", "postalCode": "T0B4C0", "twitter": "None", "instagram": "None", "facebook": "None", "youtube": "None", "website": "None", "summary": "None", "logo": "None", "latitude": 52.766850000000034, "longitude": -111.68503999999996}, "119144376RR0001": {"name": "SEDLEY COMMUNITY CULTURAL SOCIETY", "designationCode": "C", "categoryCode": "56", "address": "POST OFFICE BOX 130           117 BROADWAY STREET", "city": "SEDLEY", "province": "SK", "country": "CA", "postalCode": "S0G4K0", "twitter": "None", "instagram": "None", "facebook": "None", "youtube": "None", "website": "None", "summary": "None", "logo": "None", "latitude": 50.17003752867927, "longitude": -104.01298821705797}, "119144384RR0001": {"name": "SEDLEY NEW HORIZONS CENTRE", "designationCode": "C", "categoryCode": "56", "address": "PO BOX 201", "city": "SEDLEY", "province": "SK", "country": "CA", "postalCode": "S0G4K0", "twitter": "None", "instagram": "None", "facebook": "None", "youtube": "None", "website": "None", "summary": "None", "logo": "None", "latitude": 50.17074809641333, "longitude": -104.01590106652539}, "107965691RR0001": {"name": "SEDNA WOMEN'S SHELTER & SUPPORT SERVICES INC.", "designationCode": "C", "categoryCode": "01", "address": "OSHAWA CENTRE P.O. BOX 30560", "city": "OSHAWA", "province": "ON", "country": "CA", "postalCode": "L1J8L8", "twitter": "None", "instagram": "None", "facebook": "None", "youtube": "None", "website": "None", "summary": "None", "logo": "None", "latitude": 43.89007000000004, "longitude": -78.88162999999997}, "889521597RR0001": {"name": "SEE-ALL KOREAN CANADIAN COMMUNITY SCHOOL", "designationCode": "C", "categoryCode": "22", "address": "1993 LESLIE STREET", "city": "TORONTO", "province": "ON", "country": "CA", "postalCode": "M3B2M3", "twitter": "None", "instagram": "None", "facebook": "None", "youtube": "None", "website": "None", "summary": "None", "logo": "None", "latitude": 43.75882686176025, "longitude": -79.36124367243683}, "119144426RR0001": {"name": "SEED SOWERS", "designationCode": "C", "categoryCode": "47", "address": "5 ALEXANDER AVE.", "city": "PORTAGE LA PRAIRIE", "province": "MB", "country": "CA", "postalCode": "R1N3S5", "twitter": "None", "instagram": "None", "facebook": "None", "youtube": "None", "website": "None", "summary": "None", "logo": "None", "latitude": 49.94732912481091, "longitude": -98.29612686698346}, "119144434RR0001": {"name": "SEED WINNIPEG INC.", "designationCode": "C", "categoryCode": "09", "address": "80 SALTER STREET", "city": "WINNIPEG", "province": "MB", "country": "CA", "postalCode": "R2W4J6", "twitter": "None", "instagram": "None", "facebook": "None", "youtube": "None", "website": "None", "summary": "None", "logo": "None", "latitude": 49.91258683181367, "longitude": -97.14291542801061}, "119141547RR0001": {"name": "SEEDLINGS FOUNDATION", "designationCode": "B", "categoryCode": "03", "address": "PO BOX 49100                  3500-1055 DUNSMUIR ST", "city": "VANCOUVER", "province": "BC", "country": "CA", "postalCode": "V7X1H3", "twitter": "None", "instagram": "None", "facebook": "None", "youtube": "None", "website": "None", "summary": "None", "logo": "None", "latitude": 49.28608440276387, "longitude": -123.12107840339904}, "107990483RR0001": {"name": "SEEDS Connections", "designationCode": "C", "categoryCode": "21", "address": "309, 223-12 AVENUE SW", "city": "CALGARY", "province": "AB", "country": "CA", "postalCode": "T2R0G9", "twitter": "None", "instagram": "None", "facebook": "None", "youtube": "None", "website": "None", "summary": "None", "logo": "None", "latitude": 51.04147448845882, "longitude": -114.0671642216227}, "896508157RR0001": {"name": "SEEDS OF DIVERSITY CANADA - PROGRAMME SEMENCIER DU PATRIMOINE CANADA", "designationCode": "C", "categoryCode": "59", "address": "1 - 12 DUPONT ST W", "city": "WATERLOO", "province": "ON", "country": "CA", "postalCode": "N2L2X6", "twitter": "None", "instagram": "None", "facebook": "None", "youtube": "None", "website": "None", "summary": "None", "logo": "None", "latitude": 43.46591400000001, "longitude": -80.52350849999999}, "899243307RR0001": {"name": "SEEDS OF HOPE EVANGELICAL CHRISTIAN MINISTRY", "designationCode": "C", "categoryCode": "47", "address": "BOX 1209", "city": "BANCROFT", "province": "ON", "country": "CA", "postalCode": "K0L1C0", "twitter": "None", "instagram": "None", "facebook": "None", "youtube": "None", "website": "None", "summary": "None", "logo": "None", "latitude": 45.03567300000006, "longitude": -77.98000849999994}, "139298830RR0001": {"name": "SEEDS OF HOPE FOUNDATION", "designationCode": "C", "categoryCode": "59", "address": "6 ST. JOSEPH STREET", "city": "TORONTO", "province": "ON", "country": "CA", "postalCode": "M4Y1J7", "twitter": "None", "instagram": "None", "facebook": "None", "youtube": "None", "website": "None", "summary": "None", "logo": "None", "latitude": 43.6659692051185, "longitude": -79.3855377917075}, "891228280RR0001": {"name": "SEEDS OF HOPE, CHILDRENS MINISTRY", "designationCode": "C", "categoryCode": "09", "address": "#101-33119 SOUTH FRASER WAY", "city": "ABBOTSFORD", "province": "BC", "country": "CA", "postalCode": "V2S2B1", "twitter": "None", "instagram": "None", "facebook": "None", "youtube": "None", "website": "None", "summary": "None", "logo": "None", "latitude": 49.050680486582884, "longitude": -122.30647867470718}, "873154074RR0001": {"name": "SEEDS OF LIFE COMMUNITY CHURCH", "designationCode": "C", "categoryCode": "39", "address": "BOX 2370", "city": "ALTONA", "province": "MB", "country": "CA", "postalCode": "R0G0B0", "twitter": "None", "instagram": "None", "facebook": "None", "youtube": "None", "website": "None", "summary": "None", "logo": "None", "latitude": 49.10353800000006, "longitude": -97.55120149999993}, "863611364RR0001": {"name": "SEEDS OF LIFE MINISTRIES", "designationCode": "C", "categoryCode": "39", "address": "19 LYNNWOOD DR. APT 607", "city": "BRANTFORD", "province": "ON", "country": "CA", "postalCode": "N3S6S2", "twitter": "None", "instagram": "None", "facebook": "None", "youtube": "None", "website": "None", "summary": "None", "logo": "None", "latitude": 43.140041979456456, "longitude": -80.23606924000188}, "865592760RR0001": {"name": "SEEDS OF PROMISE SUPPORT SERVICES FOR WOMEN INTERNATIONAL", "designationCode": "C", "categoryCode": "09", "address": "30 APPALACHIAN CR", "city": "KITCHENER", "province": "ON", "country": "CA", "postalCode": "N2E1A4", "twitter": "None", "instagram": "None", "facebook": "None", "youtube": "None", "website": "None", "summary": "None", "logo": "None", "latitude": 43.42222800972352, "longitude": -80.48184588470178}, "892748054RR0001": {"name": "SEEDS PUBLICATIONS INTERNATIONAL", "designationCode": "C", "categoryCode": "47", "address": "32729 7TH AVE", "city": "MISSION", "province": "BC", "country": "CA", "postalCode": "V2V2B8", "twitter": "None", "instagram": "None", "facebook": "None", "youtube": "None", "website": "None", "summary": "None", "logo": "None", "latitude": 49.14029881236592, "longitude": -122.31886010670105}, "119144459RR0001": {"name": "SEELEY'S BAY PASTORAL CHARGE", "designationCode": "C", "categoryCode": "44", "address": "157 MAIN ST PO BOX 64", "city": "SEELEY'S BAY", "province": "ON", "country": "CA", "postalCode": "K0H2N0", "twitter": "None", "instagram": "None", "facebook": "None", "youtube": "None", "website": "None", "summary": "None", "logo": "None", "latitude": 44.47772343184844, "longitude": -76.2344226742745}, "118967785RR0011": {"name": "SEELEYS BAY HOLINESS CHURCH", "designationCode": "C", "categoryCode": "39", "address": "864 STONE ST.N", "city": "GANANOQUE", "province": "ON", "country": "CA", "postalCode": "K7G1Z6", "twitter": "None", "instagram": "None", "facebook": "None", "youtube": "None", "website": "None", "summary": "None", "logo": "None", "latitude": 44.34186243596152, "longitude": -76.17042860463314}, "119268407RR0001": {"name": "SEGUE CAREER OPTIONS INC.", "designationCode": "C", "categoryCode": "20", "address": "BOX 435", "city": "WINKLER", "province": "MB", "country": "CA", "postalCode": "R6W4A6", "twitter": "None", "instagram": "None", "facebook": "None", "youtube": "None", "website": "None", "summary": "None", "logo": "None", "latitude": 49.17773400000006, "longitude": -97.93841299999994}, "118965193RR0002": {"name": "SEGUIN TOWNSHIP PUBLIC LIBRARY BOARD", "designationCode": "C", "categoryCode": "50", "address": "15 HUMPHREY DRIVE", "city": "SEGUIN", "province": "ON", "country": "CA", "postalCode": "P2A2W8", "twitter": "None", "instagram": "None", "facebook": "None", "youtube": "None", "website": "None", "summary": "None", "logo": "None", "latitude": 45.28699999471989, "longitude": -79.81255658514668}, "888000049RR0001": {"name": "SEICHO-NO-IE CANADA", "designationCode": "C", "categoryCode": "49", "address": "662 VICTORIA PARK AVE", "city": "TORONTO", "province": "ON", "country": "CA", "postalCode": "M4C5H4", "twitter": "None", "instagram": "None", "facebook": "None", "youtube": "None", "website": "None", "summary": "None", "logo": "None", "latitude": 43.69188595836463, "longitude": -79.28863621553452}, "888000049RR0003": {"name": "SEICHO-NO-IE CANADA, WESTERN DIVISION", "designationCode": "C", "categoryCode": "39", "address": "305 EAST 16TH AVENUE", "city": "VANCOUVER", "province": "BC", "country": "CA", "postalCode": "V5T2T7", "twitter": "None", "instagram": "None", "facebook": "None", "youtube": "None", "website": "None", "summary": "None", "logo": "None", "latitude": 49.25659949321932, "longitude": -123.0982422485429}, "889932398RR0001": {"name": "SEICHO-NO-IE HUMANITY ENLIGHTENMENT MOVEMENT (GUELPH)", "designationCode": "C", "categoryCode": "49", "address": "P. O. BOX 263", "city": "ELMIRA", "province": "ON", "country": "CA", "postalCode": "N3B2Z6", "twitter": "None", "instagram": "None", "facebook": "None", "youtube": "None", "website": "None", "summary": "None", "logo": "None", "latitude": 43.59864300000005, "longitude": -80.55873349999993}, "862408739RR0001": {"name": "SEINE RIVER CHRISTIAN FELLOWSHIP", "designationCode": "C", "categoryCode": "39", "address": "BOX 45", "city": "LORETTE", "province": "MB", "country": "CA", "postalCode": "R0A0Y0", "twitter": "None", "instagram": "None", "facebook": "None", "youtube": "None", "website": "None", "summary": "None", "logo": "None", "latitude": 49.739720000000034, "longitude": -96.87469999999996}, "130008535RR0001": {"name": "SEINE RIVER SCHOOL DIVISION", "designationCode": "C", "categoryCode": "20", "address": "475A SENEZ ST", "city": "LORETTE", "province": "MB", "country": "CA", "postalCode": "R0A0Y0", "twitter": "None", "instagram": "None", "facebook": "None", "youtube": "None", "website": "None", "summary": "None", "logo": "None", "latitude": 49.74138107592678, "longitude": -96.87280542460498}, "875489114RR0001": {"name": "SEINE-RAT RIVER CONSERVATION DISTRICT", "designationCode": "C", "categoryCode": "52", "address": "154 FRIESEN AVE", "city": "STEINBACH", "province": "MB", "country": "CA", "postalCode": "R5G0T5", "twitter": "None", "instagram": "None", "facebook": "None", "youtube": "None", "website": "None", "summary": "None", "logo": "None", "latitude": 49.52572489218994, "longitude": -96.68977180225255}, "861284255RR0001": {"name": "SEISMIC SHIFT ARTS SOCIETY", "designationCode": "C", "categoryCode": "22", "address": "104-336 1ST AVE E", "city": "VANCOUVER", "province": "BC", "country": "CA", "postalCode": "V5T4R6", "twitter": "None", "instagram": "None", "facebook": "None", "youtube": "None", "website": "None", "summary": "None", "logo": "None", "latitude": 49.267835582001375, "longitude": -123.09651320970615}, "132479296RR0001": {"name": "SEIZAN BUDDHIST STUDIES AND CULTURAL CENTRE", "designationCode": "C", "categoryCode": "35", "address": "209 JACKSON STREET", "city": "COQUITLAM", "province": "BC", "country": "CA", "postalCode": "V3K4C1", "twitter": "None", "instagram": "None", "facebook": "None", "youtube": "None", "website": "None", "summary": "None", "logo": "None", "latitude": 49.23574353955792, "longitude": -122.87763394168753}, "133662072RR0001": {"name": "SEIZURE & BRAIN INJURY CENTRE", "designationCode": "C", "categoryCode": "11", "address": "733 ROSS AVE E", "city": "TIMMINS", "province": "ON", "country": "CA", "postalCode": "P4N8S8", "twitter": "None", "instagram": "None", "facebook": "None", "youtube": "None", "website": "None", "summary": "None", "logo": "None", "latitude": 48.485925952652714, "longitude": -81.31351966007911}, "120826532RR0001": {"name": "SEJOUR LA BONNE OEUVRE", "designationCode": "C", "categoryCode": "09", "address": "CP 508 SUCC LENNOXVILLE", "city": "SHERBROOKE", "province": "QC", "country": "CA", "postalCode": "J1M1Z6", "twitter": "None", "instagram": "None", "facebook": "None", "youtube": "None", "website": "None", "summary": "None", "logo": "None", "latitude": 45.36752000000007, "longitude": -71.85659999999996}, "889503447RR0001": {"name": "SEJOUR MARIE FITZBACH", "designationCode": "C", "categoryCode": "01", "address": "523 DES CHEVALIERS", "city": "CHICOUTIMI", "province": "QC", "country": "CA", "postalCode": "G7H5P6", "twitter": "None", "instagram": "None", "facebook": "None", "youtube": "None", "website": "None", "summary": "None", "logo": "None", "latitude": 48.40144641104507, "longitude": -71.05512332457165}, "884206814RR0001": {"name": "SEJOUR SANTE ENFANTS TCHERNOBYL", "designationCode": "C", "categoryCode": "09", "address": "594 RG STE-CAROLINE", "city": "ST-VICTOR", "province": "QC", "country": "CA", "postalCode": "G0M2B0", "twitter": "None", "instagram": "None", "facebook": "None", "youtube": "None", "website": "None", "summary": "None", "logo": "None", "latitude": 46.200366839286836, "longitude": -70.89774638063376}, "863181129RR0001": {"name": "SELAH CHARITABLE TRUST", "designationCode": "B", "categoryCode": "03", "address": "BOX 362, 3219 YONGE STREET", "city": "TORONTO", "province": "ON", "country": "CA", "postalCode": "M4N2L3", "twitter": "None", "instagram": "None", "facebook": "None", "youtube": "None", "website": "None", "summary": "None", "logo": "None", "latitude": 43.72822237330483, "longitude": -79.40298575587182}, "894919141RR0001": {"name": "SELAH MINISTRY", "designationCode": "C", "categoryCode": "49", "address": "1705-2074 ROBIE ST", "city": "HALIFAX", "province": "NS", "country": "CA", "postalCode": "B3K5L3", "twitter": "None", "instagram": "None", "facebook": "None", "youtube": "None", "website": "None", "summary": "None", "logo": "None", "latitude": 44.648577367188, "longitude": -63.591261849875735}, "107966095RR0001": {"name": "SELBY PASTORAL CHARGE", "designationCode": "C", "categoryCode": "44", "address": "153 PLEASANT DRIVE", "city": "SELBY", "province": "ON", "country": "CA", "postalCode": "K0K2Z0", "twitter": "None", "instagram": "None", "facebook": "None", "youtube": "None", "website": "None", "summary": "None", "logo": "None", "latitude": 44.30060374432631, "longitude": -76.98264035248171}, "119144533RR0001": {"name": "SELF HELP AND RECREATION - EDUCATION P.A. INCORPORATED", "designationCode": "C", "categoryCode": "09", "address": "1750 6TH AVE W", "city": "PRINCE ALBERT", "province": "SK", "country": "CA", "postalCode": "S6V7T4", "twitter": "None", "instagram": "None", "facebook": "None", "youtube": "None", "website": "None", "summary": "None", "logo": "None", "latitude": 53.19702000000001, "longitude": -105.76978513540908}, "865265086RR0001": {"name": "SELF-ESTEEM NETWORK OF HAMILTON", "designationCode": "B", "categoryCode": "21", "address": "1063 KING ST WEST             SUITE 302", "city": "HAMILTON", "province": "ON", "country": "CA", "postalCode": "L8S4S3", "twitter": "None", "instagram": "None", "facebook": "None", "youtube": "None", "website": "None", "summary": "None", "logo": "None", "latitude": 43.26108821601672, "longitude": -79.90763926259076}, "136481041RR0001": {"name": "SELF-HELP CONNECTION CLEARINGHOUSE ASSOCIATION", "designationCode": "C", "categoryCode": "09", "address": "101 - 5571 CUNARD ST", "city": "HALIFAX", "province": "NS", "country": "CA", "postalCode": "B3K1C5", "twitter": "None", "instagram": "None", "facebook": "None", "youtube": "None", "website": "None", "summary": "None", "logo": "None", "latitude": 44.652427207888465, "longitude": -63.58680886831316}, "129905469RR0001": {"name": "SELF-HELP RESOURCE CENTRE OF GREATER TORONTO", "designationCode": "C", "categoryCode": "59", "address": "307-40 ST. CLAIR AVE. EAST", "city": "TORONTO", "province": "ON", "country": "CA", "postalCode": "M4T1M9", "twitter": "None", "instagram": "None", "facebook": "None", "youtube": "None", "website": "None", "summary": "None", "logo": "None", "latitude": 43.68851247918197, "longitude": -79.39208759715088}, "119303113RR0001": {"name": "SELFDESIGN LEARNING FOUNDATION", "designationCode": "C", "categoryCode": "20", "address": "PO BOX 74560 KITSILANO RPO", "city": "VANCOUVER", "province": "BC", "country": "CA", "postalCode": "V6K4P4", "twitter": "None", "instagram": "None", "facebook": "None", "youtube": "None", "website": "None", "summary": "None", "logo": "None", "latitude": 49.26220854333842, "longitude": -123.16811099612045}, "897470464RR0001": {"name": "SELKIRK & DISTRICT COMMUNITY FOUNDATION INC.", "designationCode": "A", "categoryCode": "53", "address": "200 EATON AVENUE", "city": "SELKIRK", "province": "MB", "country": "CA", "postalCode": "R1A0W6", "twitter": "None", "instagram": "None", "facebook": "None", "youtube": "None", "website": "None", "summary": "None", "logo": "None", "latitude": 50.14271649818233, "longitude": -96.87149476507575}, "869053082RR0001": {"name": "SELKIRK ABORIGINAL REDEMPTION CENTRE CHURCH (CHURCH OF GOD) INC", "designationCode": "C", "categoryCode": "39", "address": "209 DUFFERIN AVE", "city": "SELKIRK", "province": "MB", "country": "CA", "postalCode": "R1A1B9", "twitter": "None", "instagram": "None", "facebook": "None", "youtube": "None", "website": "None", "summary": "None", "logo": "None", "latitude": 50.14604726029125, "longitude": -96.86727922652378}, "140333956RR0001": {"name": "SELKIRK AND DISTRICT CANADIAN MENTAL HEALTH ASSOCIATION INCORPORATED", "designationCode": "C", "categoryCode": "19", "address": "435 MAIN ST", "city": "SELKIRK", "province": "MB", "country": "CA", "postalCode": "R1A1V4", "twitter": "None", "instagram": "None", "facebook": "None", "youtube": "None", "website": "None", "summary": "None", "logo": "None", "latitude": 50.14610165659329, "longitude": -96.87110507577964}, "892926197RR0001": {"name": "SELKIRK AND DISTRICT COMMUNITY LEARNING CENTRE INC.", "designationCode": "C", "categoryCode": "20", "address": "122-511 ROBINSON AVE", "city": "SELKIRK", "province": "MB", "country": "CA", "postalCode": "R1A1E5", "twitter": "None", "instagram": "None", "facebook": "None", "youtube": "None", "website": "None", "summary": "None", "logo": "None", "latitude": 50.15066325394396, "longitude": -96.87568125685895}, "891043549RR0001": {"name": "SELKIRK AND DISTRICT EMERGENCY RESPONSE SYSTEM", "designationCode": "C", "categoryCode": "09", "address": "310 CHRISTIE AVE", "city": "SELKIRK", "province": "MB", "country": "CA", "postalCode": "R1A2L6", "twitter": "None", "instagram": "None", "facebook": "None", "youtube": "None", "website": "None", "summary": "None", "logo": "None", "latitude": 50.14361809817103, "longitude": -96.87490957614364}, "131931040RR0001": {"name": "SELKIRK AND INTERLAKE MENTAL HEALTH SUPPORT CENTRE INC.", "designationCode": "C", "categoryCode": "11", "address": "242 MANITOBA AVE", "city": "SELKIRK", "province": "MB", "country": "CA", "postalCode": "R1A0Y5", "twitter": "None", "instagram": "None", "facebook": "None", "youtube": "None", "website": "None", "summary": "None", "logo": "None", "latitude": 50.14422033026222, "longitude": -96.87067938172315}, "107966459RR0001": {"name": "SELKIRK BAPTIST CHURCH", "designationCode": "C", "categoryCode": "31", "address": "P.O. BOX 179 GENERAL DELIVERY", "city": "SELKIRK", "province": "ON", "country": "CA", "postalCode": "N0A1P0", "twitter": "None", "instagram": "None", "facebook": "None", "youtube": "None", "website": "None", "summary": "None", "logo": "None", "latitude": 42.82107000000005, "longitude": -79.90264249999993}, "119144582RR0001": {"name": "SELKIRK COLLEGE FOUNDATION", "designationCode": "C", "categoryCode": "21", "address": "301 FRANK BEINDER WAY", "city": "CASTLEGAR", "province": "BC", "country": "CA", "postalCode": "V1N4L3", "twitter": "None", "instagram": "None", "facebook": "None", "youtube": "None", "website": "None", "summary": "None", "logo": "None", "latitude": 49.311057999778996, "longitude": -117.65143239981215}, "107966517RR0001": {"name": "SELKIRK COMMUNITY ARTS CENTRE INC.", "designationCode": "C", "categoryCode": "22", "address": "101-250 MANITOBA AVE", "city": "SELKIRK", "province": "MB", "country": "CA", "postalCode": "R1A0Y5", "twitter": "None", "instagram": "None", "facebook": "None", "youtube": "None", "website": "None", "summary": "None", "logo": "None", "latitude": 50.1443260102091, "longitude": -96.87092118584}, "107966525RR0001": {"name": "SELKIRK COMMUNITY CHURCH, MENNONITE BRETHREN, INC.", "designationCode": "C", "categoryCode": "34", "address": "6569 HWY 9", "city": "ST ANDREWS", "province": "MB", "country": "CA", "postalCode": "R1A4E6", "twitter": "None", "instagram": "None", "facebook": "None", "youtube": "None", "website": "None", "summary": "None", "logo": "None", "latitude": 50.12915277197942, "longitude": -96.93728638978776}, "104778766RR0001": {"name": "SELKIRK DAY CARE INC.", "designationCode": "C", "categoryCode": "01", "address": "#1 HARLEY ROW BOX 212", "city": "SELKIRK", "province": "MB", "country": "CA", "postalCode": "R1A2B2", "twitter": "None", "instagram": "None", "facebook": "None", "youtube": "None", "website": "None", "summary": "None", "logo": "None", "latitude": 50.15573799591527, "longitude": -96.89028137276019}, "133049031RR0001": {"name": "SELKIRK FOOD BANK INC", "designationCode": "C", "categoryCode": "09", "address": "310 CHRISTIE AVENUE", "city": "SELKIRK", "province": "MB", "country": "CA", "postalCode": "R1A2L6", "twitter": "None", "instagram": "None", "facebook": "None", "youtube": "None", "website": "None", "summary": "None", "logo": "None", "latitude": 50.14361809817103, "longitude": -96.87490957614364}, "119144632RR0001": {"name": "SELKIRK FRIENDSHIP CENTRE INC.", "designationCode": "C", "categoryCode": "09", "address": "425 EVELINE STREET", "city": "SELKIRK", "province": "MB", "country": "CA", "postalCode": "R1A2J5", "twitter": "None", "instagram": "None", "facebook": "None", "youtube": "None", "website": "None", "summary": "None", "logo": "None", "latitude": 50.14521718709121, "longitude": -96.8678304931869}, "104779004RR0001": {"name": "SELKIRK NURSERY SCHOOL INC.", "designationCode": "C", "categoryCode": "20", "address": "611-236 CLANDEBOYE AVE", "city": "SELKIRK", "province": "MB", "country": "CA", "postalCode": "R1A0X1", "twitter": "None", "instagram": "None", "facebook": "None", "youtube": "None", "website": "None", "summary": "None", "logo": "None", "latitude": 50.14322717369889, "longitude": -96.87068763173619}, "875119216RR0001": {"name": "SELKIRK WATERFRONT DEVELOPMENT CORPORATION", "designationCode": "C", "categoryCode": "52", "address": "105 OLIVER AVE", "city": "SELKIRK", "province": "MB", "country": "CA", "postalCode": "R1A0C4", "twitter": "None", "instagram": "None", "facebook": "None", "youtube": "None", "website": "None", "summary": "None", "logo": "None", "latitude": 50.1291997751208, "longitude": -96.88045349538181}, "119288918RR0022": {"name": "SELKIRK, MANITOBA, CONGREGATION OF JEHOVAH'S WITNESSES,", "designationCode": "C", "categoryCode": "61", "address": "6 KARLOVAC CRES", "city": "ST.ANDREWS", "province": "MB", "country": "CA", "postalCode": "R1A4C3", "twitter": "None", "instagram": "None", "facebook": "None", "youtube": "None", "website": "None", "summary": "None", "logo": "None", "latitude": 50.1189565603613, "longitude": -96.9174126036701}, "107966749RR0001": {"name": "SELWYN HOUSE ASSOCIATION", "designationCode": "C", "categoryCode": "20", "address": "95 CHEMIN COTE ST-ANTOINE", "city": "WESTMOUNT", "province": "QC", "country": "CA", "postalCode": "H3Y2H8", "twitter": "None", "instagram": "None", "facebook": "None", "youtube": "None", "website": "None", "summary": "None", "logo": "None", "latitude": 45.48584311076791, "longitude": -73.5973385856367}, "119144715RR0001": {"name": "SEMANS CEMETERY ASSOCIATION", "designationCode": "C", "categoryCode": "59", "address": "PO BOX 113", "city": "SEMANS", "province": "SK", "country": "CA", "postalCode": "S0A3S0", "twitter": "None", "instagram": "None", "facebook": "None", "youtube": "None", "website": "None", "summary": "None", "logo": "None", "latitude": 51.40640655802995, "longitude": -104.725602}, "119144731RR0001": {"name": "SEMANS DROP-IN CLUB INC.", "designationCode": "C", "categoryCode": "56", "address": "PO BOX 102", "city": "SEMANS", "province": "SK", "country": "CA", "postalCode": "S0A3S0", "twitter": "None", "instagram": "None", "facebook": "None", "youtube": "None", "website": "None", "summary": "None", "logo": "None", "latitude": 51.40640655802995, "longitude": -104.725602}, "119288918RR1369": {"name": "SEMIAHMOO CONGREGATION OF JEHOVAH'S WITNESSES, WHITE ROCK, BRITISH COLUMBIA", "designationCode": "C", "categoryCode": "61", "address": "10 - 15332 100 AVE", "city": "SURREY", "province": "BC", "country": "CA", "postalCode": "V3R7T8", "twitter": "None", "instagram": "None", "facebook": "None", "youtube": "None", "website": "None", "summary": "None", "logo": "None", "latitude": 49.184228557851114, "longitude": -122.79747163627445}, "133974949RR0001": {"name": "SEMIAHMOO FAMILY PLACE ASSOCIATION", "designationCode": "C", "categoryCode": "56", "address": "17338 0A AVE", "city": "SURREY", "province": "BC", "country": "CA", "postalCode": "V3Z9P3", "twitter": "None", "instagram": "None", "facebook": "None", "youtube": "None", "website": "None", "summary": "None", "logo": "None", "latitude": 49.00296254342439, "longitude": -122.74280999999999}, "119144772RR0001": {"name": "SEMIAHMOO HOUSE SOCIETY", "designationCode": "C", "categoryCode": "09", "address": "15306 24 AVENUE", "city": "SURREY", "province": "BC", "country": "CA", "postalCode": "V4A2J1", "twitter": "None", "instagram": "None", "facebook": "None", "youtube": "None", "website": "None", "summary": "None", "logo": "None", "latitude": 49.04554851067581, "longitude": -122.79816394463037}, "870605789RR0001": {"name": "SEMIAHMOO PENINSULA MARINE RESCUE SOCIETY", "designationCode": "C", "categoryCode": "59", "address": "43 - 15020 27A AVE", "city": "SURREY", "province": "BC", "country": "CA", "postalCode": "V4P2Z9", "twitter": "None", "instagram": "None", "facebook": "None", "youtube": "None", "website": "None", "summary": "None", "logo": "None", "latitude": 49.05178648514058, "longitude": -122.80624102553523}, "871591756RR0001": {"name": "SEMIAHMOO VOLUNTEER COMMUNITY POLICE SOCIETY", "designationCode": "C", "categoryCode": "59", "address": "15299 PACIFIC AVENUE", "city": "WHITE ROCK", "province": "BC", "country": "CA", "postalCode": "V4B1R1", "twitter": "None", "instagram": "None", "facebook": "None", "youtube": "None", "website": "None", "summary": "None", "logo": "None", "latitude": 49.02290702305372, "longitude": -122.79812462432923}, "132397902RR0001": {"name": "SEMINAIRE DE CHICOUTIMI", "designationCode": "C", "categoryCode": "20", "address": "602 RUE RACINE E", "city": "CHICOUTIMI", "province": "QC", "country": "CA", "postalCode": "G7H1V1", "twitter": "None", "instagram": "None", "facebook": "None", "youtube": "None", "website": "None", "summary": "None", "logo": "None", "latitude": 48.42955548009162, "longitude": -71.04963086081135}, "891267817RR0001": {"name": "SEMINAIRE DE NICOLET 2000", "designationCode": "C", "categoryCode": "46", "address": "900 BOUL LOUIS FRECHETTE      BUREAU 110", "city": "NICOLET", "province": "QC", "country": "CA", "postalCode": "J3T1V5", "twitter": "None", "instagram": "None", "facebook": "None", "youtube": "None", "website": "None", "summary": "None", "logo": "None", "latitude": 46.23299394667921, "longitude": -72.61006220993728}, "119144830RR0001": {"name": "SEMINAIRE DE QUEBEC", "designationCode": "C", "categoryCode": "20", "address": "1,DES REMPARTS, CP 460H.V.", "city": "QUEBEC", "province": "QC", "country": "CA", "postalCode": "G1R4R7", "twitter": "None", "instagram": "None", "facebook": "None", "youtube": "None", "website": "None", "summary": "None", "logo": "None", "latitude": 46.814675970334235, "longitude": -71.20407923899188}, "107966905RR0001": {"name": "SEMINAIRE DE SHERBROOKE", "designationCode": "C", "categoryCode": "20", "address": "195 MARQUETTE", "city": "SHERBROOKE", "province": "QC", "country": "CA", "postalCode": "J1H1L6", "twitter": "None", "instagram": "None", "facebook": "None", "youtube": "None", "website": "None", "summary": "None", "logo": "None", "latitude": 45.40273998170681, "longitude": -71.89359966703155}, "119144913RR0001": {"name": "SEMINAIRE DU SACRE-COEUR", "designationCode": "C", "categoryCode": "20", "address": "2738 ROUTE 148", "city": "GRENVILLE-SUR-LA-ROUGE", "province": "QC", "country": "CA", "postalCode": "J0V1B0", "twitter": "None", "instagram": "None", "facebook": "None", "youtube": "None", "website": "None", "summary": "None", "logo": "None", "latitude": 45.64508191112755, "longitude": -74.75170614672572}, "107967002RR0001": {"name": "SEMINAIRE SAINTE-MARIE DE SHAWINIGAN", "designationCode": "C", "categoryCode": "20", "address": "5655 BOUL DES HETRES", "city": "SHAWINIGAN", "province": "QC", "country": "CA", "postalCode": "G9N4V9", "twitter": "None", "instagram": "None", "facebook": "None", "youtube": "None", "website": "None", "summary": "None", "logo": "None", "latitude": 46.57336147573642, "longitude": -72.72625952154888}, "107966947RR0001": {"name": "SEMINAIRE ST-JOSEPH DE TROIS-RIVIERES", "designationCode": "C", "categoryCode": "20", "address": "858 RUE LAVIOLETTE", "city": "TROIS RIVI\u00c8RES", "province": "QC", "country": "CA", "postalCode": "G9A5J1", "twitter": "None", "instagram": "None", "facebook": "None", "youtube": "None", "website": "None", "summary": "None", "logo": "None", "latitude": 46.34869787846938, "longitude": -72.54542115869394}, "870713047RR0001": {"name": "SEMINARY LOAN FUND", "designationCode": "A", "categoryCode": "21", "address": "2195 EKERS", "city": "MONTREAL", "province": "QC", "country": "CA", "postalCode": "H3S1C6", "twitter": "None", "instagram": "None", "facebook": "None", "youtube": "None", "website": "None", "summary": "None", "logo": "None", "latitude": 45.51573315932818, "longitude": -73.62722463601466}, "119145027RR0001": {"name": "SEMINARY OF CHRIST THE KING", "designationCode": "C", "categoryCode": "20", "address": "P.O. BOX 3310", "city": "MISSION", "province": "BC", "country": "CA", "postalCode": "V2V4J5", "twitter": "None", "instagram": "None", "facebook": "None", "youtube": "None", "website": "None", "summary": "None", "logo": "None", "latitude": 49.13294100000006, "longitude": -122.32108249999993}, "890338528RR0001": {"name": "SEMINARY OF URBAN MINISTRIES INC.", "designationCode": "C", "categoryCode": "20", "address": "192 REDVIEW DRIVE", "city": "WINNIPEG", "province": "MB", "country": "CA", "postalCode": "R2N3T9", "twitter": "None", "instagram": "None", "facebook": "None", "youtube": "None", "website": "None", "summary": "None", "logo": "None", "latitude": 49.80015844572691, "longitude": -97.11670905816824}, "135311215RR0001": {"name": "SENACA SENIORS DAY PROGRAM HALTON INC", "designationCode": "C", "categoryCode": "09", "address": "53 BOND ST", "city": "OAKVILLE", "province": "ON", "country": "CA", "postalCode": "L6K1L8", "twitter": "None", "instagram": "None", "facebook": "None", "youtube": "None", "website": "None", "summary": "None", "logo": "None", "latitude": 43.44200280772076, "longitude": -79.67740115788588}, "891435349RR0001": {"name": "SENATOR HILLIARD MCNAB CM MEMORIAL FOUNDATION AND SCHOLARSHIP FUND INC", "designationCode": "C", "categoryCode": "21", "address": "109A-2553 GRASSWOOD ROAD EAST", "city": "SASKATOON", "province": "SK", "country": "CA", "postalCode": "S7T1C8", "twitter": "None", "instagram": "None", "facebook": "None", "youtube": "None", "website": "None", "summary": "None", "logo": "None", "latitude": 52.05644215396947, "longitude": -106.663522532918}, "829227883RR0001": {"name": "SEND 'EM OFF SMILING CHILDREN'S CHARITY", "designationCode": "C", "categoryCode": "01", "address": "P.O. BOX 333", "city": "KITCHENER", "province": "ON", "country": "CA", "postalCode": "N2G3Y9", "twitter": "None", "instagram": "None", "facebook": "None", "youtube": "None", "website": "None", "summary": "None", "logo": "None", "latitude": 43.45123200000006, "longitude": -80.49304249999993}}