{"855786240RR0001": {"name": "MIRE (LE MOUVEMENT POUR L'INTEGRATION ET LA RETENTION EN EMPLOI)", "designationCode": "C", "categoryCode": "59", "address": "865, SQUARE RICHMOND", "city": "MONTREAL", "province": "QC", "country": "CA", "postalCode": "H3J1V8", "twitter": "None", "instagram": "None", "facebook": "None", "youtube": "None", "website": "None", "summary": "None", "logo": "None", "latitude": 45.49185603398467, "longitude": -73.57274994790104}, "126154459RR0001": {"name": "MIREPI, MAISON D'HEBERGEMENT INC", "designationCode": "C", "categoryCode": "09", "address": "C.P. 5026", "city": "ST-RAYMOND", "province": "QC", "country": "CA", "postalCode": "G3L4R8", "twitter": "None", "instagram": "None", "facebook": "None", "youtube": "None", "website": "None", "summary": "None", "logo": "None", "latitude": 46.912938000000054, "longitude": -71.81406799999993}, "876121625RR0001": {"name": "MIRIAM CENTRE FOR MOTHERS IN NEED FOUNDATION / LA FONDATION DU CENTRE MIRIAM POUR MERES DANS LE BESOIN", "designationCode": "A", "categoryCode": "03", "address": "2742 ST. JOSEPH BLVD          SUITE 030", "city": "ORLEANS", "province": "ON", "country": "CA", "postalCode": "K1C1G5", "twitter": "None", "instagram": "None", "facebook": "None", "youtube": "None", "website": "None", "summary": "None", "logo": "None", "latitude": 45.47257580995969, "longitude": -75.52181933650695}, "119042091RR0001": {"name": "MIRIAM CENTRE FOR MOTHERS IN NEED OF OTTAWA CARLETON INC.", "designationCode": "C", "categoryCode": "09", "address": "2742 ST JOSEPH BLVD STE 030", "city": "ORLEANS", "province": "ON", "country": "CA", "postalCode": "K1C1G5", "twitter": "None", "instagram": "None", "facebook": "None", "youtube": "None", "website": "None", "summary": "None", "logo": "None", "latitude": 45.47257580995969, "longitude": -75.52181933650695}, "107706111RR0001": {"name": "MIRROR ALLIANCE CHURCH", "designationCode": "C", "categoryCode": "39", "address": "BOX 131", "city": "MIRROR", "province": "AB", "country": "CA", "postalCode": "T0B3C0", "twitter": "None", "instagram": "None", "facebook": "None", "youtube": "None", "website": "None", "summary": "None", "logo": "None", "latitude": 52.46324000000004, "longitude": -113.11403999999999}, "106693047RR0032": {"name": "MIRROR SEVENTH-DAY ADVENTIST CHURCH", "designationCode": "C", "categoryCode": "41", "address": "5816 HIGHWAY, 2A", "city": "LACOMBE", "province": "AB", "country": "CA", "postalCode": "T4L2G5", "twitter": "None", "instagram": "None", "facebook": "None", "youtube": "None", "website": "None", "summary": "None", "logo": "None", "latitude": 52.474063600197404, "longitude": -113.71692568401835}, "119042141RR0001": {"name": "MIRROR UNITED CHURCH", "designationCode": "C", "categoryCode": "44", "address": "BOX 261", "city": "MIRROR", "province": "AB", "country": "CA", "postalCode": "T0B3C0", "twitter": "None", "instagram": "None", "facebook": "None", "youtube": "None", "website": "None", "summary": "None", "logo": "None", "latitude": 52.46324000000004, "longitude": -113.11403999999999}, "897785812RR0001": {"name": "MISCELLANEOUS PRODUCTIONS SOCIETY", "designationCode": "C", "categoryCode": "22", "address": "309-1016 E 8TH AVENUE", "city": "VANCOUVER", "province": "BC", "country": "CA", "postalCode": "V5T1T9", "twitter": "None", "instagram": "None", "facebook": "None", "youtube": "None", "website": "None", "summary": "None", "logo": "None", "latitude": 49.26334448845881, "longitude": -123.08288336081135}, "119042158RR0001": {"name": "MISCOU MISSION FIELD", "designationCode": "C", "categoryCode": "44", "address": "365 MISCOU HARBOUR RD.", "city": "MISCOU", "province": "NB", "country": "CA", "postalCode": "E8T2E7", "twitter": "None", "instagram": "None", "facebook": "None", "youtube": "None", "website": "None", "summary": "None", "logo": "None", "latitude": 47.9105422910659, "longitude": -64.5926056065765}, "131518326RR0001": {"name": "MISE AU JEU MONTREAL, ANIMATION THEATRALE ET DYNAMIQUE DE GROUPE", "designationCode": "C", "categoryCode": "22", "address": "5055-A RUE RIVARD", "city": "MONTREAL", "province": "QC", "country": "CA", "postalCode": "H2J2N9", "twitter": "None", "instagram": "None", "facebook": "None", "youtube": "None", "website": "None", "summary": "None", "logo": "None", "latitude": 45.52725212268445, "longitude": -73.58848179127482}, "119042182RR0001": {"name": "MISERICORDIA GENERAL HOSPITAL", "designationCode": "C", "categoryCode": "10", "address": "99 CORNISH AVENUE", "city": "WINNIPEG", "province": "MB", "country": "CA", "postalCode": "R3C1A2", "twitter": "None", "instagram": "None", "facebook": "None", "youtube": "None", "website": "None", "summary": "None", "logo": "None", "latitude": 49.878933955037134, "longitude": -97.16045983714248}, "891914186RR0001": {"name": "MISERICORDIA GENERAL HOSPITAL EMPLOYEES CHARITY TRUST", "designationCode": "B", "categoryCode": "75", "address": "99 CORNISH AVE", "city": "WINNIPEG", "province": "MB", "country": "CA", "postalCode": "R3C1A2", "twitter": "None", "instagram": "None", "facebook": "None", "youtube": "None", "website": "None", "summary": "None", "logo": "None", "latitude": 49.878933955037134, "longitude": -97.16045983714248}, "119042174RR0001": {"name": "MISERICORDIA HEALTH CENTRE FOUNDATION INC.", "designationCode": "A", "categoryCode": "13", "address": "99 CORNISH AVE", "city": "WINNIPEG", "province": "MB", "country": "CA", "postalCode": "R3C1A2", "twitter": "None", "instagram": "None", "facebook": "None", "youtube": "None", "website": "None", "summary": "None", "logo": "None", "latitude": 49.878933955037134, "longitude": -97.16045983714248}, "797589926RR0001": {"name": "MISERICORDIA MISSION FUND INC.", "designationCode": "C", "categoryCode": "09", "address": "PO BOX 1757 WATERFORD BRIDGE", "city": "ST JOHN'S", "province": "NL", "country": "CA", "postalCode": "A1C5P5", "twitter": "None", "instagram": "None", "facebook": "None", "youtube": "None", "website": "None", "summary": "None", "logo": "None", "latitude": 47.56082100000006, "longitude": -52.71219349999993}, "880423314RR0001": {"name": "MISHKAOWJIWAN: THE NATIVE CENTRE FOUNDATION", "designationCode": "B", "categoryCode": "03", "address": "16 SPADINA ROAD", "city": "TORONTO", "province": "ON", "country": "CA", "postalCode": "M5R2S7", "twitter": "None", "instagram": "None", "facebook": "None", "youtube": "None", "website": "None", "summary": "None", "logo": "None", "latitude": 43.6682408948007, "longitude": -79.404514456056}, "119042232RR0001": {"name": "MISHMERET", "designationCode": "C", "categoryCode": "21", "address": "24 FAIRHOLME AVENUE", "city": "TORONTO", "province": "ON", "country": "CA", "postalCode": "M6B2W5", "twitter": "None", "instagram": "None", "facebook": "None", "youtube": "None", "website": "None", "summary": "None", "logo": "None", "latitude": 43.71802211408612, "longitude": -79.4315085133302}, "803068741RR0001": {"name": "MISION CRISTIANA MAHANAIM", "designationCode": "C", "categoryCode": "39", "address": "91 MADISON AVENUE SOUTH", "city": "KITCHENER", "province": "ON", "country": "CA", "postalCode": "N2G3M4", "twitter": "None", "instagram": "None", "facebook": "None", "youtube": "None", "website": "None", "summary": "None", "logo": "None", "latitude": 43.444331487362284, "longitude": -80.48419832970754}, "882914427RR0001": {"name": "MISION CRISTIANA VOZ DE RESTAURACION", "designationCode": "C", "categoryCode": "39", "address": "87 DINISON CRES", "city": "KITCHENER", "province": "ON", "country": "CA", "postalCode": "N2E2S6", "twitter": "None", "instagram": "None", "facebook": "None", "youtube": "None", "website": "None", "summary": "None", "logo": "None", "latitude": 43.41182125561203, "longitude": -80.50508476507576}, "138905039RR0001": {"name": "MISIWAY MILOPEMAHTESEWIN COMMUNITY HEALTH CENTRE", "designationCode": "C", "categoryCode": "20", "address": "130 WILSON AVE", "city": "TIMMINS", "province": "ON", "country": "CA", "postalCode": "P4N2S9", "twitter": "None", "instagram": "None", "facebook": "None", "youtube": "None", "website": "None", "summary": "None", "logo": "None", "latitude": 48.475481167756556, "longitude": -81.33826641146345}, "119042257RR0001": {"name": "MISS ALICE BATHO SCHOLARSHIP FUND", "designationCode": "C", "categoryCode": "21", "address": "PO BOX 1660", "city": "ATIKOKAN", "province": "ON", "country": "CA", "postalCode": "P0T1C0", "twitter": "None", "instagram": "None", "facebook": "None", "youtube": "None", "website": "None", "summary": "None", "logo": "None", "latitude": 48.78243202695454, "longitude": -91.62784818644623}, "107706392RR0001": {"name": "MISSING CHILDREN SOCIETY OF CANADA", "designationCode": "C", "categoryCode": "59", "address": "219-3501 23 ST NE", "city": "CALGARY", "province": "AB", "country": "CA", "postalCode": "T2E6V8", "twitter": "None", "instagram": "None", "facebook": "None", "youtube": "None", "website": "None", "summary": "None", "logo": "None", "latitude": 51.08292900000001, "longitude": -114.00514622525804}, "807544945RR0001": {"name": "MISSING LINK CANCER RESEARCH FOUNDATION", "designationCode": "A", "categoryCode": "13", "address": "2600 SKYMARK AVE              BUILDING #10, SUITE 102", "city": "MISSISSAUGA", "province": "ON", "country": "CA", "postalCode": "L4W5B2", "twitter": "None", "instagram": "None", "facebook": "None", "youtube": "None", "website": "None", "summary": "None", "logo": "None", "latitude": 43.65846057865447, "longitude": -79.59871498066852}, "134082163RR0001": {"name": "MISSION & DISTRICT SENIOR CITIZENS HOUSING ASSOCIATION", "designationCode": "C", "categoryCode": "09", "address": "7380 HURD ST", "city": "MISSION", "province": "BC", "country": "CA", "postalCode": "V2V3H5", "twitter": "None", "instagram": "None", "facebook": "None", "youtube": "None", "website": "None", "summary": "None", "logo": "None", "latitude": 49.136263459893826, "longitude": -122.33266967978577}, "891806176RR0001": {"name": "MISSION - DARD SEARCH & RESCUE SOCIETY", "designationCode": "C", "categoryCode": "09", "address": "PO BOX 20003                  RPO STN MISSION HILLS", "city": "MISSION", "province": "BC", "country": "CA", "postalCode": "V2V7P8", "twitter": "None", "instagram": "None", "facebook": "None", "youtube": "None", "website": "None", "summary": "None", "logo": "None", "latitude": 49.13108550000002, "longitude": -122.3134605}, "865356836RR0001": {"name": "MISSION ACCOMPLISHED MINISTRIES", "designationCode": "C", "categoryCode": "39", "address": "48 - 100 KALAMALKA LAKE RD", "city": "VERNON", "province": "BC", "country": "CA", "postalCode": "V1T9G1", "twitter": "None", "instagram": "None", "facebook": "None", "youtube": "None", "website": "None", "summary": "None", "logo": "None", "latitude": 50.23873364086209, "longitude": -119.26644732283997}, "107706418RR0001": {"name": "MISSION ALLIANCE CHURCH", "designationCode": "C", "categoryCode": "39", "address": "34203 DEWDNEY TRUNK RD RR 5", "city": "MISSION", "province": "BC", "country": "CA", "postalCode": "V2V6Y5", "twitter": "None", "instagram": "None", "facebook": "None", "youtube": "None", "website": "None", "summary": "None", "logo": "None", "latitude": 49.158159458306365, "longitude": -122.27663080252754}, "868245341RR0001": {"name": "MISSION ART & VIE", "designationCode": "C", "categoryCode": "47", "address": "678 BRODEUR #4", "city": "LONGUEUIL", "province": "QC", "country": "CA", "postalCode": "J4J2S8", "twitter": "None", "instagram": "None", "facebook": "None", "youtube": "None", "website": "None", "summary": "None", "logo": "None", "latitude": 45.53574256036127, "longitude": -73.47155854896431}, "107706574RR0001": {"name": "MISSION ASSOCIATION FOR COMMUNITY LIVING", "designationCode": "C", "categoryCode": "11", "address": "33345 SECOND AVENUE", "city": "MISSION", "province": "BC", "country": "CA", "postalCode": "V2V1K4", "twitter": "None", "instagram": "None", "facebook": "None", "youtube": "None", "website": "None", "summary": "None", "logo": "None", "latitude": 49.13538198734128, "longitude": -122.3012413340483}, "877082529RR0001": {"name": "MISSION ASSOCIATION FOR SENIORS' HOUSING", "designationCode": "C", "categoryCode": "09", "address": "7380 HURD STREET", "city": "MISSION", "province": "BC", "country": "CA", "postalCode": "V2V3H9", "twitter": "None", "instagram": "None", "facebook": "None", "youtube": "None", "website": "None", "summary": "None", "logo": "None", "latitude": 49.136263459893826, "longitude": -122.33266967978577}, "129942561RR0001": {"name": "MISSION AVIATION FELLOWSHIP OF CANADA", "designationCode": "C", "categoryCode": "49", "address": "PO BOX 368 264 WOODLAWN RD W", "city": "GUELPH", "province": "ON", "country": "CA", "postalCode": "N1H6K5", "twitter": "None", "instagram": "None", "facebook": "None", "youtube": "None", "website": "None", "summary": "None", "logo": "None", "latitude": 43.55197084064318, "longitude": -80.29539537503652}, "138294848RR0001": {"name": "MISSION BAPTIST CHURCH", "designationCode": "C", "categoryCode": "31", "address": "PO BOX #9", "city": "BROWNSVILLE", "province": "ON", "country": "CA", "postalCode": "N0L1C0", "twitter": "None", "instagram": "None", "facebook": "None", "youtube": "None", "website": "None", "summary": "None", "logo": "None", "latitude": 42.862808830650735, "longitude": -80.8396254761726}, "853929537RR0001": {"name": "MISSION BAPTIST CHURCH INC.", "designationCode": "C", "categoryCode": "31", "address": "771 SARGENT AVE", "city": "WINNIPEG", "province": "MB", "country": "CA", "postalCode": "R3E0B5", "twitter": "None", "instagram": "None", "facebook": "None", "youtube": "None", "website": "None", "summary": "None", "logo": "None", "latitude": 49.89681252264971, "longitude": -97.16672900138497}, "776169898RR0001": {"name": "MISSION BAPTIST CHURCH-HAMILTON", "designationCode": "C", "categoryCode": "31", "address": "100 NORTH OVAL", "city": "HAMILTON", "province": "ON", "country": "CA", "postalCode": "L8S3Z1", "twitter": "None", "instagram": "None", "facebook": "None", "youtube": "None", "website": "None", "summary": "None", "logo": "None", "latitude": 43.26206075105307, "longitude": -79.90735581490546}, "801323742RR0001": {"name": "MISSION BAPTIST INTERNATIONAL FOUNDATION INC.", "designationCode": "C", "categoryCode": "39", "address": "771 SARGENT AVE", "city": "WINNIPEG", "province": "MB", "country": "CA", "postalCode": "R3E0B5", "twitter": "None", "instagram": "None", "facebook": "None", "youtube": "None", "website": "None", "summary": "None", "logo": "None", "latitude": 49.89681252264971, "longitude": -97.16672900138497}, "107706772RR0001": {"name": "MISSION BIBLE FELLOWSHIP", "designationCode": "C", "categoryCode": "39", "address": "33479-8TH AVE", "city": "MISSION", "province": "BC", "country": "CA", "postalCode": "V2V2H4", "twitter": "None", "instagram": "None", "facebook": "None", "youtube": "None", "website": "None", "summary": "None", "logo": "None", "latitude": 49.140717315158895, "longitude": -122.297291010848}, "108195215RR0001": {"name": "MISSION BON ACCUEIL WELCOME HALL MISSION", "designationCode": "C", "categoryCode": "47", "address": "606 DE COURCELLE", "city": "MONTREAL", "province": "QC", "country": "CA", "postalCode": "H4C3L6", "twitter": "None", "instagram": "None", "facebook": "None", "youtube": "None", "website": "None", "summary": "None", "logo": "None", "latitude": 45.47355294165887, "longitude": -73.59057484924057}, "119042760RR0001": {"name": "MISSION CATHOLIQUE ESPAGNOLE (MONTREAL)", "designationCode": "C", "categoryCode": "38", "address": "1420 RUE BELANGER", "city": "MONTREAL", "province": "QC", "country": "CA", "postalCode": "H2G1A4", "twitter": "None", "instagram": "None", "facebook": "None", "youtube": "None", "website": "None", "summary": "None", "logo": "None", "latitude": 45.54409512655096, "longitude": -73.60554926031523}, "892635723RR0001": {"name": "MISSION CATHOLIQUE ITALIENNE DE L'ANNUNZIATA", "designationCode": "C", "categoryCode": "39", "address": "4360 RUE BROADWAY", "city": "LACHINE", "province": "QC", "country": "CA", "postalCode": "H8T1V2", "twitter": "None", "instagram": "None", "facebook": "None", "youtube": "None", "website": "None", "summary": "None", "logo": "None", "latitude": 45.43658748268774, "longitude": -73.70376285804139}, "130270358RR0001": {"name": "MISSION CATHOLIQUE LATINO-AMERICAINE (MONTREAL)", "designationCode": "C", "categoryCode": "38", "address": "2020, RUE DE BORDEAUX", "city": "MONTR\u00c9AL", "province": "QC", "country": "CA", "postalCode": "H2K3Y5", "twitter": "None", "instagram": "None", "facebook": "None", "youtube": "None", "website": "None", "summary": "None", "logo": "None", "latitude": 45.52773689895564, "longitude": -73.55838627090414}, "119042612RR0001": {"name": "MISSION CATHOLIQUE NOTRE-DAME-D'HAITI", "designationCode": "C", "categoryCode": "38", "address": "10946 BOULEVARD SAINT-VITAL", "city": "MONTR\u00c9AL", "province": "QC", "country": "CA", "postalCode": "H1H4T4", "twitter": "None", "instagram": "None", "facebook": "None", "youtube": "None", "website": "None", "summary": "None", "logo": "None", "latitude": 45.5884103100007, "longitude": -73.64447510384299}, "890079395RR0001": {"name": "MISSION CATHOLIQUE PHILIPPINE DE MONTREAL", "designationCode": "C", "categoryCode": "38", "address": "8500 BOUL SAINT-LAURENT", "city": "MONTREAL", "province": "QC", "country": "CA", "postalCode": "H2P2M8", "twitter": "None", "instagram": "None", "facebook": "None", "youtube": "None", "website": "None", "summary": "None", "logo": "None", "latitude": 45.54079705297503, "longitude": -73.63803871192783}, "896183092RR0001": {"name": "MISSION CATHOLIQUE PORTUGAISE DU SAINT-ESPRIT", "designationCode": "C", "categoryCode": "38", "address": "13 RUE SAINTE-BERNADETTE", "city": "GATINEAU", "province": "QC", "country": "CA", "postalCode": "J8X2C3", "twitter": "None", "instagram": "None", "facebook": "None", "youtube": "None", "website": "None", "summary": "None", "logo": "None", "latitude": 45.427475019735496, "longitude": -75.72361863962134}, "867612491RR0001": {"name": "MISSION CENTRE CHURCH", "designationCode": "C", "categoryCode": "39", "address": "5075 YONGE STREET SUITE 803", "city": "TORONTO", "province": "ON", "country": "CA", "postalCode": "M2N6C6", "twitter": "None", "instagram": "None", "facebook": "None", "youtube": "None", "website": "None", "summary": "None", "logo": "None", "latitude": 43.76754115072984, "longitude": -79.4120487320387}, "140532813RR0001": {"name": "MISSION CHEZ-NOUS", "designationCode": "A", "categoryCode": "43", "address": "100 - 915 BOUL RENE-LEVESQUE O", "city": "QUEBEC", "province": "QC", "country": "CA", "postalCode": "G1S1T8", "twitter": "None", "instagram": "None", "facebook": "None", "youtube": "None", "website": "None", "summary": "None", "logo": "None", "latitude": 46.79678930694229, "longitude": -71.23967977182777}, "868448366RR0001": {"name": "MISSION CHR\u00c9TIENNE FONTAINE DE VIE", "designationCode": "C", "categoryCode": "39", "address": "1789 RUE SAINTE-H\u00c9L\u00c8NE", "city": "LONGUEIL", "province": "QC", "country": "CA", "postalCode": "J4K3T2", "twitter": "None", "instagram": "None", "facebook": "None", "youtube": "None", "website": "None", "summary": "None", "logo": "None", "latitude": 45.51596175327477, "longitude": -73.49286464403608}, "118896562RR0001": {"name": "MISSION CHR\u00c9TIENNE INTERCULTURELLE CANADA", "designationCode": "C", "categoryCode": "39", "address": "5560 RUE CHAUVEAU", "city": "MONTR\u00c9AL", "province": "QC", "country": "CA", "postalCode": "H1N1G9", "twitter": "None", "instagram": "None", "facebook": "None", "youtube": "None", "website": "None", "summary": "None", "logo": "None", "latitude": 45.57071665554862, "longitude": -73.54724508321345}, "886938794RR0001": {"name": "MISSION CHRETIENNE A LA CROIX (1986) INC", "designationCode": "C", "categoryCode": "49", "address": "615 IMP EUGENE-TREMBLAY", "city": "SAINT-HYACINTHE", "province": "QC", "country": "CA", "postalCode": "J2S0E7", "twitter": "None", "instagram": "None", "facebook": "None", "youtube": "None", "website": "None", "summary": "None", "logo": "None", "latitude": 45.629473190951586, "longitude": -72.94452342936694}, "118818491RR0022": {"name": "MISSION CITY SEVENTH-DAY ADVENTIST CHURCH", "designationCode": "C", "categoryCode": "41", "address": "PO 1000", "city": "ABBOTSFORD", "province": "BC", "country": "CA", "postalCode": "V2S4P5", "twitter": "None", "instagram": "None", "facebook": "None", "youtube": "None", "website": "None", "summary": "None", "logo": "None", "latitude": 49.03851300000005, "longitude": -122.29441549999993}, "888195468RR0001": {"name": "MISSION COMMERCIALE ING\u00c9NIERIE SHERBROOKE", "designationCode": "C", "categoryCode": "21", "address": "FACULTE DE GENIE, C1-2045     2500, BOUL. DE L'UNIVERSITE", "city": "SHERBROOKE", "province": "QC", "country": "CA", "postalCode": "J1K2R1", "twitter": "None", "instagram": "None", "facebook": "None", "youtube": "None", "website": "None", "summary": "None", "logo": "None", "latitude": 45.384726481048396, "longitude": -71.92468633690702}, "866243223RR0001": {"name": "MISSION COMMUNAUTAIRE MILE-END/MILE-END COMMUNITY MISSION", "designationCode": "C", "categoryCode": "09", "address": "99 BERNARD STREET OUEST", "city": "MONTREAL", "province": "QC", "country": "CA", "postalCode": "H2T2J9", "twitter": "None", "instagram": "None", "facebook": "None", "youtube": "None", "website": "None", "summary": "None", "logo": "None", "latitude": 45.52634252567945, "longitude": -73.60315650403936}, "107706723RR0001": {"name": "MISSION COMMUNITY SERVICES SOCIETY", "designationCode": "C", "categoryCode": "59", "address": "33179 2ND AVE", "city": "MISSION", "province": "BC", "country": "CA", "postalCode": "V2V1J9", "twitter": "None", "instagram": "None", "facebook": "None", "youtube": "None", "website": "None", "summary": "None", "logo": "None", "latitude": 49.135389305800366, "longitude": -122.30517201179984}, "825051360RR0001": {"name": "MISSION CONTACT", "designationCode": "C", "categoryCode": "47", "address": "17601 RUE SAINT-LUC", "city": "MIRABEL", "province": "QC", "country": "CA", "postalCode": "J7J1C8", "twitter": "None", "instagram": "None", "facebook": "None", "youtube": "None", "website": "None", "summary": "None", "logo": "None", "latitude": 45.70623863226376, "longitude": -73.93367160257358}, "141673699RR0001": {"name": "MISSION CORAIL-HA\u00cfTI QU\u00c9BEC INC.", "designationCode": "C", "categoryCode": "47", "address": "500 8E AVENUE", "city": "QU\u00c9BEC", "province": "QC", "country": "CA", "postalCode": "G1J3L7", "twitter": "None", "instagram": "None", "facebook": "None", "youtube": "None", "website": "None", "summary": "None", "logo": "None", "latitude": 46.8252402309422, "longitude": -71.2225983396622}, "118978535RR0001": {"name": "MISSION CREEK ALLIANCE CHURCH", "designationCode": "C", "categoryCode": "39", "address": "2091 SPRINGFIELD RD", "city": "KELOWNA", "province": "BC", "country": "CA", "postalCode": "V1Y7X1", "twitter": "None", "instagram": "None", "facebook": "None", "youtube": "None", "website": "None", "summary": "None", "logo": "None", "latitude": 49.87719446624181, "longitude": -119.44427047446477}, "119288918RR0844": {"name": "MISSION CREEK CONGREGATION OF JEHOVAH'S WITNESSES", "designationCode": "C", "categoryCode": "61", "address": "2160 WILKINSON RD", "city": "KELOWNA", "province": "BC", "country": "CA", "postalCode": "V1Y3Z8", "twitter": "None", "instagram": "None", "facebook": "None", "youtube": "None", "website": "None", "summary": "None", "logo": "None", "latitude": 49.87564166472387, "longitude": -119.47158265782762}, "891494767RR0001": {"name": "MISSION D'\u00c9VANG\u00c9LISATION INTERNATIONALE (\u00c9QUIPE WALTER DE SOUSA) / MISSION EVANGELISM INTERNATIONAL (WALTER DE SOUSA TEAM)", "designationCode": "C", "categoryCode": "47", "address": "CP 60061", "city": "BOISBRIAND", "province": "QC", "country": "CA", "postalCode": "J7G3G4", "twitter": "None", "instagram": "None", "facebook": "None", "youtube": "None", "website": "None", "summary": "None", "logo": "None", "latitude": 45.61253700000006, "longitude": -73.83882049999994}, "119042695RR0001": {"name": "MISSION DE L'ESPRIT SAINT", "designationCode": "C", "categoryCode": "39", "address": "1551 RUE EVERETT", "city": "MONTREAL", "province": "QC", "country": "CA", "postalCode": "H2E1N4", "twitter": "None", "instagram": "None", "facebook": "None", "youtube": "None", "website": "None", "summary": "None", "logo": "None", "latitude": 45.548460596456756, "longitude": -73.61149788470179}, "841454747RR0001": {"name": "MISSION DE L'OUEST DE L'ILE - WEST ISLAND MISSION", "designationCode": "C", "categoryCode": "09", "address": "CP 46539 CSP BOUL. ST-JEAN", "city": "PIERREFONDS", "province": "QC", "country": "CA", "postalCode": "H9H5G9", "twitter": "None", "instagram": "None", "facebook": "None", "youtube": "None", "website": "None", "summary": "None", "logo": "None"}, "119042745RR0001": {"name": "MISSION DISTRICT HISTORICAL SOCIETY", "designationCode": "C", "categoryCode": "50", "address": "33201-2ND AVE.", "city": "MISSION", "province": "BC", "country": "CA", "postalCode": "V2V1J9", "twitter": "None", "instagram": "None", "facebook": "None", "youtube": "None", "website": "None", "summary": "None", "logo": "None", "latitude": 49.135389625410085, "longitude": -122.3047065165343}, "134119924RR0001": {"name": "MISSION DU GRAND BERGER / MISSION OF THE GREAT SHEPHERD", "designationCode": "C", "categoryCode": "09", "address": "CP 297 SUCC WESTMOUNT", "city": "MONTREAL", "province": "QC", "country": "CA", "postalCode": "H3Z2T2", "twitter": "None", "instagram": "None", "facebook": "None", "youtube": "None", "website": "None", "summary": "None", "logo": "None", "latitude": 45.48496200000005, "longitude": -73.59658099999993}, "865759500RR0001": {"name": "MISSION EGLISE DE DIEU DE LA FRATERNITE", "designationCode": "C", "categoryCode": "47", "address": "8130 RUE CHAMP D'EAU", "city": "SAINT-LEONARD", "province": "QC", "country": "CA", "postalCode": "H1P1Y3", "twitter": "None", "instagram": "None", "facebook": "None", "youtube": "None", "website": "None", "summary": "None", "logo": "None", "latitude": 45.60012074574428, "longitude": -73.57937156760329}, "862609674RR0001": {"name": "MISSION EL SALVADOR", "designationCode": "B", "categoryCode": "09", "address": "215 RANG SAINTE-EVELYNE", "city": "ST GEORGES COMT\u00c9 BEAUCE", "province": "QC", "country": "CA", "postalCode": "G5Z0J7", "twitter": "None", "instagram": "None", "facebook": "None", "youtube": "None", "website": "None", "summary": "None", "logo": "None", "latitude": 46.06361700000005, "longitude": -70.72339399999993}, "895306199RR0001": {"name": "MISSION EVANGELIQUE DU CHRISTIANISME", "designationCode": "C", "categoryCode": "47", "address": "9366 2E AVE", "city": "MONTREAL", "province": "QC", "country": "CA", "postalCode": "H1Z2T1", "twitter": "None", "instagram": "None", "facebook": "None", "youtube": "None", "website": "None", "summary": "None", "logo": "None", "latitude": 45.571023724104215, "longitude": -73.63560164031384}, "882613029RR0001": {"name": "MISSION EVANGELIQUE EL-ELOHE ISRAEL", "designationCode": "C", "categoryCode": "39", "address": "4592, RUE SAINTE-CATHERINE EST", "city": "MONTREAL", "province": "QC", "country": "CA", "postalCode": "H1V1Y7", "twitter": "None", "instagram": "None", "facebook": "None", "youtube": "None", "website": "None", "summary": "None", "logo": "None", "latitude": 45.553542936436074, "longitude": -73.53214222687416}, "865476980RR0001": {"name": "MISSION EVANGELIQUE FEMME SAMARITAINE (M E F S)", "designationCode": "C", "categoryCode": "47", "address": "95 BOUL VANIER", "city": "CHATEAUGUAY", "province": "QC", "country": "CA", "postalCode": "J6J3X8", "twitter": "None", "instagram": "None", "facebook": "None", "youtube": "None", "website": "None", "summary": "None", "logo": "None", "latitude": 45.36801532223438, "longitude": -73.73845678270513}, "122594633RR0001": {"name": "MISSION FOCUS", "designationCode": "C", "categoryCode": "39", "address": "RR1 BOX 1 COMP. 2", "city": "BLIND RIVER", "province": "ON", "country": "CA", "postalCode": "P0R1B0", "twitter": "None", "instagram": "None", "facebook": "None", "youtube": "None", "website": "None", "summary": "None", "logo": "None", "latitude": 46.18674000000004, "longitude": -82.95378999999997}, "128544509RR0001": {"name": "MISSION FOLK MUSIC FESTIVAL SOCIETY", "designationCode": "C", "categoryCode": "22", "address": "PO BOX 3125", "city": "MISSION", "province": "BC", "country": "CA", "postalCode": "V2V4J3", "twitter": "None", "instagram": "None", "facebook": "None", "youtube": "None", "website": "None", "summary": "None", "logo": "None", "latitude": 49.13294100000006, "longitude": -122.32108249999993}, "886359702RR0001": {"name": "MISSION FOOD BANK", "designationCode": "C", "categoryCode": "09", "address": "26 ERIE AVENUE                BOX 265", "city": "PORT ROWAN", "province": "ON", "country": "CA", "postalCode": "N0E1M0", "twitter": "None", "instagram": "None", "facebook": "None", "youtube": "None", "website": "None", "summary": "None", "logo": "None", "latitude": 42.62663268304575, "longitude": -80.45026685178033}, "119042802RR0001": {"name": "MISSION FOR ADVANCING THEOLOGICAL EDUCATION", "designationCode": "C", "categoryCode": "47", "address": "P.O. BOX 20060                2900 WARDEN AVE", "city": "SCARBOROUGH", "province": "ON", "country": "CA", "postalCode": "M1W4B6", "twitter": "None", "instagram": "None", "facebook": "None", "youtube": "None", "website": "None", "summary": "None", "logo": "None", "latitude": 43.79846671998633, "longitude": -79.31660975219654}, "107706806RR0001": {"name": "MISSION GARDENS PLAY CENTRE INC.", "designationCode": "C", "categoryCode": "01", "address": "95 BOURNAIS DR", "city": "WINNIPEG", "province": "MB", "country": "CA", "postalCode": "R2C3Z2", "twitter": "None", "instagram": "None", "facebook": "None", "youtube": "None", "website": "None", "summary": "None", "logo": "None", "latitude": 49.89008153984638, "longitude": -97.04218568855606}, "119042844RR0001": {"name": "MISSION GRECQUE - MELKITE CATHOLIQUE SAINT-JEAN CHRYSOSTOME", "designationCode": "C", "categoryCode": "38", "address": "2840 LAMBERVILLE APT. 202", "city": "QU\u00c9BEC", "province": "QC", "country": "CA", "postalCode": "G1V1B7", "twitter": "None", "instagram": "None", "facebook": "None", "youtube": "None", "website": "None", "summary": "None", "logo": "None", "latitude": 46.78115527728079, "longitude": -71.30784618194922}, "119042851RR0001": {"name": "MISSION GUR SIKH SOCIETY", "designationCode": "C", "categoryCode": "62", "address": "PO BOX 3107", "city": "MISSION", "province": "BC", "country": "CA", "postalCode": "V2V4J3", "twitter": "None", "instagram": "None", "facebook": "None", "youtube": "None", "website": "None", "summary": "None", "logo": "None", "latitude": 49.13294100000006, "longitude": -122.32108249999993}, "890475247RR0001": {"name": "MISSION HEALTH CARE AUXILIARY SOCIETY", "designationCode": "A", "categoryCode": "15", "address": "7324 HURD ST", "city": "MISSION", "province": "BC", "country": "CA", "postalCode": "V2V3H5", "twitter": "None", "instagram": "None", "facebook": "None", "youtube": "None", "website": "None", "summary": "None", "logo": "None", "latitude": 49.135365298799805, "longitude": -122.33265421320216}, "119245587RR0001": {"name": "MISSION HERITAGE ASSOCIATION", "designationCode": "C", "categoryCode": "52", "address": "PO BOX 3341  STN MAIN         7494 MARY ST.", "city": "MISSION", "province": "BC", "country": "CA", "postalCode": "V2V4J5", "twitter": "None", "instagram": "None", "facebook": "None", "youtube": "None", "website": "None", "summary": "None", "logo": "None", "latitude": 49.13775823206739, "longitude": -122.28839349437409}, "866843683RR0001": {"name": "MISSION HILLS COMMUNITY CHURCH", "designationCode": "C", "categoryCode": "39", "address": "PO BOX 20018                  RPO MISSION HILLS", "city": "MISSION", "province": "BC", "country": "CA", "postalCode": "V2V7P8", "twitter": "None", "instagram": "None", "facebook": "None", "youtube": "None", "website": "None", "summary": "None", "logo": "None", "latitude": 49.13108550000002, "longitude": -122.3134605}, "886078393RR0001": {"name": "MISSION HOSPICE SOCIETY", "designationCode": "C", "categoryCode": "11", "address": "32180 HILLCREST AVE", "city": "MISSION", "province": "BC", "country": "CA", "postalCode": "V2V1L2", "twitter": "None", "instagram": "None", "facebook": "None", "youtube": "None", "website": "None", "summary": "None", "logo": "None", "latitude": 49.13595848845881, "longitude": -122.3333997485429}, "119042885RR0001": {"name": "MISSION HOSPITAL AUXILIARY MEMORIAL FUND", "designationCode": "A", "categoryCode": "19", "address": "38-4001 OLD CLAYBURN ROAD", "city": "ABBOTSFORD", "province": "BC", "country": "CA", "postalCode": "V3G1C5", "twitter": "None", "instagram": "None", "facebook": "None", "youtube": "None", "website": "None", "summary": "None", "logo": "None", "latitude": 49.07518943492711, "longitude": -122.2494649685502}, "866493083RR0001": {"name": "MISSION IMPACT INTERNATIONAL", "designationCode": "C", "categoryCode": "39", "address": "46000 BRITTON AV", "city": "CHILLIWACK", "province": "BC", "country": "CA", "postalCode": "V2R2R8", "twitter": "None", "instagram": "None", "facebook": "None", "youtube": "None", "website": "None", "summary": "None", "logo": "None", "latitude": 49.13178949624908, "longitude": -121.95131383236193}, "138622386RR0001": {"name": "MISSION INDIAN FRIENDSHIP CENTRE SOCIETY", "designationCode": "C", "categoryCode": "09", "address": "33150A FIRST AVE", "city": "MISSION", "province": "BC", "country": "CA", "postalCode": "V2V1G4", "twitter": "None", "instagram": "None", "facebook": "None", "youtube": "None", "website": "None", "summary": "None", "logo": "None", "latitude": 49.13429681252602, "longitude": -122.3059825942909}, "870892940RR0001": {"name": "MISSION INTERNATIONAL \"EL SHADDAI\" (MIES)", "designationCode": "C", "categoryCode": "39", "address": "8610 RUE ST DENIS", "city": "MONTREAL", "province": "QC", "country": "CA", "postalCode": "H2P2H2", "twitter": "None", "instagram": "None", "facebook": "None", "youtube": "None", "website": "None", "summary": "None", "logo": "None", "latitude": 45.54487807519203, "longitude": -73.63711067528412}, "897961306RR0001": {"name": "MISSION INTERNATIONALE DES MARINS AU SAGUENAY", "designationCode": "C", "categoryCode": "09", "address": "1694 RUE SIROIS", "city": "VILLE DE LA BAIE", "province": "QC", "country": "CA", "postalCode": "G7B2S3", "twitter": "None", "instagram": "None", "facebook": "None", "youtube": "None", "website": "None", "summary": "None", "logo": "None", "latitude": 48.33738623123065, "longitude": -70.89059734958728}, "861256410RR0001": {"name": "MISSION IRIS MUNDIAL", "designationCode": "C", "categoryCode": "11", "address": "1200 - 3030 BOUL LE CARREFOUR", "city": "LAVAL", "province": "QC", "country": "CA", "postalCode": "H7T2P5", "twitter": "None", "instagram": "None", "facebook": "None", "youtube": "None", "website": "None", "summary": "None", "logo": "None", "latitude": 45.567772462086864, "longitude": -73.7504257036762}, "119109833RR0054": {"name": "MISSION LA SAINTE FAMILLE", "designationCode": "C", "categoryCode": "38", "address": "201C, AVENUE DE PORTAGE", "city": "DARTHMOUTH", "province": "NS", "country": "CA", "postalCode": "B2X3T4", "twitter": "None", "instagram": "None", "facebook": "None", "youtube": "None", "website": "None", "summary": "None", "logo": "None", "latitude": 44.70539153218667, "longitude": -63.53102868804467}, "873296511RR0001": {"name": "MISSION LAND CENTER SOCIETY", "designationCode": "C", "categoryCode": "49", "address": "9172 SHOOK RD", "city": "MISSION", "province": "BC", "country": "CA", "postalCode": "V2V7M1", "twitter": "None", "instagram": "None", "facebook": "None", "youtube": "None", "website": "None", "summary": "None", "logo": "None", "latitude": 49.168296433625855, "longitude": -122.23956767757524}, "889280772RR0001": {"name": "MISSION LITERACY IN MOTION ASSOCIATION", "designationCode": "C", "categoryCode": "21", "address": "33700 PRENTIS AVE", "city": "MISSION", "province": "BC", "country": "CA", "postalCode": "V2V7B1", "twitter": "None", "instagram": "None", "facebook": "None", "youtube": "None", "website": "None", "summary": "None", "logo": "None", "latitude": 49.14402464406479, "longitude": -122.29083951740057}, "107706871RR0001": {"name": "MISSION MARIE-AUXILIATRICE DE RIVIERE-DES-PRAIRIES-MARIA-AUSILIATRICE", "designationCode": "C", "categoryCode": "38", "address": "8550 RUE JOLIOT CURIE", "city": "MONTREAL", "province": "QC", "country": "CA", "postalCode": "H1E4C3", "twitter": "None", "instagram": "None", "facebook": "None", "youtube": "None", "website": "None", "summary": "None", "logo": "None", "latitude": 45.63864165583708, "longitude": -73.58152414695027}, "831571542RR0001": {"name": "MISSION MOISSON INTERNATIONALE/MISSION HARVEST MINISTRIES INTERNATIONAL", "designationCode": "C", "categoryCode": "47", "address": "880, 112E AVENUE", "city": "DRUMMONDVILLE", "province": "QC", "country": "CA", "postalCode": "J2B4K6", "twitter": "None", "instagram": "None", "facebook": "None", "youtube": "None", "website": "None", "summary": "None", "logo": "None", "latitude": 45.858255170696495, "longitude": -72.46320386332151}, "850332321RR0001": {"name": "MISSION OF CABRI", "designationCode": "C", "categoryCode": "38", "address": "BOX 474", "city": "CABRI", "province": "SK", "country": "CA", "postalCode": "S0N0J0", "twitter": "None", "instagram": "None", "facebook": "None", "youtube": "None", "website": "None", "summary": "None", "logo": "None", "latitude": 50.620695000000055, "longitude": -108.45713149999993}, "889743373RR0002": {"name": "MISSION OF CLIMAX", "designationCode": "C", "categoryCode": "38", "address": "BOX 332", "city": "CLIMAX", "province": "SK", "country": "CA", "postalCode": "S0N0N0", "twitter": "None", "instagram": "None", "facebook": "None", "youtube": "None", "website": "None", "summary": "None", "logo": "None"}, "107020232RR0008": {"name": "MISSION OF KING'S COVE", "designationCode": "C", "categoryCode": "30", "address": "RED CLIFFE", "city": "BONAVISTA BAY", "province": "NL", "country": "CA", "postalCode": "A0C2B0", "twitter": "None", "instagram": "None", "facebook": "None", "youtube": "None", "website": "None", "summary": "None", "logo": "None", "latitude": 48.54883200000006, "longitude": -53.483520499999926}, "106829690RR0001": {"name": "MISSION OF MERCY (CANADA)", "designationCode": "C", "categoryCode": "47", "address": "4104-97 ST", "city": "EDMONTON", "province": "AB", "country": "CA", "postalCode": "T6E5Y6", "twitter": "None", "instagram": "None", "facebook": "None", "youtube": "None", "website": "None", "summary": "None", "logo": "None", "latitude": 53.47699183236193, "longitude": -113.47947613220549}, "879392108RR0001": {"name": "MISSION OF RURAL EGYPT (M.O.R.E.)", "designationCode": "C", "categoryCode": "47", "address": "P. O. BOX 91051               BAYVIEW VILLAGE", "city": "NORTH YORK", "province": "ON", "country": "CA", "postalCode": "M2K2Y6", "twitter": "None", "instagram": "None", "facebook": "None", "youtube": "None", "website": "None", "summary": "None", "logo": "None", "latitude": 43.79425721214091, "longitude": -79.39401418457749}, "846483121RR0001": {"name": "MISSION OF ST. LOUIS", "designationCode": "C", "categoryCode": "38", "address": "BOX 176", "city": "MOSSBANK", "province": "SK", "country": "CA", "postalCode": "S0H3G0", "twitter": "None", "instagram": "None", "facebook": "None", "youtube": "None", "website": "None", "summary": "None", "logo": "None", "latitude": 49.93336000000005, "longitude": -105.96785999999997}, "895636504RR0001": {"name": "MISSION OF SUCCESS LEARNING CENTRE (MS-LC)", "designationCode": "C", "categoryCode": "20", "address": "39 SHOALHAVEN DRIVE", "city": "TORONTO", "province": "ON", "country": "CA", "postalCode": "M1C5G5", "twitter": "None", "instagram": "None", "facebook": "None", "youtube": "None", "website": "None", "summary": "None", "logo": "None", "latitude": 43.77848494419769, "longitude": -79.1338159808414}, "898256573RR0001": {"name": "MISSION OF T.E.A.R.S.", "designationCode": "C", "categoryCode": "49", "address": "50 GERVAIS DR STE 504", "city": "TORONTO", "province": "ON", "country": "CA", "postalCode": "M3C1Z3", "twitter": "None", "instagram": "None", "facebook": "None", "youtube": "None", "website": "None", "summary": "None", "logo": "None", "latitude": 43.72526590980432, "longitude": -79.33757883492942}, "123920324RR0001": {"name": "MISSION OLD BREWERY/OLD BREWERY MISSION", "designationCode": "C", "categoryCode": "01", "address": "902 BOUL SAINT-LAURENT", "city": "MONTREAL", "province": "QC", "country": "CA", "postalCode": "H2Z1J2", "twitter": "None", "instagram": "None", "facebook": "None", "youtube": "None", "website": "None", "summary": "None", "logo": "None", "latitude": 45.507019851780306, "longitude": -73.55763454108713}, "886423201RR0001": {"name": "MISSION ORTHODOXE ROUMAINE \"SAINTS APOTRES PIERRE ET PAUL\", VILLE DE QUEBEC", "designationCode": "C", "categoryCode": "39", "address": "90, BOULEVARD DES \u00c9TUDIANTS", "city": "QU\u00c9BEC", "province": "QC", "country": "CA", "postalCode": "G2A1N5", "twitter": "None", "instagram": "None", "facebook": "None", "youtube": "None", "website": "None", "summary": "None", "logo": "None", "latitude": 46.85571233556459, "longitude": -71.36132613087877}, "888133394RR0001": {"name": "MISSION PARTNERS INTERNATIONAL (ONTARIO)", "designationCode": "C", "categoryCode": "36", "address": "4-318 NEPTUNE CRES", "city": "LONDON", "province": "ON", "country": "CA", "postalCode": "N6M1A1", "twitter": "None", "instagram": "None", "facebook": "None", "youtube": "None", "website": "None", "summary": "None", "logo": "None", "latitude": 42.9904628057302, "longitude": -81.13781328443682}, "886645639RR0001": {"name": "MISSION PATRIMOINE RELIGIEUX", "designationCode": "C", "categoryCode": "52", "address": "12055, RUE GRENET", "city": "MONTR\u00c9AL", "province": "QC", "country": "CA", "postalCode": "H4J2J5", "twitter": "None", "instagram": "None", "facebook": "None", "youtube": "None", "website": "None", "summary": "None", "logo": "None", "latitude": 45.528534048617615, "longitude": -73.71426693502242}, "825591761RR0001": {"name": "MISSION PENTECOTE MAHANAIM / MISION PENTECOTES MAHANAIM", "designationCode": "C", "categoryCode": "39", "address": "10763 AV BALZAC", "city": "MONTREAL-NORD", "province": "QC", "country": "CA", "postalCode": "H1H3M1", "twitter": "None", "instagram": "None", "facebook": "None", "youtube": "None", "website": "None", "summary": "None", "logo": "None", "latitude": 45.59297902859366, "longitude": -73.63022958560805}}