{"119165405RR0001": {"name": "ST. ANDREW'S PRESBYTERIAN CHURCH", "designationCode": "C", "categoryCode": "37", "address": "436 SPADINA CRES E", "city": "SASKATOON", "province": "SK", "country": "CA", "postalCode": "S7K3G6", "twitter": "None", "instagram": "None", "facebook": "None", "youtube": "None", "website": "None", "summary": "None", "logo": "None", "latitude": 52.1242552445322, "longitude": -106.66035816475252}, "119165462RR0001": {"name": "ST. ANDREW'S PRESBYTERIAN CHURCH", "designationCode": "C", "categoryCode": "37", "address": "5038 49 ST", "city": "OLDS", "province": "AB", "country": "CA", "postalCode": "T4H1H3", "twitter": "None", "instagram": "None", "facebook": "None", "youtube": "None", "website": "None", "summary": "None", "logo": "None", "latitude": 51.79329640161001, "longitude": -114.10693786733222}, "119165488RR0001": {"name": "ST. ANDREW'S PRESBYTERIAN CHURCH", "designationCode": "C", "categoryCode": "37", "address": "1818 - 5TH AVENUE SOUTH", "city": "LETHBRIDGE", "province": "AB", "country": "CA", "postalCode": "T1J0W6", "twitter": "None", "instagram": "None", "facebook": "None", "youtube": "None", "website": "None", "summary": "None", "logo": "None", "latitude": 49.69336277979934, "longitude": -112.81586956196846}, "119165553RR0001": {"name": "ST. ANDREW'S PRESBYTERIAN CHURCH", "designationCode": "C", "categoryCode": "37", "address": "97 BOUNDARY STREET", "city": "KIMBERLEY", "province": "BC", "country": "CA", "postalCode": "V1A2H4", "twitter": "None", "instagram": "None", "facebook": "None", "youtube": "None", "website": "None", "summary": "None", "logo": "None", "latitude": 49.6881931850474, "longitude": -115.98379911947413}, "119165587RR0001": {"name": "ST. ANDREW'S PRESBYTERIAN CHURCH", "designationCode": "C", "categoryCode": "37", "address": "680 COURTNEY ST", "city": "VICTORIA", "province": "BC", "country": "CA", "postalCode": "V8W1C1", "twitter": "None", "instagram": "None", "facebook": "None", "youtube": "None", "website": "None", "summary": "None", "logo": "None", "latitude": 48.42340147489747, "longitude": -123.36656121856429}, "119165603RR0001": {"name": "ST. ANDREW'S PRESBYTERIAN CHURCH", "designationCode": "C", "categoryCode": "37", "address": "4235 DEPARTURE BAY RD", "city": "NANAIMO", "province": "BC", "country": "CA", "postalCode": "V9T1C9", "twitter": "None", "instagram": "None", "facebook": "None", "youtube": "None", "website": "None", "summary": "None", "logo": "None", "latitude": 49.20690747995643, "longitude": -124.00163368833881}, "119165637RR0001": {"name": "ST. ANDREW'S PRESBYTERIAN CHURCH", "designationCode": "C", "categoryCode": "37", "address": "40 WILLIAM STREET NORTH", "city": "LINDSAY", "province": "ON", "country": "CA", "postalCode": "K9V4A1", "twitter": "None", "instagram": "None", "facebook": "None", "youtube": "None", "website": "None", "summary": "None", "logo": "None", "latitude": 44.356177806671354, "longitude": -78.73748409669682}, "119165678RR0001": {"name": "ST. ANDREW'S PRESBYTERIAN CHURCH", "designationCode": "C", "categoryCode": "37", "address": "149 FREDERICK ST E.           BOX 159", "city": "ARTHUR", "province": "ON", "country": "CA", "postalCode": "N0G1A0", "twitter": "None", "instagram": "None", "facebook": "None", "youtube": "None", "website": "None", "summary": "None", "logo": "None", "latitude": 43.83400334142162, "longitude": -80.53574115090272}, "119165694RR0002": {"name": "ST. ANDREW'S PRESBYTERIAN CHURCH", "designationCode": "C", "categoryCode": "47", "address": "494 METCALFE ST               APT. 2 - RR 1", "city": "TWEED", "province": "ON", "country": "CA", "postalCode": "K0K3J0", "twitter": "None", "instagram": "None", "facebook": "None", "youtube": "None", "website": "None", "summary": "None", "logo": "None", "latitude": 44.48065319331639, "longitude": -77.3169340623793}, "873784243RR0001": {"name": "ST. ANDREW'S PRESBYTERIAN CHURCH", "designationCode": "C", "categoryCode": "37", "address": "PO BOX 1078                   2011 CHURCH ST", "city": "WESTVILLE", "province": "NS", "country": "CA", "postalCode": "B0K2A0", "twitter": "None", "instagram": "None", "facebook": "None", "youtube": "None", "website": "None", "summary": "None", "logo": "None", "latitude": 45.55725521339974, "longitude": -62.71741208185713}, "895454833RR0001": {"name": "ST. ANDREW'S PRESBYTERIAN CHURCH", "designationCode": "C", "categoryCode": "37", "address": "58 SEGUIN STREET", "city": "PARRY SOUND", "province": "ON", "country": "CA", "postalCode": "P2A1B6", "twitter": "None", "instagram": "None", "facebook": "None", "youtube": "None", "website": "None", "summary": "None", "logo": "None", "latitude": 45.34377449792253, "longitude": -80.03644751610017}, "896769296RR0001": {"name": "ST. ANDREW'S PRESBYTERIAN CHURCH", "designationCode": "C", "categoryCode": "37", "address": "PO BOX 498", "city": "OTTAWA", "province": "ON", "country": "CA", "postalCode": "K2S1A6", "twitter": "None", "instagram": "None", "facebook": "None", "youtube": "None", "website": "None", "summary": "None", "logo": "None", "latitude": 45.264669000000055, "longitude": -75.92809399999993}, "119163897RR0001": {"name": "ST. ANDREW'S PRESBYTERIAN CHURCH CARDIGAN", "designationCode": "C", "categoryCode": "37", "address": "15 BALLAST POINT LANE RR#1", "city": "GEORGETOWN ROYALTY", "province": "PE", "country": "CA", "postalCode": "C0A1L0", "twitter": "None", "instagram": "None", "facebook": "None", "youtube": "None", "website": "None", "summary": "None", "logo": "None", "latitude": 46.211997806945824, "longitude": -62.56048593755425}, "119165611RR0001": {"name": "ST. ANDREW'S PRESBYTERIAN CHURCH TRUST FUND", "designationCode": "A", "categoryCode": "45", "address": "852 WILKINS GATE", "city": "COBOURG", "province": "ON", "country": "CA", "postalCode": "K9A0C1", "twitter": "None", "instagram": "None", "facebook": "None", "youtube": "None", "website": "None", "summary": "None", "logo": "None", "latitude": 43.96788511699703, "longitude": -78.2074669328852}, "119163970RR0001": {"name": "ST. ANDREW'S PRESBYTERIAN CHURCH, (GAIRLOCH)", "designationCode": "C", "categoryCode": "37", "address": "R.R. #2 WESTVILLE", "city": "PICTOU CO.", "province": "NS", "country": "CA", "postalCode": "B0K2A0", "twitter": "None", "instagram": "None", "facebook": "None", "youtube": "None", "website": "None", "summary": "None", "logo": "None", "latitude": 45.559140000000056, "longitude": -62.70123049999994}, "844748145RR0001": {"name": "ST. ANDREW'S PRESBYTERIAN CHURCH, KILMAURS", "designationCode": "C", "categoryCode": "37", "address": "PO BOX 242", "city": "CARP", "province": "ON", "country": "CA", "postalCode": "K0A1L0", "twitter": "None", "instagram": "None", "facebook": "None", "youtube": "None", "website": "None", "summary": "None", "logo": "None", "latitude": 45.443587712606245, "longitude": -76.1842754094586}, "874681620RR0001": {"name": "ST. ANDREW'S PRESBYTERIAN CHURCH, NORTH RIVER-NORTH SHORE PASTORAL CHARGE PRESBYTERIAN CHURCH IN CANADA", "designationCode": "C", "categoryCode": "37", "address": "48596 THE CABOT TRAIL         R R #4", "city": "BADDECK", "province": "NS", "country": "CA", "postalCode": "B0E1B0", "twitter": "None", "instagram": "None", "facebook": "None", "youtube": "None", "website": "None", "summary": "None", "logo": "None", "latitude": 46.306182897859095, "longitude": -60.62362849809542}, "889694469RR0001": {"name": "ST. ANDREW'S PRESBYTERIAN CHURCH, WOMEN'S MISSIONATY SOCIETY, AFTERNOON AUXILIARY", "designationCode": "C", "categoryCode": "47", "address": "47 OWEN ST", "city": "BARRIE", "province": "ON", "country": "CA", "postalCode": "L4M3G9", "twitter": "None", "instagram": "None", "facebook": "None", "youtube": "None", "website": "None", "summary": "None", "logo": "None", "latitude": 44.391358121011024, "longitude": -79.68786463584176}, "119165736RR0001": {"name": "ST. ANDREW'S RESIDENCE, CHATHAM", "designationCode": "C", "categoryCode": "01", "address": "99 PARK ST", "city": "CHATHAM", "province": "ON", "country": "CA", "postalCode": "N7M3R5", "twitter": "None", "instagram": "None", "facebook": "None", "youtube": "None", "website": "None", "summary": "None", "logo": "None", "latitude": 42.40235910355453, "longitude": -82.17924800181767}, "108005745RR0001": {"name": "ST. ANDREW'S RIVER HEIGHTS UNITED CHURCH", "designationCode": "C", "categoryCode": "44", "address": "255 OAK ST", "city": "WINNIPEG", "province": "MB", "country": "CA", "postalCode": "R3M3P7", "twitter": "None", "instagram": "None", "facebook": "None", "youtube": "None", "website": "None", "summary": "None", "logo": "None", "latitude": 49.87072057146977, "longitude": -97.18124279701628}, "812240604RR0001": {"name": "ST. ANDREW'S ROMAN CATHOLIC PARISH INC.", "designationCode": "C", "categoryCode": "38", "address": "P.O. BOX 124", "city": "MT. STEWART", "province": "PE", "country": "CA", "postalCode": "C0A1T0", "twitter": "None", "instagram": "None", "facebook": "None", "youtube": "None", "website": "None", "summary": "None", "logo": "None", "latitude": 46.33696289701434, "longitude": -62.85434065264637}, "119165744RR0001": {"name": "ST. ANDREW'S ROSSEAU UNITED CHURCH", "designationCode": "C", "categoryCode": "44", "address": "MR. T. EINARSON               BOX 101", "city": "ROSSEAU", "province": "ON", "country": "CA", "postalCode": "P0C1J0", "twitter": "None", "instagram": "None", "facebook": "None", "youtube": "None", "website": "None", "summary": "None", "logo": "None", "latitude": 45.270393000000055, "longitude": -79.66083499999993}, "897549812RR0001": {"name": "ST. ANDREW'S SOCIETY OF MONTREAL CHARITABLE FUND", "designationCode": "C", "categoryCode": "09", "address": "1195 SHERBROOKE STREET WEST", "city": "MONTREAL", "province": "QC", "country": "CA", "postalCode": "H3A1H9", "twitter": "None", "instagram": "None", "facebook": "None", "youtube": "None", "website": "None", "summary": "None", "logo": "None", "latitude": 45.50071925258228, "longitude": -73.57773646367339}, "858707888RR0001": {"name": "ST. ANDREW'S UKRAINIAN CATHOLIC MISSION", "designationCode": "C", "categoryCode": "38", "address": "94 DOROTHEA DRIVE", "city": "DARTMOUTH", "province": "NS", "country": "CA", "postalCode": "B2W4C4", "twitter": "None", "instagram": "None", "facebook": "None", "youtube": "None", "website": "None", "summary": "None", "logo": "None", "latitude": 44.67882766720537, "longitude": -63.51263720206009}, "108005844RR0001": {"name": "ST. ANDREW'S UKRAINIAN CATHOLIC PARISH", "designationCode": "C", "categoryCode": "39", "address": "PO BOX 4034 STN B", "city": "WINNIPEG", "province": "MB", "country": "CA", "postalCode": "R2W5K8", "twitter": "None", "instagram": "None", "facebook": "None", "youtube": "None", "website": "None", "summary": "None", "logo": "None", "latitude": 49.899525000000054, "longitude": -97.14112999999993}, "838927168RR0001": {"name": "ST. ANDREW'S UKRAINIAN ORTHODOX SOBOR PARISH EDMONTON ALBERTA", "designationCode": "C", "categoryCode": "39", "address": "9831 - 75 STREET", "city": "EDMONTON", "province": "AB", "country": "CA", "postalCode": "T6A2Y8", "twitter": "None", "instagram": "None", "facebook": "None", "youtube": "None", "website": "None", "summary": "None", "logo": "None", "latitude": 53.53904792200936, "longitude": -113.44289576348922}, "108005919RR0001": {"name": "ST. ANDREW'S UNITED CHURCH", "designationCode": "C", "categoryCode": "44", "address": "55 KING ST", "city": "TRURO", "province": "NS", "country": "CA", "postalCode": "B2N3K8", "twitter": "None", "instagram": "None", "facebook": "None", "youtube": "None", "website": "None", "summary": "None", "logo": "None", "latitude": 45.36342625451552, "longitude": -63.285615746292535}, "108006008RR0001": {"name": "ST. ANDREW'S UNITED CHURCH", "designationCode": "C", "categoryCode": "44", "address": "4099 PANMURE ROAD", "city": "KINBURN", "province": "ON", "country": "CA", "postalCode": "K0A2H0", "twitter": "None", "instagram": "None", "facebook": "None", "youtube": "None", "website": "None", "summary": "None", "logo": "None", "latitude": 45.31104713474433, "longitude": -76.19778832087712}, "108006032RR0001": {"name": "ST. ANDREW'S UNITED CHURCH", "designationCode": "C", "categoryCode": "44", "address": "33 MATTHEW ST                 BOX 309", "city": "MARMORA", "province": "ON", "country": "CA", "postalCode": "K0K2M0", "twitter": "None", "instagram": "None", "facebook": "None", "youtube": "None", "website": "None", "summary": "None", "logo": "None", "latitude": 44.4838789025636, "longitude": -77.67990264528468}, "108006131RR0001": {"name": "ST. ANDREW'S UNITED CHURCH", "designationCode": "C", "categoryCode": "44", "address": "117 BLOOR ST EAST", "city": "TORONTO", "province": "ON", "country": "CA", "postalCode": "M4W1A9", "twitter": "None", "instagram": "None", "facebook": "None", "youtube": "None", "website": "None", "summary": "None", "logo": "None", "latitude": 43.67075285201147, "longitude": -79.38425438784712}, "108006321RR0001": {"name": "ST. ANDREW'S UNITED CHURCH", "designationCode": "C", "categoryCode": "44", "address": "PO BOX 126", "city": "FORT QU'APPELLE", "province": "SK", "country": "CA", "postalCode": "S0G1S0", "twitter": "None", "instagram": "None", "facebook": "None", "youtube": "None", "website": "None", "summary": "None", "logo": "None", "latitude": 50.76964000000004, "longitude": -103.79339999999996}, "108006347RR0001": {"name": "ST. ANDREW'S UNITED CHURCH", "designationCode": "C", "categoryCode": "44", "address": "29 SMITH ST E", "city": "YORKTON", "province": "SK", "country": "CA", "postalCode": "S3N0H3", "twitter": "None", "instagram": "None", "facebook": "None", "youtube": "None", "website": "None", "summary": "None", "logo": "None", "latitude": 51.21220704853247, "longitude": -102.46080122163163}, "108006354RR0001": {"name": "ST. ANDREW'S UNITED CHURCH", "designationCode": "C", "categoryCode": "44", "address": "60 ATHABASCA STREET EAST", "city": "MOOSE JAW", "province": "SK", "country": "CA", "postalCode": "S6H0L2", "twitter": "None", "instagram": "None", "facebook": "None", "youtube": "None", "website": "None", "summary": "None", "logo": "None", "latitude": 50.39540959844703, "longitude": -105.53249290155297}, "108006388RR0001": {"name": "ST. ANDREW'S UNITED CHURCH", "designationCode": "C", "categoryCode": "44", "address": "1, 10601 SOUTHPORT RD. SW", "city": "CALGARY", "province": "AB", "country": "CA", "postalCode": "T2W3M6", "twitter": "None", "instagram": "None", "facebook": "None", "youtube": "None", "website": "None", "summary": "None", "logo": "None", "latitude": 50.96184469355709, "longitude": -114.07226446535256}, "108006412RR0001": {"name": "ST. ANDREW'S UNITED CHURCH", "designationCode": "C", "categoryCode": "44", "address": "BOX 1290", "city": "GOLDEN", "province": "BC", "country": "CA", "postalCode": "V0A1H0", "twitter": "None", "instagram": "None", "facebook": "None", "youtube": "None", "website": "None", "summary": "None", "logo": "None", "latitude": 51.30019925579286, "longitude": -117.05412925860504}, "108006453RR0001": {"name": "ST. ANDREW'S UNITED CHURCH", "designationCode": "C", "categoryCode": "44", "address": "218 KINCHANT ST", "city": "QUESNEL", "province": "BC", "country": "CA", "postalCode": "V2J2R2", "twitter": "None", "instagram": "None", "facebook": "None", "youtube": "None", "website": "None", "summary": "None", "logo": "None", "latitude": 52.97616156000445, "longitude": -122.49344124934375}, "108006461RR0001": {"name": "ST. ANDREW'S UNITED CHURCH", "designationCode": "C", "categoryCode": "44", "address": "3555 - 5TH AVENUE", "city": "PRINCE GEORGE", "province": "BC", "country": "CA", "postalCode": "V2M1K8", "twitter": "None", "instagram": "None", "facebook": "None", "youtube": "None", "website": "None", "summary": "None", "logo": "None", "latitude": 53.9204935919721, "longitude": -122.78588834265071}, "108006479RR0001": {"name": "ST. ANDREW'S UNITED CHURCH", "designationCode": "C", "categoryCode": "44", "address": "33077 2ND AVE", "city": "MISSION", "province": "BC", "country": "CA", "postalCode": "V2V1J7", "twitter": "None", "instagram": "None", "facebook": "None", "youtube": "None", "website": "None", "summary": "None", "logo": "None", "latitude": 49.135407472213096, "longitude": -122.30773880468418}, "108006537RR0001": {"name": "ST. ANDREW'S UNITED CHURCH", "designationCode": "C", "categoryCode": "44", "address": "5645 MORRISON ST.", "city": "NIAGARA FALLS", "province": "ON", "country": "CA", "postalCode": "L2E2E8", "twitter": "None", "instagram": "None", "facebook": "None", "youtube": "None", "website": "None", "summary": "None", "logo": "None", "latitude": 43.1044065337582, "longitude": -79.08848002553522}, "108006552RR0001": {"name": "ST. ANDREW'S UNITED CHURCH", "designationCode": "C", "categoryCode": "44", "address": "399 CASSELLS STREET", "city": "NORTH BAY", "province": "ON", "country": "CA", "postalCode": "P1B3Z4", "twitter": "None", "instagram": "None", "facebook": "None", "youtube": "None", "website": "None", "summary": "None", "logo": "None", "latitude": 46.31360439014397, "longitude": -79.46601187565646}, "108006602RR0001": {"name": "ST. ANDREW'S UNITED CHURCH", "designationCode": "C", "categoryCode": "44", "address": "1000 HUCKVALE PLACE", "city": "WILLIAMS LAKE", "province": "BC", "country": "CA", "postalCode": "V2G4L2", "twitter": "None", "instagram": "None", "facebook": "None", "youtube": "None", "website": "None", "summary": "None", "logo": "None", "latitude": 52.14985447936954, "longitude": -122.15847069317329}, "108006701RR0001": {"name": "ST. ANDREW'S UNITED CHURCH", "designationCode": "C", "categoryCode": "44", "address": "311 FITZWILLIAM ST", "city": "NANAIMO", "province": "BC", "country": "CA", "postalCode": "V9R3A6", "twitter": "None", "instagram": "None", "facebook": "None", "youtube": "None", "website": "None", "summary": "None", "logo": "None", "latitude": 49.165753267392844, "longitude": -123.9400903578573}, "108231218RR0001": {"name": "ST. ANDREW'S UNITED CHURCH", "designationCode": "C", "categoryCode": "44", "address": "95 DARLING STREET", "city": "BRANTFORD", "province": "ON", "country": "CA", "postalCode": "N3T2K7", "twitter": "None", "instagram": "None", "facebook": "None", "youtube": "None", "website": "None", "summary": "None", "logo": "None", "latitude": 43.14031959819261, "longitude": -80.26288861416296}, "119165934RR0001": {"name": "ST. ANDREW'S UNITED CHURCH", "designationCode": "C", "categoryCode": "44", "address": "7679 TRANS CANADA HIGHWAY     RR2", "city": "VERNON BRIDGE", "province": "PE", "country": "CA", "postalCode": "C0A2E0", "twitter": "None", "instagram": "None", "facebook": "None", "youtube": "None", "website": "None", "summary": "None", "logo": "None", "latitude": 46.178564543424386, "longitude": -62.89162071135091}, "119165942RR0001": {"name": "ST. ANDREW'S UNITED CHURCH", "designationCode": "C", "categoryCode": "44", "address": "152 MAIN ST", "city": "BLACKVILLE", "province": "NB", "country": "CA", "postalCode": "E9B1P3", "twitter": "None", "instagram": "None", "facebook": "None", "youtube": "None", "website": "None", "summary": "None", "logo": "None", "latitude": 46.73675215280813, "longitude": -65.82961046032459}, "119165967RR0001": {"name": "ST. ANDREW'S UNITED CHURCH", "designationCode": "C", "categoryCode": "44", "address": "4654 RTE 11", "city": "TABUSINTAC", "province": "NB", "country": "CA", "postalCode": "E9H1J5", "twitter": "None", "instagram": "None", "facebook": "None", "youtube": "None", "website": "None", "summary": "None", "logo": "None", "latitude": 47.34183152390416, "longitude": -65.00592657200163}, "119165983RR0001": {"name": "ST. ANDREW'S UNITED CHURCH", "designationCode": "C", "categoryCode": "44", "address": "67 HILLCREST ST.", "city": "PLASTER ROCK", "province": "NB", "country": "CA", "postalCode": "E7G1V2", "twitter": "None", "instagram": "None", "facebook": "None", "youtube": "None", "website": "None", "summary": "None", "logo": "None", "latitude": 46.91073193920006, "longitude": -67.39761855272721}, "119165991RR0001": {"name": "ST. ANDREW'S UNITED CHURCH", "designationCode": "C", "categoryCode": "44", "address": "188 WELLINGTON ST", "city": "MIRAMICHI", "province": "NB", "country": "CA", "postalCode": "E1N1M4", "twitter": "None", "instagram": "None", "facebook": "None", "youtube": "None", "website": "None", "summary": "None", "logo": "None", "latitude": 47.03005815955932, "longitude": -65.46621615551996}, "119166007RR0001": {"name": "ST. ANDREW'S UNITED CHURCH", "designationCode": "C", "categoryCode": "44", "address": "P.O. BOX 182", "city": "SEPT-ILES", "province": "QC", "country": "CA", "postalCode": "G4R4K5", "twitter": "None", "instagram": "None", "facebook": "None", "youtube": "None", "website": "None", "summary": "None", "logo": "None", "latitude": 50.209593000000055, "longitude": -66.38952049999993}, "119166114RR0001": {"name": "ST. ANDREW'S UNITED CHURCH", "designationCode": "C", "categoryCode": "44", "address": "645 MORRISON ROAD RR #1", "city": "FRANKVILLE", "province": "ON", "country": "CA", "postalCode": "K0E1H0", "twitter": "None", "instagram": "None", "facebook": "None", "youtube": "None", "website": "None", "summary": "None", "logo": "None", "latitude": 44.74331700000006, "longitude": -75.89919049999993}, "119166122RR0001": {"name": "ST. ANDREW'S UNITED CHURCH", "designationCode": "C", "categoryCode": "44", "address": "ST ANDREW'S UNITED CHURCH     BOX 331", "city": "LANARK", "province": "ON", "country": "CA", "postalCode": "K0G1K0", "twitter": "None", "instagram": "None", "facebook": "None", "youtube": "None", "website": "None", "summary": "None", "logo": "None", "latitude": 45.05259300000006, "longitude": -76.40778049999993}, "119166130RR0001": {"name": "ST. ANDREW'S UNITED CHURCH", "designationCode": "C", "categoryCode": "44", "address": "2045 WESTNEATH RD", "city": "WESTNEATH", "province": "ON", "country": "CA", "postalCode": "K0J2L0", "twitter": "None", "instagram": "None", "facebook": "None", "youtube": "None", "website": "None", "summary": "None", "logo": "None", "latitude": 45.81529797163386, "longitude": -76.88826988240598}, "119166148RR0001": {"name": "ST. ANDREW'S UNITED CHURCH", "designationCode": "C", "categoryCode": "44", "address": "197 HUTSON LAKE RD            RR 3", "city": "GRIFFITH", "province": "ON", "country": "CA", "postalCode": "K0J2R0", "twitter": "None", "instagram": "None", "facebook": "None", "youtube": "None", "website": "None", "summary": "None", "logo": "None", "latitude": 45.14621842382014, "longitude": -77.12680125002818}, "119166163RR0001": {"name": "ST. ANDREW'S UNITED CHURCH", "designationCode": "C", "categoryCode": "44", "address": "RR#4", "city": "BANCROFT", "province": "ON", "country": "CA", "postalCode": "K0L1C0", "twitter": "None", "instagram": "None", "facebook": "None", "youtube": "None", "website": "None", "summary": "None", "logo": "None", "latitude": 44.40232377275159, "longitude": -78.1827114745639}, "119166262RR0001": {"name": "ST. ANDREW'S UNITED CHURCH", "designationCode": "C", "categoryCode": "44", "address": "6425 MAIN ST, PO BOX 69", "city": "COMBER", "province": "ON", "country": "CA", "postalCode": "N0P1J0", "twitter": "None", "instagram": "None", "facebook": "None", "youtube": "None", "website": "None", "summary": "None", "logo": "None", "latitude": 42.2304303141843, "longitude": -82.55285697977355}, "119166296RR0001": {"name": "ST. ANDREW'S UNITED CHURCH", "designationCode": "C", "categoryCode": "44", "address": "3 AMELIA STREET", "city": "ST THOMAS", "province": "ON", "country": "CA", "postalCode": "N5R2X5", "twitter": "None", "instagram": "None", "facebook": "None", "youtube": "None", "website": "None", "summary": "None", "logo": "None", "latitude": 42.77638858621462, "longitude": -81.18934969943811}, "119166304RR0001": {"name": "ST. ANDREW'S UNITED CHURCH", "designationCode": "C", "categoryCode": "44", "address": "85 WILLIAM STREET SOUTH", "city": "CHATHAM", "province": "ON", "country": "CA", "postalCode": "N7M4S5", "twitter": "None", "instagram": "None", "facebook": "None", "youtube": "None", "website": "None", "summary": "None", "logo": "None", "latitude": 42.402840369698154, "longitude": -82.18041078639872}, "119166312RR0001": {"name": "ST. ANDREW'S UNITED CHURCH", "designationCode": "C", "categoryCode": "44", "address": "309 BELANGER ST.", "city": "STURGEON FALLS", "province": "ON", "country": "CA", "postalCode": "P2B3C5", "twitter": "None", "instagram": "None", "facebook": "None", "youtube": "None", "website": "None", "summary": "None", "logo": "None", "latitude": 46.3622170072766, "longitude": -79.92064510585921}, "119166346RR0001": {"name": "ST. ANDREW'S UNITED CHURCH", "designationCode": "C", "categoryCode": "44", "address": "470 SILVER LAKE ROAD", "city": "SILVER WATER", "province": "ON", "country": "CA", "postalCode": "P0P1Y0", "twitter": "None", "instagram": "None", "facebook": "None", "youtube": "None", "website": "None", "summary": "None", "logo": "None", "latitude": 45.865899672463954, "longitude": -82.88985565242011}, "119166361RR0001": {"name": "ST. ANDREW'S UNITED CHURCH", "designationCode": "C", "categoryCode": "44", "address": "PO BOX 163", "city": "SCHREIBER", "province": "ON", "country": "CA", "postalCode": "P0T2S0", "twitter": "None", "instagram": "None", "facebook": "None", "youtube": "None", "website": "None", "summary": "None", "logo": "None", "latitude": 48.813860000000034, "longitude": -87.26646999999997}, "119166387RR0001": {"name": "ST. ANDREW'S UNITED CHURCH", "designationCode": "C", "categoryCode": "44", "address": "111 LARCH STREET", "city": "SUDBURY", "province": "ON", "country": "CA", "postalCode": "P3E4T5", "twitter": "None", "instagram": "None", "facebook": "None", "youtube": "None", "website": "None", "summary": "None", "logo": "None", "latitude": 46.49124153028181, "longitude": -80.9926881898312}, "119166403RR0001": {"name": "ST. ANDREW'S UNITED CHURCH", "designationCode": "C", "categoryCode": "44", "address": "BOX 127", "city": "EMERSON", "province": "MB", "country": "CA", "postalCode": "R0A0L0", "twitter": "None", "instagram": "None", "facebook": "None", "youtube": "None", "website": "None", "summary": "None", "logo": "None", "latitude": 49.00687000000005, "longitude": -97.20476999999994}, "119166411RR0001": {"name": "ST. ANDREW'S UNITED CHURCH", "designationCode": "C", "categoryCode": "44", "address": "PO BOX 144", "city": "ELM CREEK", "province": "MB", "country": "CA", "postalCode": "R0G0N0", "twitter": "None", "instagram": "None", "facebook": "None", "youtube": "None", "website": "None", "summary": "None", "logo": "None", "latitude": 49.19148365941253, "longitude": -97.76211492346253}, "119166452RR0001": {"name": "ST. ANDREW'S UNITED CHURCH", "designationCode": "C", "categoryCode": "44", "address": "BOX 35", "city": "DUNREA", "province": "MB", "country": "CA", "postalCode": "R0K0S0", "twitter": "None", "instagram": "None", "facebook": "None", "youtube": "None", "website": "None", "summary": "None", "logo": "None", "latitude": 49.40691000000004, "longitude": -99.73213999999996}, "119166486RR0001": {"name": "ST. ANDREW'S UNITED CHURCH", "designationCode": "C", "categoryCode": "44", "address": "PO BOX 599", "city": "CANORA", "province": "SK", "country": "CA", "postalCode": "S0A0L0", "twitter": "None", "instagram": "None", "facebook": "None", "youtube": "None", "website": "None", "summary": "None", "logo": "None", "latitude": 51.62535661313478, "longitude": -102.4443087080291}, "119166510RR0001": {"name": "ST. ANDREW'S UNITED CHURCH", "designationCode": "C", "categoryCode": "44", "address": "PO BOX 135", "city": "ARCOLA", "province": "SK", "country": "CA", "postalCode": "S0C0G0", "twitter": "None", "instagram": "None", "facebook": "None", "youtube": "None", "website": "None", "summary": "None", "logo": "None", "latitude": 49.627126771998505, "longitude": -102.26060915780955}, "119166528RR0001": {"name": "ST. ANDREW'S UNITED CHURCH", "designationCode": "C", "categoryCode": "44", "address": "BOX 125", "city": "BROADVIEW", "province": "SK", "country": "CA", "postalCode": "S0G0K0", "twitter": "None", "instagram": "None", "facebook": "None", "youtube": "None", "website": "None", "summary": "None", "logo": "None", "latitude": 50.378010000000074, "longitude": -102.58020999999997}, "119166585RR0001": {"name": "ST. ANDREW'S UNITED CHURCH", "designationCode": "C", "categoryCode": "44", "address": "BOX 87", "city": "EYEBROW", "province": "SK", "country": "CA", "postalCode": "S0H1L0", "twitter": "None", "instagram": "None", "facebook": "None", "youtube": "None", "website": "None", "summary": "None", "logo": "None", "latitude": 50.80265000000003, "longitude": -106.15014999999994}, "119166635RR0001": {"name": "ST. ANDREW'S UNITED CHURCH", "designationCode": "C", "categoryCode": "44", "address": "BOX 98", "city": "LOUGHEED", "province": "AB", "country": "CA", "postalCode": "T0B2V0", "twitter": "None", "instagram": "None", "facebook": "None", "youtube": "None", "website": "None", "summary": "None", "logo": "None", "latitude": 52.6714013175275, "longitude": -112.22238202605135}, "119166643RR0001": {"name": "ST. ANDREW'S UNITED CHURCH", "designationCode": "C", "categoryCode": "44", "address": "5226-51 AVE", "city": "LACOMBE", "province": "AB", "country": "CA", "postalCode": "T4L1J6", "twitter": "None", "instagram": "None", "facebook": "None", "youtube": "None", "website": "None", "summary": "None", "logo": "None", "latitude": 52.46470351485942, "longitude": -113.734971}, "119166650RR0001": {"name": "ST. ANDREW'S UNITED CHURCH", "designationCode": "C", "categoryCode": "44", "address": "BOX 132", "city": "CARDSTON", "province": "AB", "country": "CA", "postalCode": "T0K0K0", "twitter": "None", "instagram": "None", "facebook": "None", "youtube": "None", "website": "None", "summary": "None", "logo": "None", "latitude": 49.198480000000075, "longitude": -113.30176999999998}, "119166791RR0001": {"name": "ST. ANDREW'S UNITED CHURCH", "designationCode": "C", "categoryCode": "44", "address": "BOX 998", "city": "KASLO", "province": "BC", "country": "CA", "postalCode": "V0G1M0", "twitter": "None", "instagram": "None", "facebook": "None", "youtube": "None", "website": "None", "summary": "None", "logo": "None", "latitude": 49.91053000000005, "longitude": -116.90458999999998}, "129972311RR0001": {"name": "ST. ANDREW'S UNITED CHURCH", "designationCode": "C", "categoryCode": "44", "address": "479 UPPER PARADISE RD", "city": "HAMILTON", "province": "ON", "country": "CA", "postalCode": "L9C5E2", "twitter": "None", "instagram": "None", "facebook": "None", "youtube": "None", "website": "None", "summary": "None", "logo": "None", "latitude": 43.23190469718401, "longitude": -79.91228217938173}, "131623407RR0002": {"name": "ST. ANDREW'S UNITED CHURCH", "designationCode": "C", "categoryCode": "44", "address": "BOX 40 ST. ANDREWS UNITED", "city": "ATWATER", "province": "SK", "country": "CA", "postalCode": "S0A0C0", "twitter": "None", "instagram": "None", "facebook": "None", "youtube": "None", "website": "None", "summary": "None", "logo": "None", "latitude": 51.06276057654155, "longitude": -102.24037771106399}, "870919834RR0001": {"name": "ST. ANDREW'S UNITED CHURCH", "designationCode": "C", "categoryCode": "44", "address": "203 MCDONALD STREET", "city": "BALCARRES", "province": "SK", "country": "CA", "postalCode": "S0G0C0", "twitter": "None", "instagram": "None", "facebook": "None", "youtube": "None", "website": "None", "summary": "None", "logo": "None", "latitude": 50.80287343032839, "longitude": -103.5411347525941}, "887253599RR0001": {"name": "ST. ANDREW'S UNITED CHURCH", "designationCode": "C", "categoryCode": "44", "address": "PO BOX 104                    OLD BROCK STREET", "city": "VITTORIA", "province": "ON", "country": "CA", "postalCode": "N0E1W0", "twitter": "None", "instagram": "None", "facebook": "None", "youtube": "None", "website": "None", "summary": "None", "logo": "None", "latitude": 42.765613668633314, "longitude": -80.31481311026334}, "894244383RR0001": {"name": "ST. ANDREW'S UNITED CHURCH", "designationCode": "C", "categoryCode": "44", "address": "POST OFFICE BOX 63", "city": "KINISTINO", "province": "SK", "country": "CA", "postalCode": "S0J1H0", "twitter": "None", "instagram": "None", "facebook": "None", "youtube": "None", "website": "None", "summary": "None", "logo": "None", "latitude": 52.95167619052169, "longitude": -105.02926971926463}, "119165835RR0001": {"name": "ST. ANDREW'S UNITED CHURCH (CAIRO)", "designationCode": "C", "categoryCode": "44", "address": "1677 JOHNSTON ROAD", "city": "BOTHWELL", "province": "ON", "country": "CA", "postalCode": "N0P1C0", "twitter": "None", "instagram": "None", "facebook": "None", "youtube": "None", "website": "None", "summary": "None", "logo": "None", "latitude": 45.369406595450734, "longitude": -75.6350230855929}, "119165827RR0001": {"name": "ST. ANDREW'S UNITED CHURCH BEAVERTON", "designationCode": "C", "categoryCode": "44", "address": "PO BOX 359", "city": "BEAVERTON", "province": "ON", "country": "CA", "postalCode": "L0K1A0", "twitter": "None", "instagram": "None", "facebook": "None", "youtube": "None", "website": "None", "summary": "None", "logo": "None", "latitude": 44.43273000000005, "longitude": -79.15524999999997}, "119165876RR0001": {"name": "ST. ANDREW'S UNITED CHURCH HECKSTON", "designationCode": "C", "categoryCode": "44", "address": "PO BOX 5008", "city": "KEMPTVILLE", "province": "ON", "country": "CA", "postalCode": "K0G1J0", "twitter": "None", "instagram": "None", "facebook": "None", "youtube": "None", "website": "None", "summary": "None", "logo": "None", "latitude": 44.98774800000005, "longitude": -75.69332899999993}, "108005943RR0001": {"name": "ST. ANDREW'S UNITED CHURCH OF CANADA", "designationCode": "C", "categoryCode": "44", "address": "11 CHURCH ST", "city": "REXTON", "province": "NB", "country": "CA", "postalCode": "E4W1Y3", "twitter": "None", "instagram": "None", "facebook": "None", "youtube": "None", "website": "None", "summary": "None", "logo": "None", "latitude": 46.64790069109581, "longitude": -64.87432137621902}, "886745215RR0001": {"name": "ST. ANDREW'S UNITED CHURCH, BURNSTOWN", "designationCode": "C", "categoryCode": "44", "address": "1075 CALABOGIE ROAD           R.R. #1", "city": "RENFREW", "province": "ON", "country": "CA", "postalCode": "K7V3Z4", "twitter": "None", "instagram": "None", "facebook": "None", "youtube": "None", "website": "None", "summary": "None", "logo": "None", "latitude": 45.40884873771692, "longitude": -76.55794122269698}, "899010714RR0001": {"name": "ST. ANDREW'S UNITED CHURCH, CALABOGIE", "designationCode": "C", "categoryCode": "44", "address": "252 KENNEDY RD", "city": "CALABOGIE", "province": "ON", "country": "CA", "postalCode": "K0J1H0", "twitter": "None", "instagram": "None", "facebook": "None", "youtube": "None", "website": "None", "summary": "None", "logo": "None", "latitude": 45.27889055727421, "longitude": -76.7729995567546}, "119165868RR0001": {"name": "ST. ANDREW'S UNITED CHURCH, ESTON, SASKATCHEWAN", "designationCode": "C", "categoryCode": "44", "address": "BOX 67", "city": "ESTON", "province": "SK", "country": "CA", "postalCode": "S0L1A0", "twitter": "None", "instagram": "None", "facebook": "None", "youtube": "None", "website": "None", "summary": "None", "logo": "None", "latitude": 51.15382000000005, "longitude": -108.75371999999999}, "899009914RR0001": {"name": "ST. ANDREW'S UNITED CHURCH, WHITE LAKE", "designationCode": "C", "categoryCode": "44", "address": "56 FRIEDAY ST.", "city": "ARNPRIOR", "province": "ON", "country": "CA", "postalCode": "K7S0A6", "twitter": "None", "instagram": "None", "facebook": "None", "youtube": "None", "website": "None", "summary": "None", "logo": "None", "latitude": 45.42501646073054, "longitude": -76.37249264928755}, "108006669RR0001": {"name": "ST. ANDREW'S WESLEY CHURCH", "designationCode": "C", "categoryCode": "44", "address": "100-1022 NELSON STREET", "city": "VANCOUVER", "province": "BC", "country": "CA", "postalCode": "V6E4S7", "twitter": "None", "instagram": "None", "facebook": "None", "youtube": "None", "website": "None", "summary": "None", "logo": "None", "latitude": 49.2818147299326, "longitude": -123.12703024995655}, "108006677RR0001": {"name": "ST. ANDREW'S WESTMINISTER UNITED CHURCH", "designationCode": "C", "categoryCode": "44", "address": "6602 WHITE OAK ROAD", "city": "LONDON", "province": "ON", "country": "CA", "postalCode": "N6L1N3", "twitter": "None", "instagram": "None", "facebook": "None", "youtube": "None", "website": "None", "summary": "None", "logo": "None", "latitude": 42.86048915404806, "longitude": -81.23321379118883}, "108003989RR0001": {"name": "ST. ANDREW'S-BY-THE-LAKE UNITED CHURCH", "designationCode": "C", "categoryCode": "44", "address": "1 REDDEN ST", "city": "KINGSTON", "province": "ON", "country": "CA", "postalCode": "K7M4K7", "twitter": "None", "instagram": "None", "facebook": "None", "youtube": "None", "website": "None", "summary": "None", "logo": "None", "latitude": 44.217537065785635, "longitude": -76.56943115753917}, "108004029RR0001": {"name": "ST. ANDREW'S-CHALMERS PRESBYTERIAN CHURCH", "designationCode": "C", "categoryCode": "37", "address": "40B TORONTO ST S", "city": "UXBRIDGE", "province": "ON", "country": "CA", "postalCode": "L9P1G9", "twitter": "None", "instagram": "None", "facebook": "None", "youtube": "None", "website": "None", "summary": "None", "logo": "None", "latitude": 44.10757469937528, "longitude": -79.12309536710247}, "119165710RR0001": {"name": "ST. ANDREW'S-PRINGLE WOMEN'S MISSIONARY SOCIETY", "designationCode": "C", "categoryCode": "47", "address": "44 CHURCH ST E", "city": "BRAMPTON", "province": "ON", "country": "CA", "postalCode": "L6V1G3", "twitter": "None", "instagram": "None", "facebook": "None", "youtube": "None", "website": "None", "summary": "None", "logo": "None", "latitude": 43.689570494056056, "longitude": -79.76105026397923}, "107846867RR0001": {"name": "ST. ANDREW'S-WESLEY UNITED CHURCH", "designationCode": "C", "categoryCode": "44", "address": "P.O. BOX 160", "city": "SPRINGHILL", "province": "NS", "country": "CA", "postalCode": "B0M1X0", "twitter": "None", "instagram": "None", "facebook": "None", "youtube": "None", "website": "None", "summary": "None", "logo": "None", "latitude": 45.65057000000007, "longitude": -64.05729999999994}, "108005794RR0001": {"name": "ST. ANDREWS & ST. JAMES PRESBYTERIAN CHURCH", "designationCode": "C", "categoryCode": "37", "address": "BOX 399", "city": "CARDINAL", "province": "ON", "country": "CA", "postalCode": "K0E1E0", "twitter": "None", "instagram": "None", "facebook": "None", "youtube": "None", "website": "None", "summary": "None", "logo": "None", "latitude": 44.86089991776847, "longitude": -75.44398997648584}, "133027839RR0001": {"name": "ST. ANDREWS ABBEYFIELD HOUSING SOCIETY", "designationCode": "C", "categoryCode": "01", "address": "PO BOX 2395", "city": "SIDNEY", "province": "BC", "country": "CA", "postalCode": "V8L3Y3", "twitter": "None", "instagram": "None", "facebook": "None", "youtube": "None", "website": "None", "summary": "None", "logo": "None", "latitude": 48.65020800000005, "longitude": -123.39842299999994}, "119162964RR0001": {"name": "ST. ANDREWS ARTS COUNCIL INC.", "designationCode": "C", "categoryCode": "22", "address": "99 AUGUSTUS STREET", "city": "ST ANDREWS", "province": "NB", "country": "CA", "postalCode": "E5B2E9", "twitter": "None", "instagram": "None", "facebook": "None", "youtube": "None", "website": "None", "summary": "None", "logo": "None", "latitude": 45.072545449698346, "longitude": -67.0450635}, "828080168RR0001": {"name": "ST. ANDREWS AVOCA UNITED CHURCH", "designationCode": "C", "categoryCode": "44", "address": "150 CH AVOCA", "city": "GRENVILLE-SUR-LA-ROUGE", "province": "QC", "country": "CA", "postalCode": "J0V1B0", "twitter": "None", "instagram": "None", "facebook": "None", "youtube": "None", "website": "None", "summary": "None", "logo": "None", "latitude": 45.71367744186044, "longitude": -74.7120566285415}, "894362581RR0001": {"name": "ST. ANDREWS CHURCH", "designationCode": "C", "categoryCode": "37", "address": "BOX 1167", "city": "BOISSEVAIN", "province": "MB", "country": "CA", "postalCode": "R0K0E0", "twitter": "None", "instagram": "None", "facebook": "None", "youtube": "None", "website": "None", "summary": "None", "logo": "None", "latitude": 49.23156000000006, "longitude": -100.05945999999994}, "119163418RR0001": {"name": "ST. ANDREWS CIVIC TRUST INC.", "designationCode": "C", "categoryCode": "52", "address": "P.O. BOX 3239", "city": "ST ANDREWS", "province": "NB", "country": "CA", "postalCode": "E5B3S7", "twitter": "None", "instagram": "None", "facebook": "None", "youtube": "None", "website": "None", "summary": "None", "logo": "None", "latitude": 45.07792800000006, "longitude": -67.05383299999993}, "108004177RR0001": {"name": "ST. ANDREWS CO-OPERATIVE PLAYSCHOOL INC.", "designationCode": "C", "categoryCode": "20", "address": "32 MAIN STREET NORTH", "city": "MARKHAM", "province": "ON", "country": "CA", "postalCode": "L3P1X5", "twitter": "None", "instagram": "None", "facebook": "None", "youtube": "None", "website": "None", "summary": "None", "logo": "None", "latitude": 43.87513847931223, "longitude": -79.26019672323788}, "119163517RR0001": {"name": "ST. ANDREWS ESTONIAN EVANGELICAL LUTHERAN CONGREGATION IN TORONTO", "designationCode": "C", "categoryCode": "32", "address": "25 OLD YORK MILLS RD", "city": "NORTH YORK", "province": "ON", "country": "CA", "postalCode": "M2P1B5", "twitter": "None", "instagram": "None", "facebook": "None", "youtube": "None", "website": "None", "summary": "None", "logo": "None", "latitude": 43.743695754342625, "longitude": -79.40437802524677}, "119163574RR0001": {"name": "ST. ANDREWS HOUSING LIMITED", "designationCode": "C", "categoryCode": "01", "address": "12720-111 AVENUE", "city": "EDMONTON", "province": "AB", "country": "CA", "postalCode": "T5M3X3", "twitter": "None", "instagram": "None", "facebook": "None", "youtube": "None", "website": "None", "summary": "None", "logo": "None", "latitude": 53.55893547605132, "longitude": -113.54286328129149}}