{"135347557RR0002": {"name": "CHURCH OF THE NATIVITY MALVERN", "designationCode": "C", "categoryCode": "30", "address": "10 SEWELLS ROAD", "city": "SCARBOROUGH", "province": "ON", "country": "CA", "postalCode": "M1B3G5", "twitter": "None", "instagram": "None", "facebook": "None", "youtube": "None", "website": "None", "summary": "None", "logo": "None", "latitude": 43.80701537082334, "longitude": -79.21755326216157}, "106926074RR0001": {"name": "CHURCH OF THE NAZARENE", "designationCode": "C", "categoryCode": "39", "address": "PO BOX 252", "city": "OXFORD", "province": "NS", "country": "CA", "postalCode": "B0M1P0", "twitter": "None", "instagram": "None", "facebook": "None", "youtube": "None", "website": "None", "summary": "None", "logo": "None", "latitude": 45.73593000000005, "longitude": -63.86782999999997}, "106926082RR0001": {"name": "CHURCH OF THE NAZARENE", "designationCode": "C", "categoryCode": "39", "address": "738 TREMONT MOUNTAIN ROAD", "city": "KINGSTON", "province": "NS", "country": "CA", "postalCode": "B0P1R0", "twitter": "None", "instagram": "None", "facebook": "None", "youtube": "None", "website": "None", "summary": "None", "logo": "None", "latitude": 44.951020155433056, "longitude": -64.9327005706044}, "106926165RR0001": {"name": "CHURCH OF THE NAZARENE", "designationCode": "C", "categoryCode": "39", "address": "307 BROOKSIDE DRIVE", "city": "FREDERICTON", "province": "NB", "country": "CA", "postalCode": "E3A5K1", "twitter": "None", "instagram": "None", "facebook": "None", "youtube": "None", "website": "None", "summary": "None", "logo": "None", "latitude": 45.98890650366473, "longitude": -66.65312710542092}, "106926454RR0001": {"name": "CHURCH OF THE NAZARENE", "designationCode": "C", "categoryCode": "39", "address": "BOX 128", "city": "HIGH PRAIRIE", "province": "AB", "country": "CA", "postalCode": "T0G1E0", "twitter": "None", "instagram": "None", "facebook": "None", "youtube": "None", "website": "None", "summary": "None", "logo": "None", "latitude": 55.43123005496565, "longitude": -116.49809993060764}, "107794141RR0001": {"name": "CHURCH OF THE NAZARENE", "designationCode": "C", "categoryCode": "39", "address": "5402 - 43 STREET", "city": "OLDS", "province": "AB", "country": "CA", "postalCode": "T4H1B5", "twitter": "None", "instagram": "None", "facebook": "None", "youtube": "None", "website": "None", "summary": "None", "logo": "None", "latitude": 51.79897345268048, "longitude": -114.1146}, "107809139RR0001": {"name": "CHURCH OF THE NAZARENE", "designationCode": "C", "categoryCode": "39", "address": "RR #1                         P.O. BOX 694", "city": "OWEN SOUND", "province": "ON", "country": "CA", "postalCode": "N4K5R4", "twitter": "None", "instagram": "None", "facebook": "None", "youtube": "None", "website": "None", "summary": "None", "logo": "None", "latitude": 44.580807089109996, "longitude": -80.94789451485167}, "118863232RR0001": {"name": "CHURCH OF THE NAZARENE", "designationCode": "C", "categoryCode": "39", "address": "BOX 69", "city": "TRENTON", "province": "NS", "country": "CA", "postalCode": "B0K1X0", "twitter": "None", "instagram": "None", "facebook": "None", "youtube": "None", "website": "None", "summary": "None", "logo": "None", "latitude": 45.62400273902701, "longitude": -62.64792410764862}, "118863265RR0001": {"name": "CHURCH OF THE NAZARENE", "designationCode": "C", "categoryCode": "39", "address": "PO BOX 694", "city": "WINDSOR", "province": "NS", "country": "CA", "postalCode": "B0N2T0", "twitter": "None", "instagram": "None", "facebook": "None", "youtube": "None", "website": "None", "summary": "None", "logo": "None", "latitude": 44.990170000000035, "longitude": -64.12904999999995}, "118863299RR0001": {"name": "CHURCH OF THE NAZARENE", "designationCode": "C", "categoryCode": "39", "address": "PO BOX 10", "city": "ELMSDALE", "province": "PE", "country": "CA", "postalCode": "C0B1K0", "twitter": "None", "instagram": "None", "facebook": "None", "youtube": "None", "website": "None", "summary": "None", "logo": "None", "latitude": 46.820190000000025, "longitude": -64.13857999999993}, "118863455RR0001": {"name": "CHURCH OF THE NAZARENE", "designationCode": "C", "categoryCode": "39", "address": "366 INDEPENDENT ST", "city": "YORKTON", "province": "SK", "country": "CA", "postalCode": "S3N2Y1", "twitter": "None", "instagram": "None", "facebook": "None", "youtube": "None", "website": "None", "summary": "None", "logo": "None", "latitude": 51.206391503462456, "longitude": -102.48559102553523}, "118863471RR0001": {"name": "CHURCH OF THE NAZARENE", "designationCode": "C", "categoryCode": "39", "address": "BOX 5051", "city": "WESTLOCK", "province": "AB", "country": "CA", "postalCode": "T7P2P4", "twitter": "None", "instagram": "None", "facebook": "None", "youtube": "None", "website": "None", "summary": "None", "logo": "None", "latitude": 54.15543600000005, "longitude": -113.86003399999993}, "118863612RR0001": {"name": "CHURCH OF THE NAZARENE", "designationCode": "C", "categoryCode": "39", "address": "2111 CENTENNIAL STREET", "city": "WHITEHORSE", "province": "YT", "country": "CA", "postalCode": "Y1A3Z6", "twitter": "None", "instagram": "None", "facebook": "None", "youtube": "None", "website": "None", "summary": "None", "logo": "None", "latitude": 60.77721764556531, "longitude": -135.15555034139297}, "135401164RR0001": {"name": "CHURCH OF THE NAZARENE", "designationCode": "C", "categoryCode": "39", "address": "156 FITZROY ST", "city": "SUMMERSIDE", "province": "PE", "country": "CA", "postalCode": "C1N1H3", "twitter": "None", "instagram": "None", "facebook": "None", "youtube": "None", "website": "None", "summary": "None", "logo": "None", "latitude": 46.39228161281672, "longitude": -63.786195932281124}, "891006389RR0001": {"name": "CHURCH OF THE NAZARENE", "designationCode": "C", "categoryCode": "39", "address": "BOX 22071", "city": "BRANDON", "province": "MB", "country": "CA", "postalCode": "R7A6Y9", "twitter": "None", "instagram": "None", "facebook": "None", "youtube": "None", "website": "None", "summary": "None", "logo": "None", "latitude": 49.84965600000005, "longitude": -99.96197299999993}, "894113372RR0004": {"name": "CHURCH OF THE NAZARENE", "designationCode": "C", "categoryCode": "39", "address": "2390 MCMILLAN RD", "city": "ABBOTSFORD", "province": "BC", "country": "CA", "postalCode": "V2S7R3", "twitter": "None", "instagram": "None", "facebook": "None", "youtube": "None", "website": "None", "summary": "None", "logo": "None", "latitude": 49.04517560199668, "longitude": -122.26017874802423}, "894113372RR0016": {"name": "CHURCH OF THE NAZARENE", "designationCode": "C", "categoryCode": "39", "address": "2150 DEPARTURE BAY ROAD", "city": "NANAIMO", "province": "BC", "country": "CA", "postalCode": "V9S3V6", "twitter": "None", "instagram": "None", "facebook": "None", "youtube": "None", "website": "None", "summary": "None", "logo": "None", "latitude": 49.19131217664542, "longitude": -123.96608378822364}, "894113372RR0021": {"name": "CHURCH OF THE NAZARENE", "designationCode": "C", "categoryCode": "39", "address": "P.O. BOX 1172", "city": "PORT ALBERNI", "province": "BC", "country": "CA", "postalCode": "V9Y7M1", "twitter": "None", "instagram": "None", "facebook": "None", "youtube": "None", "website": "None", "summary": "None", "logo": "None", "latitude": 49.23443400000005, "longitude": -124.80757099999994}, "894113372RR0022": {"name": "CHURCH OF THE NAZARENE", "designationCode": "C", "categoryCode": "39", "address": "PO BOX 198", "city": "TOMSLAKE", "province": "BC", "country": "CA", "postalCode": "V0C2L0", "twitter": "None", "instagram": "None", "facebook": "None", "youtube": "None", "website": "None", "summary": "None", "logo": "None", "latitude": 55.56137000000007, "longitude": -120.07966999999996}, "127875276RR0001": {"name": "CHURCH OF THE NAZARENE CANADA", "designationCode": "C", "categoryCode": "39", "address": "3657 PONYTRAIL DR", "city": "MISSISSAUGA", "province": "ON", "country": "CA", "postalCode": "L4X1W5", "twitter": "None", "instagram": "None", "facebook": "None", "youtube": "None", "website": "None", "summary": "None", "logo": "None", "latitude": 43.632936501269405, "longitude": -79.59044261223978}, "894113372RR0002": {"name": "CHURCH OF THE NAZARENE CANADA PACIFIC DISTRICT", "designationCode": "C", "categoryCode": "39", "address": "9012 160 ST", "city": "SURREY", "province": "BC", "country": "CA", "postalCode": "V4N3A5", "twitter": "None", "instagram": "None", "facebook": "None", "youtube": "None", "website": "None", "summary": "None", "logo": "None", "latitude": 49.166765999999996, "longitude": -122.77883998776632}, "106926652RR0001": {"name": "CHURCH OF THE NAZARENE CANADA WEST DISTRICT", "designationCode": "C", "categoryCode": "39", "address": "PO BOX 80047 RPO TOWER LANE", "city": "AIRDRIE", "province": "AB", "country": "CA", "postalCode": "T4B2V8", "twitter": "None", "instagram": "None", "facebook": "None", "youtube": "None", "website": "None", "summary": "None", "logo": "None", "latitude": 51.28851200898983, "longitude": -114.01787887950324}, "894113372RR0003": {"name": "CHURCH OF THE NAZARENE HOPE", "designationCode": "C", "categoryCode": "39", "address": "65644 GARDNER DR", "city": "HOPE", "province": "BC", "country": "CA", "postalCode": "V0X1L1", "twitter": "None", "instagram": "None", "facebook": "None", "youtube": "None", "website": "None", "summary": "None", "logo": "None", "latitude": 49.37795943161729, "longitude": -121.41299404982969}, "894113372RR0023": {"name": "CHURCH OF THE NAZARENE NORTHERN LIGHTS CHRISTIAN FELLOWSHIP", "designationCode": "C", "categoryCode": "39", "address": "P.O. BOX 1629", "city": "CHETWYND", "province": "BC", "country": "CA", "postalCode": "V0C1J0", "twitter": "None", "instagram": "None", "facebook": "None", "youtube": "None", "website": "None", "summary": "None", "logo": "None", "latitude": 55.13200336111122, "longitude": -121.00608273128003}, "118863356RR0001": {"name": "CHURCH OF THE NAZARENE OF BRAMPTON", "designationCode": "C", "categoryCode": "39", "address": "68 RUTHERFORD RD N", "city": "BRAMPTON", "province": "ON", "country": "CA", "postalCode": "L6V2J1", "twitter": "None", "instagram": "None", "facebook": "None", "youtube": "None", "website": "None", "summary": "None", "logo": "None", "latitude": 43.70412028838929, "longitude": -79.74700647028118}, "132219445RR0001": {"name": "CHURCH OF THE NAZARENE OF ROCKY MOUNTAIN HOUSE ALTA", "designationCode": "C", "categoryCode": "39", "address": "5340 59 AVENUE", "city": "ROCKY MOUNTAIN HOUSE", "province": "AB", "country": "CA", "postalCode": "T4T1J4", "twitter": "None", "instagram": "None", "facebook": "None", "youtube": "None", "website": "None", "summary": "None", "logo": "None", "latitude": 52.3871764782157, "longitude": -114.92466316763806}, "132154436RR0001": {"name": "CHURCH OF THE NAZARENE,", "designationCode": "C", "categoryCode": "39", "address": "BOX 1388", "city": "CLARESHOLM", "province": "AB", "country": "CA", "postalCode": "T0L0T0", "twitter": "None", "instagram": "None", "facebook": "None", "youtube": "None", "website": "None", "summary": "None", "logo": "None", "latitude": 50.026080000000036, "longitude": -113.58213999999998}, "892219171RR0001": {"name": "CHURCH OF THE NAZARENE,", "designationCode": "C", "categoryCode": "39", "address": "BOX 2760", "city": "DRUMHELLER", "province": "AB", "country": "CA", "postalCode": "T0J0Y0", "twitter": "None", "instagram": "None", "facebook": "None", "youtube": "None", "website": "None", "summary": "None", "logo": "None", "latitude": 51.46154700000005, "longitude": -112.70878099999993}, "894113372RR0013": {"name": "CHURCH OF THE NAZARENE, CANADA PACIFIC DISTRICT KELOWNA BRANCH", "designationCode": "C", "categoryCode": "39", "address": "1305 HIGHWAY 33 WEST", "city": "KELOWNA", "province": "BC", "country": "CA", "postalCode": "V1X1Z3", "twitter": "None", "instagram": "None", "facebook": "None", "youtube": "None", "website": "None", "summary": "None", "logo": "None", "latitude": 49.88901449509524, "longitude": -119.41236097446478}, "130301492RR0001": {"name": "CHURCH OF THE NAZARENE, LACOMBE", "designationCode": "C", "categoryCode": "39", "address": "4930 WOODLAND DRIVE", "city": "LACOMBE", "province": "AB", "country": "CA", "postalCode": "T4L1P1", "twitter": "None", "instagram": "None", "facebook": "None", "youtube": "None", "website": "None", "summary": "None", "logo": "None", "latitude": 52.47490722791244, "longitude": -113.72798407421108}, "139872055RR0001": {"name": "CHURCH OF THE NAZARENE'S NEW LIFE COMMUNITY", "designationCode": "C", "categoryCode": "39", "address": "81 PRINCE ALBERT ROAD", "city": "DARTHMOUTH", "province": "NS", "country": "CA", "postalCode": "B2Y1M1", "twitter": "None", "instagram": "None", "facebook": "None", "youtube": "None", "website": "None", "summary": "None", "logo": "None", "latitude": 44.6705936194818, "longitude": -63.56277418746048}, "106926710RR0001": {"name": "CHURCH OF THE OPEN BIBLE", "designationCode": "C", "categoryCode": "39", "address": "2162 KAWARTHA HEIGHTS BLVD", "city": "PETERBOROUGH", "province": "ON", "country": "CA", "postalCode": "K9J7Y9", "twitter": "None", "instagram": "None", "facebook": "None", "youtube": "None", "website": "None", "summary": "None", "logo": "None", "latitude": 44.28595102083203, "longitude": -78.36621679055365}, "131160293RR0001": {"name": "CHURCH OF THE OPEN BIBLE", "designationCode": "C", "categoryCode": "39", "address": "3704-42 STREET", "city": "PONOKA", "province": "AB", "country": "CA", "postalCode": "T4J1A7", "twitter": "None", "instagram": "None", "facebook": "None", "youtube": "None", "website": "None", "summary": "None", "logo": "None", "latitude": 52.66559379433325, "longitude": -113.56512680122853}, "888110749RR0001": {"name": "CHURCH OF THE PRINCE OF PEACE", "designationCode": "C", "categoryCode": "39", "address": "15 RACINE ROAD", "city": "TORONTO", "province": "ON", "country": "CA", "postalCode": "M9W2Z4", "twitter": "None", "instagram": "None", "facebook": "None", "youtube": "None", "website": "None", "summary": "None", "logo": "None", "latitude": 43.715215521207405, "longitude": -79.5719699686364}, "118863695RR0001": {"name": "CHURCH OF THE REDEEMER", "designationCode": "C", "categoryCode": "37", "address": "P.O. BOX 757", "city": "DESERONTO", "province": "ON", "country": "CA", "postalCode": "K0K1X0", "twitter": "None", "instagram": "None", "facebook": "None", "youtube": "None", "website": "None", "summary": "None", "logo": "None", "latitude": 44.24640750000001, "longitude": -77.06454975}, "118863729RR0001": {"name": "CHURCH OF THE REDEEMER", "designationCode": "C", "categoryCode": "30", "address": "162 BLOOR ST W", "city": "TORONTO", "province": "ON", "country": "CA", "postalCode": "M5S1M4", "twitter": "None", "instagram": "None", "facebook": "None", "youtube": "None", "website": "None", "summary": "None", "logo": "None", "latitude": 43.668802296727826, "longitude": -79.39383721608279}, "118863737RR0002": {"name": "CHURCH OF THE REDEEMER", "designationCode": "C", "categoryCode": "30", "address": "15399 MUIRKIRK LINE           RR 2", "city": "MUIRKIRK", "province": "ON", "country": "CA", "postalCode": "N0L1X0", "twitter": "None", "instagram": "None", "facebook": "None", "youtube": "None", "website": "None", "summary": "None", "logo": "None", "latitude": 42.51944762836862, "longitude": -81.768208132812}, "118863752RR0002": {"name": "CHURCH OF THE REDEEMER", "designationCode": "C", "categoryCode": "30", "address": "8400 MIDDLE SIDE RD", "city": "MCGREGOR", "province": "ON", "country": "CA", "postalCode": "N0R1J0", "twitter": "None", "instagram": "None", "facebook": "None", "youtube": "None", "website": "None", "summary": "None", "logo": "None", "latitude": 42.1398908243814, "longitude": -82.97997784251513}, "118863760RR0002": {"name": "CHURCH OF THE REDEEMER", "designationCode": "C", "categoryCode": "30", "address": "P O BOX 221", "city": "ROSSEAU", "province": "ON", "country": "CA", "postalCode": "P0C1J0", "twitter": "None", "instagram": "None", "facebook": "None", "youtube": "None", "website": "None", "summary": "None", "logo": "None", "latitude": 45.257070000000056, "longitude": -79.64000999999996}, "118863778RR0002": {"name": "CHURCH OF THE REDEEMER", "designationCode": "C", "categoryCode": "30", "address": "PATRICIA J. FLUKE             BOX 88", "city": "THESSALON", "province": "ON", "country": "CA", "postalCode": "P0R1L0", "twitter": "None", "instagram": "None", "facebook": "None", "youtube": "None", "website": "None", "summary": "None", "logo": "None", "latitude": 46.185219000000004, "longitude": -82.9593585}, "108084658RR0076": {"name": "CHURCH OF THE RESURRECTION", "designationCode": "C", "categoryCode": "30", "address": "3191 RIVERSIDE DR", "city": "OTTAWA", "province": "ON", "country": "CA", "postalCode": "K1V8N8", "twitter": "None", "instagram": "None", "facebook": "None", "youtube": "None", "website": "None", "summary": "None", "logo": "None", "latitude": 45.35941071715065, "longitude": -75.68857601656245}, "118863802RR0002": {"name": "CHURCH OF THE RESURRECTION", "designationCode": "C", "categoryCode": "30", "address": "99 MOUNT PLEASANT", "city": "POINTE CLAIRE", "province": "QC", "country": "CA", "postalCode": "H9R2T7", "twitter": "None", "instagram": "None", "facebook": "None", "youtube": "None", "website": "None", "summary": "None", "logo": "None", "latitude": 45.45205071080265, "longitude": -73.79034789231919}, "118863836RR0001": {"name": "CHURCH OF THE RESURRECTION", "designationCode": "C", "categoryCode": "30", "address": "1100 WOODBINE AVE", "city": "TORONTO", "province": "ON", "country": "CA", "postalCode": "M4C4C7", "twitter": "None", "instagram": "None", "facebook": "None", "youtube": "None", "website": "None", "summary": "None", "logo": "None", "latitude": 43.689174643343584, "longitude": -79.31432327730944}, "119122786RR0014": {"name": "CHURCH OF THE RESURRECTION", "designationCode": "C", "categoryCode": "38", "address": "6500 SOUTHRIDGE AVE", "city": "PRINCE GEORGE", "province": "BC", "country": "CA", "postalCode": "V2N5P9", "twitter": "None", "instagram": "None", "facebook": "None", "youtube": "None", "website": "None", "summary": "None", "logo": "None", "latitude": 53.86420563941114, "longitude": -122.78374828519728}, "106926827RR0001": {"name": "CHURCH OF THE ROCK INC.", "designationCode": "C", "categoryCode": "39", "address": "1397 BUFFALO PL", "city": "WINNIPEG", "province": "MB", "country": "CA", "postalCode": "R3T1L6", "twitter": "None", "instagram": "None", "facebook": "None", "youtube": "None", "website": "None", "summary": "None", "logo": "None", "latitude": 49.83751188874117, "longitude": -97.16764258246272}, "108099771RR0114": {"name": "CHURCH OF THE TRANSFIGURATION", "designationCode": "C", "categoryCode": "30", "address": "320 GLENRIDGE AVE", "city": "ST CATHARINES", "province": "ON", "country": "CA", "postalCode": "L2T3K7", "twitter": "None", "instagram": "None", "facebook": "None", "youtube": "None", "website": "None", "summary": "None", "logo": "None", "latitude": 43.13416460199668, "longitude": -79.23906950879989}, "118863919RR0001": {"name": "CHURCH OF THE TRANSFIGURATION", "designationCode": "C", "categoryCode": "30", "address": "111 MANOR RD E", "city": "TORONTO", "province": "ON", "country": "CA", "postalCode": "M4S1R4", "twitter": "None", "instagram": "None", "facebook": "None", "youtube": "None", "website": "None", "summary": "None", "logo": "None", "latitude": 43.70370286701511, "longitude": -79.39137811766413}, "133328005RR0001": {"name": "CHURCH OF THE TRANSFIGURATION,", "designationCode": "C", "categoryCode": "38", "address": "131 VICTORIA STREET SOUTH", "city": "KITCHENER", "province": "ON", "country": "CA", "postalCode": "N2G2B6", "twitter": "None", "instagram": "None", "facebook": "None", "youtube": "None", "website": "None", "summary": "None", "logo": "None", "latitude": 43.44940096029785, "longitude": -80.50140123783842}, "108151861RR0001": {"name": "CHURCH OF THE UNITED BRETHREN IN CHRIST", "designationCode": "C", "categoryCode": "39", "address": "2536 STEVENSVILLE RD          BOX 131", "city": "STEVENSVILLE", "province": "ON", "country": "CA", "postalCode": "L0S1S0", "twitter": "None", "instagram": "None", "facebook": "None", "youtube": "None", "website": "None", "summary": "None", "logo": "None", "latitude": 42.94434644526597, "longitude": -79.05466804017598}, "106926850RR0001": {"name": "CHURCH OF THE WAY", "designationCode": "C", "categoryCode": "36", "address": "702 PRETE STREET", "city": "SUDBURY", "province": "ON", "country": "CA", "postalCode": "P3E3X5", "twitter": "None", "instagram": "None", "facebook": "None", "youtube": "None", "website": "None", "summary": "None", "logo": "None", "latitude": 46.47695549963506, "longitude": -81.00596368654725}, "118863976RR0001": {"name": "CHURCH OF THE WAY", "designationCode": "C", "categoryCode": "39", "address": "450 LILAC ST", "city": "WINNIPEG", "province": "MB", "country": "CA", "postalCode": "R3M2T9", "twitter": "None", "instagram": "None", "facebook": "None", "youtube": "None", "website": "None", "summary": "None", "logo": "None", "latitude": 49.8643033524728, "longitude": -97.15298736029175}, "118863984RR0001": {"name": "CHURCH OF THE WAY", "designationCode": "C", "categoryCode": "34", "address": "PO BOX 57", "city": "GRANISLE", "province": "BC", "country": "CA", "postalCode": "V0J1W0", "twitter": "None", "instagram": "None", "facebook": "None", "youtube": "None", "website": "None", "summary": "None", "logo": "None", "latitude": 54.9212895163928, "longitude": -126.54672808639513}, "873416663RR0001": {"name": "CHURCH OF TORONTO (NEW TESTAMENT)", "designationCode": "C", "categoryCode": "39", "address": "602 HURON STREET", "city": "TORONTO", "province": "ON", "country": "CA", "postalCode": "M5R2R7", "twitter": "None", "instagram": "None", "facebook": "None", "youtube": "None", "website": "None", "summary": "None", "logo": "None", "latitude": 43.672222519562624, "longitude": -79.40351562020295}, "118863935RR0002": {"name": "CHURCH OF TRANSFIGURATION", "designationCode": "C", "categoryCode": "30", "address": "33 BROMLEIGH AV", "city": "LONDON", "province": "ON", "country": "CA", "postalCode": "N6G1V1", "twitter": "None", "instagram": "None", "facebook": "None", "youtube": "None", "website": "None", "summary": "None", "logo": "None", "latitude": 42.99951109521599, "longitude": -81.29452455118602}, "871240982RR0001": {"name": "CHURCH OF TRUTH INTERNATIONAL", "designationCode": "C", "categoryCode": "49", "address": "628 MAUDE COMMON", "city": "BURLINGTON", "province": "ON", "country": "CA", "postalCode": "L7L0C7", "twitter": "None", "instagram": "None", "facebook": "None", "youtube": "None", "website": "None", "summary": "None", "logo": "None", "latitude": 43.36641959755327, "longitude": -79.77108885443471}, "118863992RR0001": {"name": "CHURCH OF UNIVERSAL LOVE", "designationCode": "C", "categoryCode": "39", "address": "951 WILSON AVE, UNIT 16       SUITE 1A", "city": "TORONTO", "province": "ON", "country": "CA", "postalCode": "M3K2A7", "twitter": "None", "instagram": "None", "facebook": "None", "youtube": "None", "website": "None", "summary": "None", "logo": "None", "latitude": 43.72865285922481, "longitude": -79.47559572312325}, "141115964RR0001": {"name": "CHURCH OF ZION", "designationCode": "C", "categoryCode": "39", "address": "612 COLUMBIA STREET", "city": "NEW WESTMINSTER", "province": "BC", "country": "CA", "postalCode": "V3M1A5", "twitter": "None", "instagram": "None", "facebook": "None", "youtube": "None", "website": "None", "summary": "None", "logo": "None", "latitude": 49.202968324298645, "longitude": -122.90814928947685}, "899076483RR0001": {"name": "CHURCH OF ZION UNITED PENTECOSTAL CHURCH", "designationCode": "C", "categoryCode": "39", "address": "PO BOX 63", "city": "MIDDLE ARM", "province": "NL", "country": "CA", "postalCode": "A0K3R0", "twitter": "None", "instagram": "None", "facebook": "None", "youtube": "None", "website": "None", "summary": "None", "logo": "None", "latitude": 49.70423000000005, "longitude": -56.08952999999997}, "107435554RR0001": {"name": "CHURCH ON THE HILL", "designationCode": "C", "categoryCode": "36", "address": "PO BOX 118", "city": "GLENAVON", "province": "SK", "country": "CA", "postalCode": "S0G1Y0", "twitter": "None", "instagram": "None", "facebook": "None", "youtube": "None", "website": "None", "summary": "None", "logo": "None", "latitude": 50.194980000000044, "longitude": -103.14260999999999}, "875009227RR0001": {"name": "CHURCH ON THE HILL", "designationCode": "C", "categoryCode": "36", "address": "594 COURTHOUSE ROAD", "city": "COBOURG", "province": "ON", "country": "CA", "postalCode": "K9A5J6", "twitter": "None", "instagram": "None", "facebook": "None", "youtube": "None", "website": "None", "summary": "None", "logo": "None", "latitude": 43.97249910410281, "longitude": -78.19669054544362}, "106983935RR0001": {"name": "CHURCH ON THE QUEENSWAY", "designationCode": "C", "categoryCode": "36", "address": "1536 THE QUEENSWAY", "city": "TORONTO", "province": "ON", "country": "CA", "postalCode": "M8Z1T5", "twitter": "None", "instagram": "None", "facebook": "None", "youtube": "None", "website": "None", "summary": "None", "logo": "None", "latitude": 43.61867905580231, "longitude": -79.5371375162444}, "118864016RR0001": {"name": "CHURCH ON THE ROCK", "designationCode": "C", "categoryCode": "39", "address": "2084 14TH LINE", "city": "LAKEFIELD", "province": "ON", "country": "CA", "postalCode": "K0L2H0", "twitter": "None", "instagram": "None", "facebook": "None", "youtube": "None", "website": "None", "summary": "None", "logo": "None", "latitude": 44.49546309907875, "longitude": -78.30701065416177}, "810424952RR0001": {"name": "CHURCH ON THE ROCK", "designationCode": "C", "categoryCode": "39", "address": "2149 UPPER JAMES STREET", "city": "MOUNT HOPE", "province": "ON", "country": "CA", "postalCode": "L0R1W0", "twitter": "None", "instagram": "None", "facebook": "None", "youtube": "None", "website": "None", "summary": "None", "logo": "None", "latitude": 43.186299915892505, "longitude": -79.90044197178172}, "107469868RR0001": {"name": "CHURCH ON THE ROCK INC.", "designationCode": "C", "categoryCode": "47", "address": "P.O. BOX 3094", "city": "PARADISE", "province": "NL", "country": "CA", "postalCode": "A1L3W3", "twitter": "None", "instagram": "None", "facebook": "None", "youtube": "None", "website": "None", "summary": "None", "logo": "None", "latitude": 47.52861900000005, "longitude": -52.87908049999993}, "888565595RR0001": {"name": "CHURCH ON THE SOUTHSIDE", "designationCode": "C", "categoryCode": "39", "address": "46185 OLDS DR", "city": "CHILLIWACK", "province": "BC", "country": "CA", "postalCode": "V2P0B5", "twitter": "None", "instagram": "None", "facebook": "None", "youtube": "None", "website": "None", "summary": "None", "logo": "None", "latitude": 49.150766249552525, "longitude": -121.94612526285405}, "130303878RR0001": {"name": "CHURCH ON THE WAY", "designationCode": "C", "categoryCode": "47", "address": "3736 CAMBRIDGE ST", "city": "BURNABY", "province": "BC", "country": "CA", "postalCode": "V5C1G1", "twitter": "None", "instagram": "None", "facebook": "None", "youtube": "None", "website": "None", "summary": "None", "logo": "None", "latitude": 49.28656952842077, "longitude": -123.02240119178829}, "855296323RR0001": {"name": "CHURCH ON THE WAY", "designationCode": "C", "categoryCode": "39", "address": "BOX 700                       BLUEWATER HW 21", "city": "BAYFIELD", "province": "ON", "country": "CA", "postalCode": "N0M1G0", "twitter": "None", "instagram": "None", "facebook": "None", "youtube": "None", "website": "None", "summary": "None", "logo": "None", "latitude": 43.560155818023574, "longitude": -81.69496554778591}, "897300117RR0001": {"name": "CHURCH ON 99", "designationCode": "C", "categoryCode": "39", "address": "BOX 1729", "city": "SQUAMISH", "province": "BC", "country": "CA", "postalCode": "V8B0B2", "twitter": "None", "instagram": "None", "facebook": "None", "youtube": "None", "website": "None", "summary": "None", "logo": "None", "latitude": 49.69853700000006, "longitude": -123.15505399999994}, "891905408RR0001": {"name": "CHURCH PLANTING MINISTRIES INCORPORATED", "designationCode": "C", "categoryCode": "39", "address": "P.O. BOX 14507", "city": "MISSISSAUGA", "province": "ON", "country": "CA", "postalCode": "L5R4G3", "twitter": "None", "instagram": "None", "facebook": "None", "youtube": "None", "website": "None", "summary": "None", "logo": "None", "latitude": 43.58690700000005, "longitude": -79.64535049999994}, "886610039RR0001": {"name": "CHURCH RESOURCE MINISTRIES CANADA", "designationCode": "C", "categoryCode": "47", "address": "1424 COMMERCIAL DR.           P.O. BOX 21572", "city": "VANCOUVER", "province": "BC", "country": "CA", "postalCode": "V5L3X9", "twitter": "None", "instagram": "None", "facebook": "None", "youtube": "None", "website": "None", "summary": "None", "logo": "None", "latitude": 49.271858533335184, "longitude": -123.06953653292588}, "131582918RR0001": {"name": "CHURCH TRIUMPHANT", "designationCode": "C", "categoryCode": "39", "address": "1675 PORTLAND CRT.", "city": "PICKERING", "province": "ON", "country": "CA", "postalCode": "L1V5L5", "twitter": "None", "instagram": "None", "facebook": "None", "youtube": "None", "website": "None", "summary": "None", "logo": "None", "latitude": 43.83990712626248, "longitude": -79.07359431458833}, "118864065RR0001": {"name": "CHURCH UNIVERSAL AND TRIUMPHANT ASSOCIATION OF CANADA (ALBERTA)", "designationCode": "C", "categoryCode": "49", "address": "47-60 BEACHAM WAY NW", "city": "CALGARY", "province": "AB", "country": "CA", "postalCode": "T3K1R8", "twitter": "None", "instagram": "None", "facebook": "None", "youtube": "None", "website": "None", "summary": "None", "logo": "None", "latitude": 51.129459051907176, "longitude": -114.09443504440534}, "132636259RR0001": {"name": "CHURCH-ON-THE-HILL, ORILLIA", "designationCode": "C", "categoryCode": "39", "address": "96 QUINN AVE", "city": "ORILLIA", "province": "ON", "country": "CA", "postalCode": "L3V3H5", "twitter": "None", "instagram": "None", "facebook": "None", "youtube": "None", "website": "None", "summary": "None", "logo": "None", "latitude": 44.596095088453445, "longitude": -79.44182124899382}, "118859131RR0001": {"name": "CHURCHBRIDGE AND DISTRICT DONORS CHOICE", "designationCode": "A", "categoryCode": "05", "address": "BOX 132", "city": "CHURCHBRIDGE", "province": "SK", "country": "CA", "postalCode": "S0A0M0", "twitter": "None", "instagram": "None", "facebook": "None", "youtube": "None", "website": "None", "summary": "None", "logo": "None", "latitude": 50.897380000000055, "longitude": -101.89767999999998}, "819923673RR0001": {"name": "CHURCHBRIDGE DAYCARE CO-OPERATIVE", "designationCode": "C", "categoryCode": "01", "address": "BOX 185", "city": "CHURCHBRIDGE", "province": "SK", "country": "CA", "postalCode": "S0A0M0", "twitter": "None", "instagram": "None", "facebook": "None", "youtube": "None", "website": "None", "summary": "None", "logo": "None", "latitude": 50.897380000000055, "longitude": -101.89767999999998}, "106922784RR0001": {"name": "CHURCHBRIDGE GOSPEL OUTREACH CENTER INC.", "designationCode": "C", "categoryCode": "39", "address": "BOX 246", "city": "LANGENBURG", "province": "SK", "country": "CA", "postalCode": "S0A2A0", "twitter": "None", "instagram": "None", "facebook": "None", "youtube": "None", "website": "None", "summary": "None", "logo": "None", "latitude": 50.84159000000005, "longitude": -101.69833999999997}, "876622903RR0001": {"name": "CHURCHES BY THE BLUFFS COMMUNITY SERVICES", "designationCode": "C", "categoryCode": "09", "address": "33 EAST ROAD", "city": "TORONTO", "province": "ON", "country": "CA", "postalCode": "M1N1Z9", "twitter": "None", "instagram": "None", "facebook": "None", "youtube": "None", "website": "None", "summary": "None", "logo": "None", "latitude": 43.68816928391723, "longitude": -79.2716467539386}, "871206942RR0001": {"name": "CHURCHES OF SALMON ARM USED GOODS SOCIETY", "designationCode": "C", "categoryCode": "03", "address": "461 BEATTY AVE NW", "city": "SALMON ARM", "province": "BC", "country": "CA", "postalCode": "V1E1W3", "twitter": "None", "instagram": "None", "facebook": "None", "youtube": "None", "website": "None", "summary": "None", "logo": "None", "latitude": 50.70064492480796, "longitude": -119.290621692221}, "888671179RR0001": {"name": "CHURCHES-ON-THE-HILL FOOD BANK", "designationCode": "C", "categoryCode": "09", "address": "701 - 22 SHALLMAR BLVD", "city": "TORONTO", "province": "ON", "country": "CA", "postalCode": "M5N2Z8", "twitter": "None", "instagram": "None", "facebook": "None", "youtube": "None", "website": "None", "summary": "None", "logo": "None", "latitude": 43.70432646047076, "longitude": -79.4255620649489}, "859014508RR0001": {"name": "CHURCHILL ACADEMY INCORPORATED", "designationCode": "C", "categoryCode": "20", "address": "160 FENERTY RD", "city": "MIDDLE SACKVILLE", "province": "NS", "country": "CA", "postalCode": "B4E3B1", "twitter": "None", "instagram": "None", "facebook": "None", "youtube": "None", "website": "None", "summary": "None", "logo": "None", "latitude": 44.806448608661775, "longitude": -63.73798996006671}, "899419188RR0001": {"name": "CHURCHILL ARTS COUNCIL INC.", "designationCode": "C", "categoryCode": "22", "address": "BOX 1014", "city": "CHURCHILL", "province": "MB", "country": "CA", "postalCode": "R0B0E0", "twitter": "None", "instagram": "None", "facebook": "None", "youtube": "None", "website": "None", "summary": "None", "logo": "None", "latitude": 53.705411999999995, "longitude": -100.31297540286681}, "106922891RR0001": {"name": "CHURCHILL BAPTIST CHURCH", "designationCode": "C", "categoryCode": "31", "address": "15336 NINTH LINE", "city": "STOUFFVILLE", "province": "ON", "country": "CA", "postalCode": "L4A3N3", "twitter": "None", "instagram": "None", "facebook": "None", "youtube": "None", "website": "None", "summary": "None", "logo": "None", "latitude": 44.04514873076931, "longitude": -79.27278052966057}, "118859180RR0001": {"name": "CHURCHILL BAPTIST CHURCH", "designationCode": "C", "categoryCode": "31", "address": "16515 MOUNT PLEASANT RD", "city": "CALEDON", "province": "ON", "country": "CA", "postalCode": "L7E3N5", "twitter": "None", "instagram": "None", "facebook": "None", "youtube": "None", "website": "None", "summary": "None", "logo": "None", "latitude": 43.95665715188367, "longitude": -79.79666642780907}, "118859206RR0001": {"name": "CHURCHILL COMMUNITY CHURCH", "designationCode": "C", "categoryCode": "39", "address": "14406 THIRD LINE NORTH", "city": "ACTON", "province": "ON", "country": "CA", "postalCode": "L7J2L8", "twitter": "None", "instagram": "None", "facebook": "None", "youtube": "None", "website": "None", "summary": "None", "logo": "None", "latitude": 43.6434345, "longitude": -80.036694}, "802773275RR0001": {"name": "CHURCHILL FOUNDATION VANCOUVER ISLAND", "designationCode": "C", "categoryCode": "23", "address": "32 - 1290 TOLMIE AVE", "city": "VICTORIA", "province": "BC", "country": "CA", "postalCode": "V8P1E3", "twitter": "None", "instagram": "None", "facebook": "None", "youtube": "None", "website": "None", "summary": "None", "logo": "None", "latitude": 48.45038142050881, "longitude": -123.34890250562684}, "141081836RR0001": {"name": "CHURCHILL JOINT GROUP COMMITTEE", "designationCode": "C", "categoryCode": "29", "address": "BOX 611", "city": "CHURCHILL", "province": "MB", "country": "CA", "postalCode": "R0B0E0", "twitter": "None", "instagram": "None", "facebook": "None", "youtube": "None", "website": "None", "summary": "None", "logo": "None", "latitude": 53.705411999999995, "longitude": -100.31297540286681}, "131056814RR0001": {"name": "CHURCHILL PARK FAMILY CARE SOCIETY", "designationCode": "C", "categoryCode": "09", "address": "3311 CENTER STREET NORTH", "city": "CALGARY", "province": "AB", "country": "CA", "postalCode": "T2E2X7", "twitter": "None", "instagram": "None", "facebook": "None", "youtube": "None", "website": "None", "summary": "None", "logo": "None", "latitude": 51.082028402995014, "longitude": -114.06243012603227}, "895571362RR0001": {"name": "CHURCHILL PARK UNITED CHURCH", "designationCode": "C", "categoryCode": "44", "address": "525 BERESFORD AVENUE", "city": "WINNIPEG", "province": "MB", "country": "CA", "postalCode": "R3L1J4", "twitter": "None", "instagram": "None", "facebook": "None", "youtube": "None", "website": "None", "summary": "None", "logo": "None", "latitude": 49.860344848202296, "longitude": -97.13473014406473}, "118859255RR0001": {"name": "CHURCHILL PRESBYTERIAN CHURCH", "designationCode": "C", "categoryCode": "37", "address": "1531 BRACKLEY POINT ROAD      RTE 15", "city": "HARRINGTON", "province": "PE", "country": "CA", "postalCode": "C1E1R1", "twitter": "None", "instagram": "None", "facebook": "None", "youtube": "None", "website": "None", "summary": "None", "logo": "None", "latitude": 46.35697322952857, "longitude": -63.17094560090014}, "100966175RR0001": {"name": "CHURCHILL RESEARCH CENTRE INC.", "designationCode": "C", "categoryCode": "59", "address": "1 LAUNCH RD", "city": "CHURCHILL", "province": "MB", "country": "CA", "postalCode": "R0B0E0", "twitter": "None", "instagram": "None", "facebook": "None", "youtube": "None", "website": "None", "summary": "None", "logo": "None", "latitude": 58.76773800000005, "longitude": -94.16916349999994}, "893028365RR0001": {"name": "CHURCHILL SOCIETY FOR THE ADVANCEMENT OF PARLIAMENTARY DEMOCRACY", "designationCode": "C", "categoryCode": "29", "address": "755 DANFORTH AVE", "city": "TORONTO", "province": "ON", "country": "CA", "postalCode": "M4J1L2", "twitter": "None", "instagram": "None", "facebook": "None", "youtube": "None", "website": "None", "summary": "None", "logo": "None", "latitude": 43.67940979098636, "longitude": -79.34230698958397}, "118859289RR0001": {"name": "CHURCHILL UNITED CHURCH", "designationCode": "C", "categoryCode": "44", "address": "226 VALLEYVIEW DRIVE", "city": "CHURCHILL", "province": "ON", "country": "CA", "postalCode": "L0L1K0", "twitter": "None", "instagram": "None", "facebook": "None", "youtube": "None", "website": "None", "summary": "None", "logo": "None", "latitude": 44.25288907770221, "longitude": -79.60499478397453}, "870169190RR0001": {"name": "CHURCHUNITY.NET OF EDMONTON", "designationCode": "C", "categoryCode": "39", "address": "1260, 10665 JASPER AVE", "city": "EDMONTON", "province": "AB", "country": "CA", "postalCode": "T5J3S9", "twitter": "None", "instagram": "None", "facebook": "None", "youtube": "None", "website": "None", "summary": "None", "logo": "None", "latitude": 53.54091154284748, "longitude": -113.5040535}, "864466933RR0001": {"name": "CIAM MEDIA & RADIO BROADCASTING ASSOCIATION", "designationCode": "C", "categoryCode": "99", "address": "BOX 609", "city": "FORT VERMILION", "province": "AB", "country": "CA", "postalCode": "T0H1N0", "twitter": "None", "instagram": "None", "facebook": "None", "youtube": "None", "website": "None", "summary": "None", "logo": "None", "latitude": 58.38988995946117, "longitude": -116.02071999942302}, "119303329RR0001": {"name": "CIBC Children's Foundation", "designationCode": "B", "categoryCode": "03", "address": "25 KING ST. WEST, 4TH FL      COMMERCE COURT NORTH", "city": "TORONTO", "province": "ON", "country": "CA", "postalCode": "M5L1A2", "twitter": "None", "instagram": "None", "facebook": "None", "youtube": "None", "website": "None", "summary": "None", "logo": "None", "latitude": 43.64868300000006, "longitude": -79.38544399999994}, "131842296RR0001": {"name": "CIBLE FAMILLE BRANDON INC.", "designationCode": "C", "categoryCode": "09", "address": "15, RUE MONDAY", "city": "ST GABRIEL DE BRANDON", "province": "QC", "country": "CA", "postalCode": "J0K2N0", "twitter": "None", "instagram": "None", "facebook": "None", "youtube": "None", "website": "None", "summary": "None", "logo": "None", "latitude": 46.29450766501233, "longitude": -73.38263294849686}, "893598458RR0001": {"name": "CIBLE RETOUR A L'EMPLOI", "designationCode": "C", "categoryCode": "09", "address": "3517, BOULEVARD LASALLE", "city": "VERDUN", "province": "QC", "country": "CA", "postalCode": "H4G1Z4", "twitter": "None", "instagram": "None", "facebook": "None", "youtube": "None", "website": "None", "summary": "None", "logo": "None", "latitude": 45.46851118789316, "longitude": -73.56708010840197}, "118882935RR0001": {"name": "CIBPA EDUCATION FOUNDATION", "designationCode": "C", "categoryCode": "21", "address": "SUITE 901                     3300 HIGHWAY 7 WEST", "city": "VAUGHAN", "province": "ON", "country": "CA", "postalCode": "L4K4M3", "twitter": "None", "instagram": "None", "facebook": "None", "youtube": "None", "website": "None", "summary": "None", "logo": "None", "latitude": 43.792772427602195, "longitude": -79.53114376053155}, "875672313RR0001": {"name": "CIBPA OTTAWA SCHOLARSHIP AWARDS PROGRAM", "designationCode": "C", "categoryCode": "21", "address": "87 GRANGE AVENUE", "city": "OTTAWA", "province": "ON", "country": "CA", "postalCode": "K1Y0P1", "twitter": "None", "instagram": "None", "facebook": "None", "youtube": "None", "website": "None", "summary": "None", "logo": "None", "latitude": 45.40002380627847, "longitude": -75.73693010877734}, "863562179RR0001": {"name": "CIC CHEMICAL EDUCATION FUND", "designationCode": "C", "categoryCode": "21", "address": "400 - 222 QUEEN ST", "city": "OTTAWA", "province": "ON", "country": "CA", "postalCode": "K1P5V9", "twitter": "None", "instagram": "None", "facebook": "None", "youtube": "None", "website": "None", "summary": "None", "logo": "None", "latitude": 45.42029261474995, "longitude": -75.70133144641939}}