{"868422064RR0001": {"name": "GAMBO PASTORAL CHARGE", "designationCode": "C", "categoryCode": "44", "address": "BOX 593                       12 DONOVANS RD", "city": "GAMBO", "province": "NL", "country": "CA", "postalCode": "A0G1T0", "twitter": "None", "instagram": "None", "facebook": "None", "youtube": "None", "website": "None", "summary": "None", "logo": "None", "latitude": 48.790347454586104, "longitude": -54.212878344103586}, "898324413RR0001": {"name": "GAMIING NATURE CENTRE", "designationCode": "C", "categoryCode": "52", "address": "1884 PIGEON LAKE ROAD", "city": "LINDSAY", "province": "ON", "country": "CA", "postalCode": "K9V4R5", "twitter": "None", "instagram": "None", "facebook": "None", "youtube": "None", "website": "None", "summary": "None", "logo": "None", "latitude": 44.41041880673887, "longitude": -78.51784879831808}, "107411928RR0001": {"name": "GAMIN-ABET ASSOCIATION INC.", "designationCode": "C", "categoryCode": "01", "address": "1304-13TH AVENUE SOUTH WEST", "city": "MOOSE JAW", "province": "SK", "country": "CA", "postalCode": "S6H7G9", "twitter": "None", "instagram": "None", "facebook": "None", "youtube": "None", "website": "None", "summary": "None", "logo": "None", "latitude": 50.376285592345376, "longitude": -105.57179803731957}, "127792521RR0001": {"name": "GAMMA INSTITUTE/INSTITUT GAMMA", "designationCode": "C", "categoryCode": "21", "address": "200-4400 COTE DE LIESSE", "city": "MONTREAL", "province": "QC", "country": "CA", "postalCode": "H4N2P7", "twitter": "None", "instagram": "None", "facebook": "None", "youtube": "None", "website": "None", "summary": "None", "logo": "None", "latitude": 45.50488647541706, "longitude": -73.66434197856239}, "864254586RR0001": {"name": "GAMMA LEADERSHIP TRAINING ASSOCIATION", "designationCode": "C", "categoryCode": "09", "address": "205-925 7 AVE SW", "city": "CALGARY", "province": "AB", "country": "CA", "postalCode": "T2P1A5", "twitter": "None", "instagram": "None", "facebook": "None", "youtube": "None", "website": "None", "summary": "None", "logo": "None", "latitude": 51.04694940462076, "longitude": -114.08185718382735}, "132517301RR0001": {"name": "GAN YELADIM DAY CARE CENTRE", "designationCode": "C", "categoryCode": "56", "address": "100 ELDER ST", "city": "DOWNSVIEW", "province": "ON", "country": "CA", "postalCode": "M3H5G7", "twitter": "None", "instagram": "None", "facebook": "None", "youtube": "None", "website": "None", "summary": "None", "logo": "None", "latitude": 43.76074272716263, "longitude": -79.45356683948839}, "118934967RR0001": {"name": "GANANOQUE & DISTRICT ADVISORY WELFARE COUNCIL", "designationCode": "C", "categoryCode": "09", "address": "PO BOX 504", "city": "GANANOQUE", "province": "ON", "country": "CA", "postalCode": "K7G2V1", "twitter": "None", "instagram": "None", "facebook": "None", "youtube": "None", "website": "None", "summary": "None", "logo": "None", "latitude": 44.328480000000056, "longitude": -76.16426299999993}, "891915431RR0001": {"name": "GANANOQUE & DISTRICT HUMANE SOCIETY", "designationCode": "C", "categoryCode": "54", "address": "85 HIGHWAY 32 RR1", "city": "GANANOQUE", "province": "ON", "country": "CA", "postalCode": "K7G2V3", "twitter": "None", "instagram": "None", "facebook": "None", "youtube": "None", "website": "None", "summary": "None", "logo": "None", "latitude": 44.329942930762904, "longitude": -76.16287642434709}, "140263047RR0001": {"name": "GANANOQUE AND DISTRICT CO-OPERATIVE NURSERY SCHOOL INCORPORATED", "designationCode": "C", "categoryCode": "01", "address": "175 STONE STREET SOUTH", "city": "GANANOQUE", "province": "ON", "country": "CA", "postalCode": "K7G2A2", "twitter": "None", "instagram": "None", "facebook": "None", "youtube": "None", "website": "None", "summary": "None", "logo": "None", "latitude": 44.32853030804242, "longitude": -76.16110492593835}, "870175791RR0001": {"name": "GANANOQUE BOOK DRIVE", "designationCode": "C", "categoryCode": "21", "address": "28 OWEN AVENUE", "city": "GANANOQUE", "province": "ON", "country": "CA", "postalCode": "K7G2V4", "twitter": "None", "instagram": "None", "facebook": "None", "youtube": "None", "website": "None", "summary": "None", "logo": "None", "latitude": 42.41866419426981, "longitude": -82.1969044087078}, "119288918RR1218": {"name": "GANANOQUE CONGREGATION OF JEHOVAH'S WITNESSES, ONTARIO", "designationCode": "C", "categoryCode": "61", "address": "907 COUNTY ROAD #2", "city": "LANSDOWNE", "province": "ON", "country": "CA", "postalCode": "K0E1L0", "twitter": "None", "instagram": "None", "facebook": "None", "youtube": "None", "website": "None", "summary": "None", "logo": "None", "latitude": 44.3940608667715, "longitude": -76.01542741381498}, "890949043RR0001": {"name": "GANANOQUE FOOD BANK", "designationCode": "C", "categoryCode": "09", "address": "55 KING STREET E", "city": "GANANOQUE", "province": "ON", "country": "CA", "postalCode": "K7G1E8", "twitter": "None", "instagram": "None", "facebook": "None", "youtube": "None", "website": "None", "summary": "None", "logo": "None", "latitude": 44.32900612628965, "longitude": -76.16330039458754}, "118934983RR0001": {"name": "GANANOQUE HISTORICAL SOCIETY", "designationCode": "C", "categoryCode": "50", "address": "PO BOX 511", "city": "GANANOQUE", "province": "ON", "country": "CA", "postalCode": "K7G2V1", "twitter": "None", "instagram": "None", "facebook": "None", "youtube": "None", "website": "None", "summary": "None", "logo": "None", "latitude": 44.328480000000056, "longitude": -76.16426299999993}, "892147976RR0001": {"name": "GANANOQUE WHEELS OF CARE ASSOCIATION", "designationCode": "C", "categoryCode": "09", "address": "565 QUEEN ST", "city": "GANANOQUE", "province": "ON", "country": "CA", "postalCode": "K7G2A9", "twitter": "None", "instagram": "None", "facebook": "None", "youtube": "None", "website": "None", "summary": "None", "logo": "None", "latitude": 44.336280496480406, "longitude": -76.17011960778345}, "107412041RR0001": {"name": "GANARASKA REGION CONSERVATION AUTHORITY", "designationCode": "C", "categoryCode": "52", "address": "2216 COUNTY ROAD 28", "city": "PORT HOPE", "province": "ON", "country": "CA", "postalCode": "L1A3V8", "twitter": "None", "instagram": "None", "facebook": "None", "youtube": "None", "website": "None", "summary": "None", "logo": "None", "latitude": 43.97297156760332, "longitude": -78.2879266423617}, "898277785RR0001": {"name": "GANDER & AREA FOOD BANK (1991) INC.", "designationCode": "C", "categoryCode": "09", "address": "P.O. BOX 216", "city": "GANDER", "province": "NL", "country": "CA", "postalCode": "A1V1W6", "twitter": "None", "instagram": "None", "facebook": "None", "youtube": "None", "website": "None", "summary": "None", "logo": "None", "latitude": 48.95684700000005, "longitude": -54.60917299999993}, "887860500RR0001": {"name": "GANDER AND AREA SOCIETY FOR THE PREVENTION OF CRUELTY TO ANIMALS", "designationCode": "C", "categoryCode": "54", "address": "36 MCCURDY DRIVE", "city": "GANDER", "province": "NL", "country": "CA", "postalCode": "A1V1A2", "twitter": "None", "instagram": "None", "facebook": "None", "youtube": "None", "website": "None", "summary": "None", "logo": "None", "latitude": 48.963777005841976, "longitude": -54.622724658378665}, "118935055RR0001": {"name": "GANDER BAPTIST CHURCH", "designationCode": "C", "categoryCode": "31", "address": "PO BOX 363", "city": "GANDER", "province": "NL", "country": "CA", "postalCode": "A1V1W7", "twitter": "None", "instagram": "None", "facebook": "None", "youtube": "None", "website": "None", "summary": "None", "logo": "None", "latitude": 48.95684700000005, "longitude": -54.60917299999993}, "141185066RR0001": {"name": "GANDER BAY NORTH FIRETTES", "designationCode": "C", "categoryCode": "59", "address": "", "city": "WINGS POINT", "province": "NL", "country": "CA", "postalCode": "A0G4T0", "twitter": "None", "instagram": "None", "facebook": "None", "youtube": "None", "website": "None", "summary": "None", "logo": "None", "latitude": 49.32958060008328, "longitude": -54.476696866555606}, "874370299RR0001": {"name": "GANDER BOYS AND GIRLS CLUB", "designationCode": "C", "categoryCode": "09", "address": "PO BOX 124", "city": "GANDER", "province": "NL", "country": "CA", "postalCode": "A1V1W5", "twitter": "None", "instagram": "None", "facebook": "None", "youtube": "None", "website": "None", "summary": "None", "logo": "None", "latitude": 48.95684700000005, "longitude": -54.60917299999993}, "140416017RR0001": {"name": "GANDER GOODWILL CENTRE", "designationCode": "C", "categoryCode": "09", "address": "90 ROE AVE                    PO BOX 166", "city": "GANDER", "province": "NL", "country": "CA", "postalCode": "A1V1W6", "twitter": "None", "instagram": "None", "facebook": "None", "youtube": "None", "website": "None", "summary": "None", "logo": "None", "latitude": 48.95883770327219, "longitude": -54.59230601861032}, "863498226RR0001": {"name": "GANDER INTERNATIONAL CHURCH", "designationCode": "C", "categoryCode": "39", "address": "P.O. BOX 107                  121 AIRPORT BLVD", "city": "GANDER", "province": "NL", "country": "CA", "postalCode": "A1V1W5", "twitter": "None", "instagram": "None", "facebook": "None", "youtube": "None", "website": "None", "summary": "None", "logo": "None", "latitude": 48.95944686793779, "longitude": -54.61579978328298}, "889880043RR0001": {"name": "GANDER PASTORAL CHARGE", "designationCode": "C", "categoryCode": "44", "address": "1 BROCHEN ST", "city": "GANDER", "province": "NL", "country": "CA", "postalCode": "A1V1T3", "twitter": "None", "instagram": "None", "facebook": "None", "youtube": "None", "website": "None", "summary": "None", "logo": "None", "latitude": 48.955943378235425, "longitude": -54.61688410882284}, "119285617RR0001": {"name": "GANDER VICTORY CHURCH, INC", "designationCode": "C", "categoryCode": "47", "address": "271 MAGEE ROAD", "city": "GANDER", "province": "NL", "country": "CA", "postalCode": "A1V2R3", "twitter": "None", "instagram": "None", "facebook": "None", "youtube": "None", "website": "None", "summary": "None", "logo": "None", "latitude": 48.97715091280292, "longitude": -54.61349725117425}, "107412264RR0001": {"name": "GANGES EDUCATIONAL SOCIETY", "designationCode": "C", "categoryCode": "20", "address": "355B BLACKBURN RD", "city": "SALT SPRING ISLAND", "province": "BC", "country": "CA", "postalCode": "V8K2B8", "twitter": "None", "instagram": "None", "facebook": "None", "youtube": "None", "website": "None", "summary": "None", "logo": "None", "latitude": 48.82619849526036, "longitude": -123.49288562327875}, "118935071RR0001": {"name": "GANTON PRESBYTERIAN CHURCH", "designationCode": "C", "categoryCode": "37", "address": "R R 3", "city": "VERMILION", "province": "AB", "country": "CA", "postalCode": "T9X1Y8", "twitter": "None", "instagram": "None", "facebook": "None", "youtube": "None", "website": "None", "summary": "None", "logo": "None", "latitude": 53.35397700000006, "longitude": -110.85710299999994}, "119145910RR0001": {"name": "GARDE COTIERE AUXILIAIRE CANADIENNE (QUEBEC) INC./ CANADIAN AUXILIARY COAST GUARD (QUEBEC) INC.", "designationCode": "C", "categoryCode": "59", "address": "17, RUE DU PRINCE", "city": "SOREL-TRACY", "province": "QC", "country": "CA", "postalCode": "J3P4J4", "twitter": "None", "instagram": "None", "facebook": "None", "youtube": "None", "website": "None", "summary": "None", "logo": "None", "latitude": 46.0468806472674, "longitude": -73.11542948234197}, "889184628RR0001": {"name": "GARDE-MANGER DES PAYS-D'EN-HAUT / PARTAGE AMITI\u00c9", "designationCode": "C", "categoryCode": "09", "address": "100, RUE MORIN", "city": "SAINTE-ADELE", "province": "QC", "country": "CA", "postalCode": "J8B2P7", "twitter": "None", "instagram": "None", "facebook": "None", "youtube": "None", "website": "None", "summary": "None", "logo": "None", "latitude": 45.95031117456296, "longitude": -74.13795695862441}, "888718749RR0001": {"name": "GARDEN CEMETERY COMPANY", "designationCode": "C", "categoryCode": "59", "address": "3366 SHERBROOKE ROAD", "city": "PICTOU COUNTY", "province": "NS", "country": "CA", "postalCode": "B2H5C8", "twitter": "None", "instagram": "None", "facebook": "None", "youtube": "None", "website": "None", "summary": "None", "logo": "None", "latitude": 45.425592570074365, "longitude": -62.30174561743578}, "107412488RR0001": {"name": "GARDEN CITY CHURCH OF CHRIST", "designationCode": "C", "categoryCode": "39", "address": "123 1/2 KEEFER RD", "city": "THOROLD", "province": "ON", "country": "CA", "postalCode": "L2V4N1", "twitter": "None", "instagram": "None", "facebook": "None", "youtube": "None", "website": "None", "summary": "None", "logo": "None", "latitude": 43.10840407071328, "longitude": -79.22591658437763}, "101943157RR0001": {"name": "GARDEN CITY NURSERY SCHOOL INC.", "designationCode": "C", "categoryCode": "20", "address": "134 LOUTH ST", "city": "ST CATHARINES", "province": "ON", "country": "CA", "postalCode": "L2S2T4", "twitter": "None", "instagram": "None", "facebook": "None", "youtube": "None", "website": "None", "summary": "None", "logo": "None", "latitude": 43.13924081127012, "longitude": -79.25966538242277}, "131801128RR0001": {"name": "GARDEN CITY PRODUCTIONS", "designationCode": "C", "categoryCode": "22", "address": "BOX 817", "city": "ST CATHARINES", "province": "ON", "country": "CA", "postalCode": "L2R6Y3", "twitter": "None", "instagram": "None", "facebook": "None", "youtube": "None", "website": "None", "summary": "None", "logo": "None", "latitude": 43.15634700000005, "longitude": -79.24869349999993}, "107412561RR0001": {"name": "GARDEN GROVE CHILD CARE PROGRAM INC.", "designationCode": "C", "categoryCode": "01", "address": "2340 BURROWS AVE", "city": "WINNIPEG", "province": "MB", "country": "CA", "postalCode": "R2R1W1", "twitter": "None", "instagram": "None", "facebook": "None", "youtube": "None", "website": "None", "summary": "None", "logo": "None", "latitude": 49.93986951396538, "longitude": -97.21491705891805}, "131113235RR0001": {"name": "GARDEN MINISTRIES SOCIETY", "designationCode": "C", "categoryCode": "39", "address": "5671-176A ST", "city": "SURREY", "province": "BC", "country": "CA", "postalCode": "V3S4G8", "twitter": "None", "instagram": "None", "facebook": "None", "youtube": "None", "website": "None", "summary": "None", "logo": "None", "latitude": 49.10537574271453, "longitude": -122.73373389177092}, "118935204RR0001": {"name": "GARDEN OF EDEN COMMUNITY CLUB", "designationCode": "C", "categoryCode": "56", "address": "3595 KERROWGARE RD.           RR 5", "city": "NEW GLASGOW", "province": "NS", "country": "CA", "postalCode": "B2H5C8", "twitter": "None", "instagram": "None", "facebook": "None", "youtube": "None", "website": "None", "summary": "None", "logo": "None", "latitude": 45.39144300000005, "longitude": -62.16826849999994}, "118935212RR0001": {"name": "GARDEN OF HANNAH CAMP (PARDAS CHANAH)", "designationCode": "C", "categoryCode": "56", "address": "4865 AV DE KENT", "city": "MONTREAL", "province": "QC", "country": "CA", "postalCode": "H3W1H4", "twitter": "None", "instagram": "None", "facebook": "None", "youtube": "None", "website": "None", "summary": "None", "logo": "None", "latitude": 45.49387364752718, "longitude": -73.63948717710177}, "118936160RR0001": {"name": "GARDEN OF REST CEMETERY COMPANY", "designationCode": "C", "categoryCode": "50", "address": "30 CEMETERY ROAD, RR 1", "city": "BLOCKHOUSE", "province": "NS", "country": "CA", "postalCode": "B0J1E0", "twitter": "None", "instagram": "None", "facebook": "None", "youtube": "None", "website": "None", "summary": "None", "logo": "None", "latitude": 44.44640187065045, "longitude": -64.42306197541706}, "130357148RR0001": {"name": "GARDEN PARK BAPTIST CHURCH", "designationCode": "C", "categoryCode": "31", "address": "1825 INKSTER BLVD", "city": "WINNIPEG", "province": "MB", "country": "CA", "postalCode": "R2X1R3", "twitter": "None", "instagram": "None", "facebook": "None", "youtube": "None", "website": "None", "summary": "None", "logo": "None", "latitude": 49.946074519331475, "longitude": -97.192683}, "872693205RR0001": {"name": "GARDEN PLANE CHARITABLE TRUST", "designationCode": "B", "categoryCode": "39", "address": "50-1ST AVE NE", "city": "SWIFT CURRENT", "province": "SK", "country": "CA", "postalCode": "S9H4W4", "twitter": "None", "instagram": "None", "facebook": "None", "youtube": "None", "website": "None", "summary": "None", "logo": "None", "latitude": 50.282664378132, "longitude": -107.79863205289816}, "106693047RR0026": {"name": "GARDEN ROAD SEVENTH-DAY ADVENTIST CHURCH", "designationCode": "C", "categoryCode": "41", "address": "5816 HIGHWAY, 2A", "city": "LACOMBE", "province": "AB", "country": "CA", "postalCode": "T4L2G5", "twitter": "None", "instagram": "None", "facebook": "None", "youtube": "None", "website": "None", "summary": "None", "logo": "None", "latitude": 52.474063600197404, "longitude": -113.71692568401835}, "119288918RR0472": {"name": "GARDENIA CONGREGATION OF JEHOVAH'S WITNESSES, THUNDER BAY, ONTARIO", "designationCode": "C", "categoryCode": "61", "address": "492 LANARK CRES", "city": "THUNDER BAY", "province": "ON", "country": "CA", "postalCode": "P7A7P9", "twitter": "None", "instagram": "None", "facebook": "None", "youtube": "None", "website": "None", "summary": "None", "logo": "None", "latitude": 48.46036903523007, "longitude": -89.24284109437927}, "829109743RR0001": {"name": "GARDENS COMMUNITY CHURCH", "designationCode": "C", "categoryCode": "39", "address": "1039 DEAL STREET", "city": "VICTORIA", "province": "BC", "country": "CA", "postalCode": "V8S5G6", "twitter": "None", "instagram": "None", "facebook": "None", "youtube": "None", "website": "None", "summary": "None", "logo": "None", "latitude": 48.4214016833342, "longitude": -123.30175224130087}, "835906348RR0001": {"name": "GARDENS FOR LIFE", "designationCode": "C", "categoryCode": "25", "address": "15 ODESSA CRESCENT", "city": "MARKHAM", "province": "ON", "country": "CA", "postalCode": "L6C2L3", "twitter": "None", "instagram": "None", "facebook": "None", "youtube": "None", "website": "None", "summary": "None", "logo": "None", "latitude": 43.878909980033356, "longitude": -79.34345240602475}, "118935246RR0001": {"name": "GARDENS OF GETHSEMANI CATHOLIC CEMETERY & MAUSOLEUM", "designationCode": "C", "categoryCode": "59", "address": "15800-32ND AVENUE", "city": "SURREY", "province": "BC", "country": "CA", "postalCode": "V3S9V1", "twitter": "None", "instagram": "None", "facebook": "None", "youtube": "None", "website": "None", "summary": "None", "logo": "None", "latitude": 49.06001332816796, "longitude": -122.78510131394997}, "132340043RR0001": {"name": "GARDERIE \"L'ABRI-DOUX\"", "designationCode": "C", "categoryCode": "20", "address": "748, RUE DE LA STATION", "city": "PREVOST", "province": "QC", "country": "CA", "postalCode": "J0R1T0", "twitter": "None", "instagram": "None", "facebook": "None", "youtube": "None", "website": "None", "summary": "None", "logo": "None", "latitude": 45.872644074124175, "longitude": -74.0800892349529}, "124701509RR0001": {"name": "GARDERIE BOIS-DE-BOULOGNE", "designationCode": "C", "categoryCode": "01", "address": "9995 RENE-BAUSET", "city": "MONTREAL", "province": "QC", "country": "CA", "postalCode": "H4N3M4", "twitter": "None", "instagram": "None", "facebook": "None", "youtube": "None", "website": "None", "summary": "None", "logo": "None", "latitude": 45.538289328899495, "longitude": -73.6672568194071}, "886648955RR0001": {"name": "GARDERIE CHEZ TANTE LAURE", "designationCode": "C", "categoryCode": "01", "address": "339 ALTON TOWERS CIRCLE", "city": "SCARBOROUGH", "province": "ON", "country": "CA", "postalCode": "M1V4L3", "twitter": "None", "instagram": "None", "facebook": "None", "youtube": "None", "website": "None", "summary": "None", "logo": "None", "latitude": 43.822782913930624, "longitude": -79.2769608247732}, "890373590RR0001": {"name": "GARDERIE CLIN D'OEIL (TIMMINS)", "designationCode": "C", "categoryCode": "01", "address": "LINDA DERAICHE - DIRECTRICE   24 WILCOX AVE", "city": "TIMMINS", "province": "ON", "country": "CA", "postalCode": "P4N3K6", "twitter": "None", "instagram": "None", "facebook": "None", "youtube": "None", "website": "None", "summary": "None", "logo": "None", "latitude": 48.47584200000006, "longitude": -81.33738199999993}, "862314622RR0001": {"name": "GARDERIE COOPERATIVE 'LES PETITES ABEILLES'", "designationCode": "C", "categoryCode": "01", "address": "P.O.BOX 33", "city": "FERLAND", "province": "SK", "country": "CA", "postalCode": "S0H1M0", "twitter": "None", "instagram": "None", "facebook": "None", "youtube": "None", "website": "None", "summary": "None", "logo": "None", "latitude": 49.448390000000074, "longitude": -106.95003999999994}, "118935402RR0001": {"name": "GARDERIE DE BAMBINS CO-OP INC.", "designationCode": "C", "categoryCode": "01", "address": "PO BOX 295                    46 BENOIT AVE", "city": "ST. MALO", "province": "MB", "country": "CA", "postalCode": "R0A1T0", "twitter": "None", "instagram": "None", "facebook": "None", "youtube": "None", "website": "None", "summary": "None", "logo": "None", "latitude": 49.310624384635574, "longitude": -96.95148010073163}, "118935428RR0001": {"name": "GARDERIE DE JOUR LE PAS DE GEANT", "designationCode": "C", "categoryCode": "01", "address": "6805 AVE CHESTER", "city": "MONTREAL", "province": "QC", "country": "CA", "postalCode": "H4V1K4", "twitter": "None", "instagram": "None", "facebook": "None", "youtube": "None", "website": "None", "summary": "None", "logo": "None", "latitude": 45.467085634485464, "longitude": -73.648377908448}, "894705045RR0001": {"name": "GARDERIE DES SOEURS DE LA RESURRECTION DE NOTRE-SEIGNEUR JESUS-CHRIST (MONTREAL)", "designationCode": "C", "categoryCode": "20", "address": "4109 RUE SAINT-HUBERT", "city": "MONTREAL", "province": "QC", "country": "CA", "postalCode": "H2L4A7", "twitter": "None", "instagram": "None", "facebook": "None", "youtube": "None", "website": "None", "summary": "None", "logo": "None", "latitude": 45.522984235933855, "longitude": -73.57529167372624}, "132196882RR0001": {"name": "GARDERIE DU DOMAINE SAINT-SULPICE", "designationCode": "C", "categoryCode": "01", "address": "1300 RUE ANTOINE-DEAT", "city": "MONTREAL", "province": "QC", "country": "CA", "postalCode": "H2M2R1", "twitter": "None", "instagram": "None", "facebook": "None", "youtube": "None", "website": "None", "summary": "None", "logo": "None", "latitude": 45.56110621729488, "longitude": -73.64503236707242}, "107417073RR0001": {"name": "GARDERIE EDUCATIVE LE SIFFLEUX", "designationCode": "C", "categoryCode": "20", "address": "71 RUE PLANTE", "city": "ST-GABRIEL", "province": "QC", "country": "CA", "postalCode": "J0K2N0", "twitter": "None", "instagram": "None", "facebook": "None", "youtube": "None", "website": "None", "summary": "None", "logo": "None", "latitude": 46.29385145019897, "longitude": -73.39093428126283}, "107415135RR0001": {"name": "GARDERIE FRANCOPHONE DE ST-CATHARINES INC.", "designationCode": "C", "categoryCode": "01", "address": "12A BURLEIGH HILL DRIVE", "city": "ST CATHARINES", "province": "ON", "country": "CA", "postalCode": "L2T2V5", "twitter": "None", "instagram": "None", "facebook": "None", "youtube": "None", "website": "None", "summary": "None", "logo": "None", "latitude": 43.135032206231394, "longitude": -79.21884887229214}, "107415333RR0001": {"name": "GARDERIE HARMONIE", "designationCode": "C", "categoryCode": "20", "address": "4372 DE LA ROCHE", "city": "MONTREAL", "province": "QC", "country": "CA", "postalCode": "H2J3J1", "twitter": "None", "instagram": "None", "facebook": "None", "youtube": "None", "website": "None", "summary": "None", "logo": "None", "latitude": 45.5278167568528, "longitude": -73.57655430073852}, "107415465RR0001": {"name": "GARDERIE JOLYS CO-OP INC.", "designationCode": "C", "categoryCode": "20", "address": "BOX 156", "city": "ST PIERRE", "province": "MB", "country": "CA", "postalCode": "R0A1V0", "twitter": "None", "instagram": "None", "facebook": "None", "youtube": "None", "website": "None", "summary": "None", "logo": "None", "latitude": 49.42894297364305, "longitude": -96.79941112272898}, "896348943RR0001": {"name": "GARDERIE L'ENFANFRELUCHE", "designationCode": "C", "categoryCode": "01", "address": "3484 RUE DE LA MONTAGNE", "city": "MONTREAL", "province": "QC", "country": "CA", "postalCode": "H3G2A6", "twitter": "None", "instagram": "None", "facebook": "None", "youtube": "None", "website": "None", "summary": "None", "logo": "None", "latitude": 45.500751913382345, "longitude": -73.58102548239928}, "107415739RR0001": {"name": "GARDERIE LA FARANDOLE DE TORONTO", "designationCode": "C", "categoryCode": "01", "address": "14 RUE PEMBROKE", "city": "TORONTO", "province": "ON", "country": "CA", "postalCode": "M5A2N7", "twitter": "None", "instagram": "None", "facebook": "None", "youtube": "None", "website": "None", "summary": "None", "logo": "None", "latitude": 43.65667539188649, "longitude": -79.37179551142562}, "130364136RR0001": {"name": "GARDERIE LA MERE L'OIE", "designationCode": "C", "categoryCode": "01", "address": "5700, BOUL. SAINT-LAURENT", "city": "MONTREAL", "province": "QC", "country": "CA", "postalCode": "H2T1S8", "twitter": "None", "instagram": "None", "facebook": "None", "youtube": "None", "website": "None", "summary": "None", "logo": "None", "latitude": 45.52665300109653, "longitude": -73.60080589038594}, "107415747RR0001": {"name": "GARDERIE LAFONTAINE INC.", "designationCode": "C", "categoryCode": "20", "address": "500, RUE ROY EST", "city": "MONTREAL", "province": "QC", "country": "CA", "postalCode": "H2L4G9", "twitter": "None", "instagram": "None", "facebook": "None", "youtube": "None", "website": "None", "summary": "None", "logo": "None", "latitude": 45.520000838450116, "longitude": -73.57185724822578}, "118935790RR0001": {"name": "GARDERIE LE JOYEUX CARROUSEL INC.", "designationCode": "C", "categoryCode": "20", "address": "6715 RUE BEAULIEU", "city": "MONTREAL", "province": "QC", "country": "CA", "postalCode": "H4E3G2", "twitter": "None", "instagram": "None", "facebook": "None", "youtube": "None", "website": "None", "summary": "None", "logo": "None", "latitude": 45.45145191312254, "longitude": -73.59439599795118}, "118935907RR0001": {"name": "GARDERIE LES PETITS AMIS DAY CARE INC", "designationCode": "C", "categoryCode": "01", "address": "88 ARENA RD", "city": "STE ANNE", "province": "MB", "country": "CA", "postalCode": "R5H1G6", "twitter": "None", "instagram": "None", "facebook": "None", "youtube": "None", "website": "None", "summary": "None", "logo": "None", "latitude": 49.67311839560974, "longitude": -96.64513757933058}, "866952096RR0001": {"name": "GARDERIE LES PETITS POUSSINS DAYCARE", "designationCode": "C", "categoryCode": "01", "address": "PO BOX 1036", "city": "CHETICAMP", "province": "NS", "country": "CA", "postalCode": "B0E1H0", "twitter": "None", "instagram": "None", "facebook": "None", "youtube": "None", "website": "None", "summary": "None", "logo": "None", "latitude": 46.60719600312706, "longitude": -61.03849596133188}, "107418147RR0001": {"name": "GARDERIE PATACHOU", "designationCode": "C", "categoryCode": "21", "address": "962 ST JEAN BAPTISTE", "city": "MERCIER", "province": "QC", "country": "CA", "postalCode": "J6R2K8", "twitter": "None", "instagram": "None", "facebook": "None", "youtube": "None", "website": "None", "summary": "None", "logo": "None", "latitude": 45.307775756304515, "longitude": -73.74719130818303}, "133265785RR0001": {"name": "GARDERIE RAYON DE SOLEIL DE NORTH YORK INC", "designationCode": "C", "categoryCode": "01", "address": "1 NESS DRIVE", "city": "DON MILLS", "province": "ON", "country": "CA", "postalCode": "M3A2W1", "twitter": "None", "instagram": "None", "facebook": "None", "youtube": "None", "website": "None", "summary": "None", "logo": "None", "latitude": 43.761913092705825, "longitude": -79.32290737549788}, "118936111RR0001": {"name": "GARDERIE TUNNEY'S DAY CARE", "designationCode": "C", "categoryCode": "01", "address": "WING 1200 MAIN BLDG STATS CAN", "city": "OTTAWA", "province": "ON", "country": "CA", "postalCode": "K1A0T6", "twitter": "None", "instagram": "None", "facebook": "None", "youtube": "None", "website": "None", "summary": "None", "logo": "None", "latitude": 45.42500400000006, "longitude": -75.70218949999993}, "107419210RR0001": {"name": "GARDERIE YESHIVA LEVI YITCHAK", "designationCode": "C", "categoryCode": "01", "address": "5000 PLAMONDON AVENUE", "city": "MONTREAL", "province": "QC", "country": "CA", "postalCode": "H3W1E8", "twitter": "None", "instagram": "None", "facebook": "None", "youtube": "None", "website": "None", "summary": "None", "logo": "None", "latitude": 45.493032269490485, "longitude": -73.64286596251955}, "107419293RR0001": {"name": "GARDINER PARK CHILD-CARE ASSOCIATION INC.", "designationCode": "C", "categoryCode": "29", "address": "380 GARDINER PARK CRT", "city": "REGINA", "province": "SK", "country": "CA", "postalCode": "S4V1R9", "twitter": "None", "instagram": "None", "facebook": "None", "youtube": "None", "website": "None", "summary": "None", "logo": "None", "latitude": 50.435630329996016, "longitude": -104.55489085579103}, "869130724RR0001": {"name": "GARDOM LAKE BIBLE CAMP", "designationCode": "C", "categoryCode": "56", "address": "651 GLENMARY RD", "city": "ENDERBY", "province": "BC", "country": "CA", "postalCode": "V0E1V3", "twitter": "None", "instagram": "None", "facebook": "None", "youtube": "None", "website": "None", "summary": "None", "logo": "None", "latitude": 50.60160897671513, "longitude": -119.19494128455146}, "889335196RR0001": {"name": "GARIBALDI VOLUNTEER FIRE DEPARTMENT SOCIETY", "designationCode": "C", "categoryCode": "59", "address": "65 GARIBALDI DR", "city": "WHISTLER", "province": "BC", "country": "CA", "postalCode": "V0N1B1", "twitter": "None", "instagram": "None", "facebook": "None", "youtube": "None", "website": "None", "summary": "None", "logo": "None", "latitude": 50.006521003439246, "longitude": -123.13849306570218}, "892107848RR0001": {"name": "GARLOW LINE BAPTIST CHURCH,", "designationCode": "C", "categoryCode": "31", "address": "PO BOX 1051", "city": "HAGERSVILLE", "province": "ON", "country": "CA", "postalCode": "N0A1H0", "twitter": "None", "instagram": "None", "facebook": "None", "youtube": "None", "website": "None", "summary": "None", "logo": "None", "latitude": 42.96624567435869, "longitude": -80.04526476987148}, "118936210RR0001": {"name": "GARNEAU AFTER SCHOOL CENTRE", "designationCode": "C", "categoryCode": "20", "address": "10925-87 AVENUE", "city": "EDMONTON", "province": "AB", "country": "CA", "postalCode": "T6G0X4", "twitter": "None", "instagram": "None", "facebook": "None", "youtube": "None", "website": "None", "summary": "None", "logo": "None", "latitude": 53.52285748066852, "longitude": -113.513544}, "899774426RR0001": {"name": "GARNEAU UNITED ASSISTED LIVING PLACE", "designationCode": "C", "categoryCode": "09", "address": "11148 84 AVE", "city": "EDMONTON", "province": "AB", "country": "CA", "postalCode": "T6G0V8", "twitter": "None", "instagram": "None", "facebook": "None", "youtube": "None", "website": "None", "summary": "None", "logo": "None", "latitude": 53.52006951875456, "longitude": -113.51979}, "107419475RR0001": {"name": "GARNEAU UNITED CHURCH", "designationCode": "C", "categoryCode": "44", "address": "123 - 11148  84 AVE NW", "city": "EDMONTON", "province": "AB", "country": "CA", "postalCode": "T6G0V8", "twitter": "None", "instagram": "None", "facebook": "None", "youtube": "None", "website": "None", "summary": "None", "logo": "None", "latitude": 53.52006951875456, "longitude": -113.51979}, "101949527RR0001": {"name": "GARNEAU/UNIVERSITY EARLY LEARNING CENTRE SOCIETY", "designationCode": "C", "categoryCode": "01", "address": "10925 87 AVENUE", "city": "EDMONTON", "province": "AB", "country": "CA", "postalCode": "T6G0X4", "twitter": "None", "instagram": "None", "facebook": "None", "youtube": "None", "website": "None", "summary": "None", "logo": "None", "latitude": 53.52285748066852, "longitude": -113.513544}, "888059193RR0001": {"name": "GARNET AREA NEIGHBOURHOOD WATCH", "designationCode": "C", "categoryCode": "59", "address": "3740 HWY 6, RR#5", "city": "HAGERSVILLE", "province": "ON", "country": "CA", "postalCode": "N0A1H0", "twitter": "None", "instagram": "None", "facebook": "None", "youtube": "None", "website": "None", "summary": "None", "logo": "None", "latitude": 42.93884941172956, "longitude": -80.07264693634245}, "118936236RR0001": {"name": "GARNET UNITED CHURCH", "designationCode": "C", "categoryCode": "44", "address": "34 WOODFIELD AVE. PO.5263", "city": "TOWNSEND", "province": "ON", "country": "CA", "postalCode": "N0A1S0", "twitter": "None", "instagram": "None", "facebook": "None", "youtube": "None", "website": "None", "summary": "None", "logo": "None", "latitude": 42.892203655029, "longitude": -80.13997172788378}, "118936269RR0001": {"name": "GARRICK COMMUNITY CENTRE INC.", "designationCode": "C", "categoryCode": "56", "address": "BOX 72", "city": "GARRICK", "province": "SK", "country": "CA", "postalCode": "S0J0Z0", "twitter": "None", "instagram": "None", "facebook": "None", "youtube": "None", "website": "None", "summary": "None", "logo": "None", "latitude": 53.481310000000065, "longitude": -104.31970999999999}, "107419558RR0001": {"name": "GARRINGTON COMMUNITY CHURCH", "designationCode": "C", "categoryCode": "39", "address": "3424 HIGHWAY 587              RED DEER COUNTRY", "city": "ALBERTA", "province": "AB", "country": "CA", "postalCode": "T0M0K0", "twitter": "None", "instagram": "None", "facebook": "None", "youtube": "None", "website": "None", "summary": "None", "logo": "None", "latitude": 51.94074864376631, "longitude": -114.38543311949573}, "107419566RR0001": {"name": "GARRISON CREEK COMMUNITY DAY CARE", "designationCode": "C", "categoryCode": "20", "address": "222 NIAGARA STREET", "city": "TORONTO", "province": "ON", "country": "CA", "postalCode": "M6J2L3", "twitter": "None", "instagram": "None", "facebook": "None", "youtube": "None", "website": "None", "summary": "None", "logo": "None", "latitude": 43.64382327505908, "longitude": -79.40853337091023}, "897640157RR0001": {"name": "GARRISON ROAD CHURCH OF THE UNITED BRETHREN IN CHRIST, INC.", "designationCode": "C", "categoryCode": "39", "address": "1351 GARRISON RD", "city": "FORT ERIE", "province": "ON", "country": "CA", "postalCode": "L2A1P4", "twitter": "None", "instagram": "None", "facebook": "None", "youtube": "None", "website": "None", "summary": "None", "logo": "None", "latitude": 42.904695491777034, "longitude": -78.96584297155059}, "141110908RR0001": {"name": "GARRY OAK MEADOW PRESERVATION SOCIETY", "designationCode": "C", "categoryCode": "52", "address": "1439 WENDE RD", "city": "VICTORIA", "province": "BC", "country": "CA", "postalCode": "V8P3T7", "twitter": "None", "instagram": "None", "facebook": "None", "youtube": "None", "website": "None", "summary": "None", "logo": "None", "latitude": 48.46826980930821, "longitude": -123.34249746113457}, "107419764RR0001": {"name": "GARSIDE BIBLE CHURCH", "designationCode": "C", "categoryCode": "39", "address": "47 GARSIDE AVE. N.", "city": "HAMILTON", "province": "ON", "country": "CA", "postalCode": "L8H4W1", "twitter": "None", "instagram": "None", "facebook": "None", "youtube": "None", "website": "None", "summary": "None", "logo": "None", "latitude": 43.24147956425641, "longitude": -79.80745629214019}, "889341392RR0001": {"name": "GARTH MEMORIAL FUND DAVID", "designationCode": "B", "categoryCode": "45", "address": "PO BOX 10085", "city": "VANCOUVER", "province": "BC", "country": "CA", "postalCode": "V7Y1B6", "twitter": "None", "instagram": "None", "facebook": "None", "youtube": "None", "website": "None", "summary": "None", "logo": "None", "latitude": 49.26037200000006, "longitude": -123.11336149999994}, "131014136RR0001": {"name": "GARY BLUESTEIN CHARITABLE FOUNDATION", "designationCode": "B", "categoryCode": "03", "address": "141 YORK MILLS ROAD", "city": "NORTH YORK", "province": "ON", "country": "CA", "postalCode": "M2L1K4", "twitter": "None", "instagram": "None", "facebook": "None", "youtube": "None", "website": "None", "summary": "None", "logo": "None", "latitude": 43.74580685648352, "longitude": -79.39472460323742}, "883244428RR0001": {"name": "GARY CLARKE MINISTRIES", "designationCode": "C", "categoryCode": "39", "address": "C18 - 8 SYKES ST S", "city": "MEAFORD", "province": "ON", "country": "CA", "postalCode": "N4L1Y5", "twitter": "None", "instagram": "None", "facebook": "None", "youtube": "None", "website": "None", "summary": "None", "logo": "None", "latitude": 44.60967000000005, "longitude": -80.59281999999996}, "108102286RR0001": {"name": "GASPE-CAP AUX OS PASTORAL CHARGE OF THE UNITED CHURCH OF CANADA", "designationCode": "C", "categoryCode": "44", "address": "342 BLVD. FORILLON", "city": "GASPE", "province": "QC", "country": "CA", "postalCode": "G4X6T8", "twitter": "None", "instagram": "None", "facebook": "None", "youtube": "None", "website": "None", "summary": "None", "logo": "None", "latitude": 48.87763821671797, "longitude": -64.52125995438256}, "118936350RR0001": {"name": "GASPEREAU UNITED BAPTIST CHURCH", "designationCode": "C", "categoryCode": "31", "address": "828 NEWTONVILLE ROAD          RR 1", "city": "WOLFVILLE", "province": "NS", "country": "CA", "postalCode": "B4P2R1", "twitter": "None", "instagram": "None", "facebook": "None", "youtube": "None", "website": "None", "summary": "None", "logo": "None", "latitude": 45.0432348930986, "longitude": -64.35418450715603}, "875716417RR0001": {"name": "GATE PARENT ASSOCIATION", "designationCode": "C", "categoryCode": "21", "address": "9632 OAKFIELD DR SW", "city": "CALGARY", "province": "AB", "country": "CA", "postalCode": "T2V0L1", "twitter": "None", "instagram": "None", "facebook": "None", "youtube": "None", "website": "None", "summary": "None", "logo": "None", "latitude": 50.96733596502972, "longitude": -114.13286442685678}, "133373621RR0001": {"name": "GATE 3:16 OUTREACH CENTRE", "designationCode": "C", "categoryCode": "47", "address": "768 TENNYSON AVE.", "city": "OSHAWA", "province": "ON", "country": "CA", "postalCode": "L1H3K6", "twitter": "None", "instagram": "None", "facebook": "None", "youtube": "None", "website": "None", "summary": "None", "logo": "None", "latitude": 43.89050118347843, "longitude": -78.82953812268445}, "891283145RR0001": {"name": "GATES OF MERCY", "designationCode": "C", "categoryCode": "09", "address": "GRUNWALD & CO. CA             110 EGLINTON AVE. W. SUITE 401", "city": "TORONTO", "province": "ON", "country": "CA", "postalCode": "M4R1A3", "twitter": "None", "instagram": "None", "facebook": "None", "youtube": "None", "website": "None", "summary": "None", "logo": "None", "latitude": 43.706071150729855, "longitude": -79.40168884139297}, "132421215RR0001": {"name": "GATEWAY ALLIANCE CHURCH", "designationCode": "C", "categoryCode": "39", "address": "13931  140 STREET NW", "city": "EDMONTON", "province": "AB", "country": "CA", "postalCode": "T6V1J7", "twitter": "None", "instagram": "None", "facebook": "None", "youtube": "None", "website": "None", "summary": "None", "logo": "None", "latitude": 53.60160956052277, "longitude": -113.56241966383085}, "871733747RR0001": {"name": "GATEWAY ASSEMBLY", "designationCode": "C", "categoryCode": "36", "address": "PO BOX 1184 RPO PRINCE", "city": "TRURO", "province": "NS", "country": "CA", "postalCode": "B2N5H1", "twitter": "None", "instagram": "None", "facebook": "None", "youtube": "None", "website": "None", "summary": "None", "logo": "None", "latitude": 45.36524915901727, "longitude": -63.28200181927177}, "107420986RR0001": {"name": "GATEWAY ASSOCIATION FOR COMMUNITY LIVING", "designationCode": "C", "categoryCode": "11", "address": "SUITE 104 18304 105TH AVENUE", "city": "EDMONTON", "province": "AB", "country": "CA", "postalCode": "T5S0C6", "twitter": "None", "instagram": "None", "facebook": "None", "youtube": "None", "website": "None", "summary": "None", "logo": "None", "latitude": 53.54863450100961, "longitude": -113.6382435}, "107935892RR0001": {"name": "GATEWAY BAPTIST CHURCH", "designationCode": "C", "categoryCode": "31", "address": "898 ROYAL OAK AVE", "city": "VICTORIA", "province": "BC", "country": "CA", "postalCode": "V8X3T2", "twitter": "None", "instagram": "None", "facebook": "None", "youtube": "None", "website": "None", "summary": "None", "logo": "None", "latitude": 48.49676439165537, "longitude": -123.37491640772686}, "107420994RR0001": {"name": "GATEWAY CHRISTIAN COMMUNITY INC.", "designationCode": "C", "categoryCode": "39", "address": "5 - 763 KAPELUS DR", "city": "WEST ST PAUL", "province": "MB", "country": "CA", "postalCode": "R4A5A4", "twitter": "None", "instagram": "None", "facebook": "None", "youtube": "None", "website": "None", "summary": "None", "logo": "None", "latitude": 49.978823135058505, "longitude": -97.08739026367013}, "898855499RR0001": {"name": "GATEWAY CHRISTIAN FELLOWSHIP INC.", "designationCode": "C", "categoryCode": "39", "address": "1812 ARTHUR STREET", "city": "REGINA", "province": "SK", "country": "CA", "postalCode": "S4T4W7", "twitter": "None", "instagram": "None", "facebook": "None", "youtube": "None", "website": "None", "summary": "None", "logo": "None", "latitude": 50.450309044033055, "longitude": -104.64803418232455}, "855798542RR0001": {"name": "GATEWAY CHRISTIAN LIFE CENTRE SOCIETY", "designationCode": "C", "categoryCode": "36", "address": "8320 HWY 3B", "city": "TRAIL", "province": "BC", "country": "CA", "postalCode": "V1R4W3", "twitter": "None", "instagram": "None", "facebook": "None", "youtube": "None", "website": "None", "summary": "None", "logo": "None", "latitude": 49.08694588136442, "longitude": -117.62291546828564}, "866179716RR0002": {"name": "GATEWAY CHURCH - LONDON", "designationCode": "C", "categoryCode": "36", "address": "890 SARNIA RD", "city": "LONDON", "province": "ON", "country": "CA", "postalCode": "N6H5K1", "twitter": "None", "instagram": "None", "facebook": "None", "youtube": "None", "website": "None", "summary": "None", "logo": "None", "latitude": 42.99016984880848, "longitude": -81.31683470412729}}