{"889095311RR0001": {"name": "COMITE DES OEUVRES CHARITABLES DU CONSEIL DE ST-PAMPHILE NO:3075", "designationCode": "C", "categoryCode": "09", "address": "10 RUE DU BOUQUET", "city": "SAINT-AUBERT", "province": "QC", "country": "CA", "postalCode": "G0R2R0", "twitter": "None", "instagram": "None", "facebook": "None", "youtube": "None", "website": "None", "summary": "None", "logo": "None", "latitude": 47.17896108353057, "longitude": -70.21348578377298}, "893179572RR0001": {"name": "COMITE DES OEUVRES CHARITABLES DU CONSEIL DES ECARTS 9857", "designationCode": "C", "categoryCode": "65", "address": "POSTE RESTANTE", "city": "ST-VAL\u00c9RIEN", "province": "QC", "country": "CA", "postalCode": "G0L4E0", "twitter": "None", "instagram": "None", "facebook": "None", "youtube": "None", "website": "None", "summary": "None", "logo": "None", "latitude": 48.35619614916947, "longitude": -68.68614056638862}, "888087798RR0001": {"name": "COMITE DES OEUVRES CHARITABLES DU CONSEIL DES FRONTIERES 10068", "designationCode": "C", "categoryCode": "65", "address": "520 RUE DE LA BRIQUETTE", "city": "DEGELIS", "province": "QC", "country": "CA", "postalCode": "G5T1B3", "twitter": "None", "instagram": "None", "facebook": "None", "youtube": "None", "website": "None", "summary": "None", "logo": "None", "latitude": 47.55214039355994, "longitude": -68.64807913725541}, "886256197RR0001": {"name": "COMITE DES OEUVRES CHARITABLES DU CONSEIL DES LACS 10048", "designationCode": "C", "categoryCode": "65", "address": "C.P.99", "city": "LAC AU SAUMON", "province": "QC", "country": "CA", "postalCode": "G0J1M0", "twitter": "None", "instagram": "None", "facebook": "None", "youtube": "None", "website": "None", "summary": "None", "logo": "None", "latitude": 48.435531000000054, "longitude": -67.36140349999994}, "890791643RR0001": {"name": "COMITE DES OEUVRES CHARITABLES DU CONSEIL DES TROIS CHAINES 10385", "designationCode": "C", "categoryCode": "65", "address": "204 RTE BELLEVUE O            C.P. 230", "city": "LES MECHINS", "province": "QC", "country": "CA", "postalCode": "G0J1T0", "twitter": "None", "instagram": "None", "facebook": "None", "youtube": "None", "website": "None", "summary": "None", "logo": "None", "latitude": 48.99843096145168, "longitude": -66.9827120429048}, "889643599RR0001": {"name": "COMITE DES OEUVRES CHARITABLES DU CONSEIL DISRAELI 3053", "designationCode": "C", "categoryCode": "65", "address": "300, CHAMPLAIN C.P. 5024", "city": "DISRAELI", "province": "QC", "country": "CA", "postalCode": "G0N1E0", "twitter": "None", "instagram": "None", "facebook": "None", "youtube": "None", "website": "None", "summary": "None", "logo": "None", "latitude": 45.89902238138359, "longitude": -71.35661272961545}, "135821452RR0001": {"name": "COMITE DES OEUVRES CHARITABLES DU CONSEIL DONNACONA MO 2814", "designationCode": "C", "categoryCode": "65", "address": "162 RUE NOTRE-DAME", "city": "DONNACONA", "province": "QC", "country": "CA", "postalCode": "G3M1G4", "twitter": "None", "instagram": "None", "facebook": "None", "youtube": "None", "website": "None", "summary": "None", "logo": "None", "latitude": 46.67324483709381, "longitude": -71.74008200193325}, "890618390RR0001": {"name": "COMITE DES OEUVRES CHARITABLES DU CONSEIL DRUMMONDVILLE 2174", "designationCode": "C", "categoryCode": "65", "address": "81, RUE BROCK", "city": "DRUMMONDVILLE", "province": "QC", "country": "CA", "postalCode": "J2C1L5", "twitter": "None", "instagram": "None", "facebook": "None", "youtube": "None", "website": "None", "summary": "None", "logo": "None", "latitude": 45.887759153730954, "longitude": -72.4946534921228}, "891014599RR0001": {"name": "COMITE DES OEUVRES CHARITABLES DU CONSEIL DU PORTAGE 10097", "designationCode": "C", "categoryCode": "65", "address": "61 RUE CARON", "city": "ST-LOUIS DU HA HA", "province": "QC", "country": "CA", "postalCode": "G0L3S0", "twitter": "None", "instagram": "None", "facebook": "None", "youtube": "None", "website": "None", "summary": "None", "logo": "None", "latitude": 47.67668256174627, "longitude": -68.97938991739305}, "889651394RR0001": {"name": "COMITE DES OEUVRES CHARITABLES DU CONSEIL EAST BROUGHTON 3065-28", "designationCode": "C", "categoryCode": "65", "address": "364, AVENUE DU COLLEGE", "city": "EAST-BROUGHTON", "province": "QC", "country": "CA", "postalCode": "G0N1G0", "twitter": "None", "instagram": "None", "facebook": "None", "youtube": "None", "website": "None", "summary": "None", "logo": "None", "latitude": 46.218773735760955, "longitude": -71.07661914504568}, "890157571RR0001": {"name": "COMITE DES OEUVRES CHARITABLES DU CONSEIL EAST-ANGUS 2649", "designationCode": "C", "categoryCode": "65", "address": "143 ST-PIERRE EST", "city": "EAST ANGUS", "province": "QC", "country": "CA", "postalCode": "J0B1R0", "twitter": "None", "instagram": "None", "facebook": "None", "youtube": "None", "website": "None", "summary": "None", "logo": "None", "latitude": 45.485508532315905, "longitude": -71.65557085928214}, "890805443RR0001": {"name": "COMITE DES OEUVRES CHARITABLES DU CONSEIL FARNHAM 1051-30", "designationCode": "C", "categoryCode": "65", "address": "303 RUE SAINT-JOSEPH", "city": "FARNHAM", "province": "QC", "country": "CA", "postalCode": "J2N1P2", "twitter": "None", "instagram": "None", "facebook": "None", "youtube": "None", "website": "None", "summary": "None", "logo": "None", "latitude": 45.28260947045408, "longitude": -72.97722868177632}, "891522344RR0001": {"name": "COMITE DES OEUVRES CHARITABLES DU CONSEIL FERME-NEUVE 3275", "designationCode": "C", "categoryCode": "65", "address": "396 12E AVE", "city": "FERME NEUVE", "province": "QC", "country": "CA", "postalCode": "J0W1C0", "twitter": "None", "instagram": "None", "facebook": "None", "youtube": "None", "website": "None", "summary": "None", "logo": "None", "latitude": 46.705304346932905, "longitude": -75.45011140564938}, "893402560RR0001": {"name": "COMITE DES OEUVRES CHARITABLES DU CONSEIL GRAND'MERE 1209", "designationCode": "C", "categoryCode": "65", "address": "541 5E RUE", "city": "SHAWINIGAN", "province": "QC", "country": "CA", "postalCode": "G9T4R9", "twitter": "None", "instagram": "None", "facebook": "None", "youtube": "None", "website": "None", "summary": "None", "logo": "None", "latitude": 46.6152273605229, "longitude": -72.69005116807075}, "886050194RR0001": {"name": "COMITE DES OEUVRES CHARITABLES DU CONSEIL GRENVILLE 3188", "designationCode": "C", "categoryCode": "65", "address": "324 SS", "city": "GRENVILLE", "province": "QC", "country": "CA", "postalCode": "J0V1J0", "twitter": "None", "instagram": "None", "facebook": "None", "youtube": "None", "website": "None", "summary": "None", "logo": "None", "latitude": 45.62329944970156, "longitude": -74.57725760483387}, "889040234RR0001": {"name": "COMITE DES OEUVRES CHARITABLES DU CONSEIL HAUTERIVE 5229", "designationCode": "C", "categoryCode": "65", "address": "19 RUE ROULEAU", "city": "BAIE-COMEAU", "province": "QC", "country": "CA", "postalCode": "G5C1T3", "twitter": "None", "instagram": "None", "facebook": "None", "youtube": "None", "website": "None", "summary": "None", "logo": "None", "latitude": 49.187437554532906, "longitude": -68.2397229857175}, "884996984RR0001": {"name": "COMITE DES OEUVRES CHARITABLES DU CONSEIL HAVRE ST PIERRE NO", "designationCode": "C", "categoryCode": "65", "address": "1168, BOUL DE L'ESCALE,       C.P.400", "city": "HAVRE SAINT-PIERRE", "province": "QC", "country": "CA", "postalCode": "G0G1P0", "twitter": "None", "instagram": "None", "facebook": "None", "youtube": "None", "website": "None", "summary": "None", "logo": "None", "latitude": 50.24897018290151, "longitude": -63.606157751139975}, "889239992RR0001": {"name": "COMITE DES OEUVRES CHARITABLES DU CONSEIL JONQUIERE NO 2756", "designationCode": "C", "categoryCode": "65", "address": "2316, RUE PELLETIER", "city": "JONQUIERE", "province": "QC", "country": "CA", "postalCode": "G7X6C3", "twitter": "None", "instagram": "None", "facebook": "None", "youtube": "None", "website": "None", "summary": "None", "logo": "None", "latitude": 48.4088993849616, "longitude": -71.25382015422095}, "886790799RR0001": {"name": "COMITE DES OEUVRES CHARITABLES DU CONSEIL L'ISLET 3454-59", "designationCode": "C", "categoryCode": "65", "address": "247 BOUL NILUS-LECLERC", "city": "L'ISLETVILLE", "province": "QC", "country": "CA", "postalCode": "G0R2C0", "twitter": "None", "instagram": "None", "facebook": "None", "youtube": "None", "website": "None", "summary": "None", "logo": "None", "latitude": 47.10584356013014, "longitude": -70.35355391889361}, "891794646RR0001": {"name": "COMITE DES OEUVRES CHARITABLES DU CONSEIL LA POCATIERE 5425-16", "designationCode": "C", "categoryCode": "65", "address": "502, 12IEME AVENUE DALLAIRE", "city": "LA POCATIERE", "province": "QC", "country": "CA", "postalCode": "G0R1Z0", "twitter": "None", "instagram": "None", "facebook": "None", "youtube": "None", "website": "None", "summary": "None", "logo": "None", "latitude": 47.36412782543703, "longitude": -70.02973040218693}, "890148869RR0001": {"name": "COMITE DES OEUVRES CHARITABLES DU CONSEIL LA TUQUE NO 1887", "designationCode": "C", "categoryCode": "65", "address": "297, RUE ST. JOSEPH", "city": "LA TUQUE", "province": "QC", "country": "CA", "postalCode": "G9X1K6", "twitter": "None", "instagram": "None", "facebook": "None", "youtube": "None", "website": "None", "summary": "None", "logo": "None", "latitude": 47.4409594962491, "longitude": -72.785151}, "891491342RR0001": {"name": "COMITE DES OEUVRES CHARITABLES DU CONSEIL LA VISITATION DE CHATEAU-RICHER 9797-71", "designationCode": "C", "categoryCode": "65", "address": "7849 AV ROYALE", "city": "CHATEAU-RICHER", "province": "QC", "country": "CA", "postalCode": "G0A1N0", "twitter": "None", "instagram": "None", "facebook": "None", "youtube": "None", "website": "None", "summary": "None", "logo": "None", "latitude": 46.96719932696625, "longitude": -71.02295280073852}, "889238796RR0001": {"name": "COMITE DES OEUVRES CHARITABLES DU CONSEIL LAC DROLET 9843", "designationCode": "C", "categoryCode": "65", "address": "671 PRINCIPALE", "city": "LAC-DROLET", "province": "QC", "country": "CA", "postalCode": "G0Y1C0", "twitter": "None", "instagram": "None", "facebook": "None", "youtube": "None", "website": "None", "summary": "None", "logo": "None", "latitude": 45.718191643992554, "longitude": -70.8481789242198}, "886736396RR0001": {"name": "COMITE DES OEUVRES CHARITABLES DU CONSEIL LAMBTON NO 9569", "designationCode": "C", "categoryCode": "65", "address": "220 B, 3E AVENUE", "city": "LAMBTON", "province": "QC", "country": "CA", "postalCode": "G0M1H0", "twitter": "None", "instagram": "None", "facebook": "None", "youtube": "None", "website": "None", "summary": "None", "logo": "None", "latitude": 45.838732851780314, "longitude": -71.08910481807943}, "890746191RR0001": {"name": "COMITE DES OEUVRES CHARITABLES DU CONSEIL LANDRIENNE 9356", "designationCode": "C", "categoryCode": "65", "address": "364 386 RTE O", "city": "LANDRIENNE", "province": "QC", "country": "CA", "postalCode": "J0Y1V0", "twitter": "None", "instagram": "None", "facebook": "None", "youtube": "None", "website": "None", "summary": "None", "logo": "None", "latitude": 48.54719171027773, "longitude": -77.96627134904878}, "887937241RR0001": {"name": "COMITE DES OEUVRES CHARITABLES DU CONSEIL LEBEL-SUR-QUEVILLON 6003-58", "designationCode": "C", "categoryCode": "65", "address": "142 RUE PRINCIPALE NORD       C.P. 188", "city": "LEBEL-SUR-QUEVILLON", "province": "QC", "country": "CA", "postalCode": "J0Y1X0", "twitter": "None", "instagram": "None", "facebook": "None", "youtube": "None", "website": "None", "summary": "None", "logo": "None", "latitude": 49.05446324508047, "longitude": -76.97706871510182}, "886324797RR0001": {"name": "COMITE DES OEUVRES CHARITABLES DU CONSEIL LES ESCOUMINS NO 7205", "designationCode": "C", "categoryCode": "65", "address": "425 ROUTE 138", "city": "LES ESCOUMINS", "province": "QC", "country": "CA", "postalCode": "G0T1K0", "twitter": "None", "instagram": "None", "facebook": "None", "youtube": "None", "website": "None", "summary": "None", "logo": "None", "latitude": 48.36582781545599, "longitude": -69.39256896876138}, "889232393RR0001": {"name": "COMITE DES OEUVRES CHARITABLES DU CONSEIL LEVIS NO 2651", "designationCode": "C", "categoryCode": "65", "address": "6700 RUE ST-GEORGES           C.P 60034", "city": "L\u00c9VIS", "province": "QC", "country": "CA", "postalCode": "G6V8W9", "twitter": "None", "instagram": "None", "facebook": "None", "youtube": "None", "website": "None", "summary": "None", "logo": "None", "latitude": 46.81538050790585, "longitude": -71.17327266160814}, "890053846RR0001": {"name": "COMITE DES OEUVRES CHARITABLES DU CONSEIL LIMOILOU NO 4494", "designationCode": "C", "categoryCode": "65", "address": "21 BOUL. DES ALLIES", "city": "QUEBEC", "province": "QC", "country": "CA", "postalCode": "G1L1X8", "twitter": "None", "instagram": "None", "facebook": "None", "youtube": "None", "website": "None", "summary": "None", "logo": "None", "latitude": 46.83197527226045, "longitude": -71.24091186412957}, "888872793RR0001": {"name": "COMITE DES OEUVRES CHARITABLES DU CONSEIL LORRAINVILLE NO 2879", "designationCode": "C", "categoryCode": "65", "address": "8 DE L'EGLISE N.              C.P. 328", "city": "LORRAINVILLE", "province": "QC", "country": "CA", "postalCode": "J0Z2R0", "twitter": "None", "instagram": "None", "facebook": "None", "youtube": "None", "website": "None", "summary": "None", "logo": "None", "latitude": 47.35496305886074, "longitude": -79.35080140489957}, "890506199RR0001": {"name": "COMITE DES OEUVRES CHARITABLES DU CONSEIL LOTBINIERE-CENTRE 9112", "designationCode": "C", "categoryCode": "65", "address": "6B, RUE CAUX C.P. 828", "city": "SAINT-FLAVIEN", "province": "QC", "country": "CA", "postalCode": "G0S2M0", "twitter": "None", "instagram": "None", "facebook": "None", "youtube": "None", "website": "None", "summary": "None", "logo": "None", "latitude": 46.51211299838282, "longitude": -71.5992281206263}, "888128840RR0001": {"name": "COMITE DES OEUVRES CHARITABLES DU CONSEIL MAGOG NO 2383", "designationCode": "C", "categoryCode": "65", "address": "95 RUE MERRY NORD", "city": "MAGOG", "province": "QC", "country": "CA", "postalCode": "J1X2E7", "twitter": "None", "instagram": "None", "facebook": "None", "youtube": "None", "website": "None", "summary": "None", "logo": "None", "latitude": 45.26782226172889, "longitude": -72.15544128440722}, "888235595RR0001": {"name": "COMITE DES OEUVRES CHARITABLES DU CONSEIL MARIEVILLE 1671-40", "designationCode": "C", "categoryCode": "65", "address": "245 RUE OUELLETTE             245 RUE OUELLETTE", "city": "MARIEVILLE", "province": "QC", "country": "CA", "postalCode": "J3M1A5", "twitter": "None", "instagram": "None", "facebook": "None", "youtube": "None", "website": "None", "summary": "None", "logo": "None", "latitude": 45.43652774300298, "longitude": -73.16734019259637}, "888214848RR0001": {"name": "COMITE DES OEUVRES CHARITABLES DU CONSEIL MATANE NO 2884", "designationCode": "C", "categoryCode": "65", "address": "221 RUE DE LA FABRIQUE", "city": "MATANE", "province": "QC", "country": "CA", "postalCode": "G4W1Z6", "twitter": "None", "instagram": "None", "facebook": "None", "youtube": "None", "website": "None", "summary": "None", "logo": "None", "latitude": 48.847802819262874, "longitude": -67.53575556699772}, "889098836RR0001": {"name": "COMITE DES OEUVRES CHARITABLES DU CONSEIL METABECHOUAN 3066", "designationCode": "C", "categoryCode": "65", "address": "78 RUE ST-ANDRE               C.P. 2172", "city": "METABETCHOUAN-LAC-A-LA-CROIX", "province": "QC", "country": "CA", "postalCode": "G8G1V3", "twitter": "None", "instagram": "None", "facebook": "None", "youtube": "None", "website": "None", "summary": "None", "logo": "None", "latitude": 48.428470224277085, "longitude": -71.8720989382824}, "891688244RR0001": {"name": "COMITE DES OEUVRES CHARITABLES DU CONSEIL MGR ROSS DE CHANDLER 3261", "designationCode": "C", "categoryCode": "65", "address": "324 BOUL. PABOS", "city": "PABOS", "province": "QC", "country": "CA", "postalCode": "G0C2H0", "twitter": "None", "instagram": "None", "facebook": "None", "youtube": "None", "website": "None", "summary": "None", "logo": "None", "latitude": 48.35919476545112, "longitude": -64.6203386061516}, "128245081RR0001": {"name": "COMITE DES OEUVRES CHARITABLES DU CONSEIL MONT-JOLI NO 4359", "designationCode": "C", "categoryCode": "65", "address": "1385 BOUL. JACQUES CARTIER", "city": "MONT-JOLI", "province": "QC", "country": "CA", "postalCode": "G5H2T8", "twitter": "None", "instagram": "None", "facebook": "None", "youtube": "None", "website": "None", "summary": "None", "logo": "None", "latitude": 48.589911678631, "longitude": -68.19439713012896}, "891912172RR0001": {"name": "COMITE DES OEUVRES CHARITABLES DU CONSEIL MONTMAGNY NO 2634", "designationCode": "C", "categoryCode": "65", "address": "11, 6E RUE", "city": "MONTMAGNY", "province": "QC", "country": "CA", "postalCode": "G5V3J1", "twitter": "None", "instagram": "None", "facebook": "None", "youtube": "None", "website": "None", "summary": "None", "logo": "None", "latitude": 46.976320581741554, "longitude": -70.56274029531417}, "890242373RR0001": {"name": "COMITE DES OEUVRES CHARITABLES DU CONSEIL N-D DU BON CONSEIL NO 7753", "designationCode": "C", "categoryCode": "65", "address": "541 ELPHEGE BOURGEOIS", "city": "NOTRE-DAME-DU-BON-CONSEIL", "province": "QC", "country": "CA", "postalCode": "J0C1A0", "twitter": "None", "instagram": "None", "facebook": "None", "youtube": "None", "website": "None", "summary": "None", "logo": "None", "latitude": 45.99835800000005, "longitude": -72.34377199999993}, "892044041RR0001": {"name": "COMITE DES OEUVRES CHARITABLES DU CONSEIL NATIVITE DE NOTRE-DAME DE BEAUPORT NO:10,017", "designationCode": "C", "categoryCode": "09", "address": "CP 57013 BEAUPORT             682 AVE. ROYALE", "city": "QUEBEC", "province": "QC", "country": "CA", "postalCode": "G1E7G3", "twitter": "None", "instagram": "None", "facebook": "None", "youtube": "None", "website": "None", "summary": "None", "logo": "None", "latitude": 46.86071316345447, "longitude": -71.18990526155598}, "890163595RR0001": {"name": "COMITE DES OEUVRES CHARITABLES DU CONSEIL NEW CARLISLE 3441-65", "designationCode": "C", "categoryCode": "65", "address": "114 GERARD D. LEVESQUE        C.P. 153", "city": "NEW CARLISLE", "province": "QC", "country": "CA", "postalCode": "G0C1Z0", "twitter": "None", "instagram": "None", "facebook": "None", "youtube": "None", "website": "None", "summary": "None", "logo": "None", "latitude": 48.010047936984336, "longitude": -65.32275348084141}, "885490185RR0001": {"name": "COMITE DES OEUVRES CHARITABLES DU CONSEIL NEW RICHMOND NO 5763", "designationCode": "C", "categoryCode": "65", "address": "151 BOUL PERRON O", "city": "NEW RICHMOND", "province": "QC", "country": "CA", "postalCode": "G0C2B0", "twitter": "None", "instagram": "None", "facebook": "None", "youtube": "None", "website": "None", "summary": "None", "logo": "None", "latitude": 48.162922033268195, "longitude": -65.86199412369406}, "886272798RR0002": {"name": "COMITE DES OEUVRES CHARITABLES DU CONSEIL NOTRE-DAME DE L'ASSOMPTION NO 9452", "designationCode": "C", "categoryCode": "65", "address": "129 RUE LARIVIERE", "city": "VICTORIAVILLE", "province": "QC", "country": "CA", "postalCode": "G6P3G5", "twitter": "None", "instagram": "None", "facebook": "None", "youtube": "None", "website": "None", "summary": "None", "logo": "None", "latitude": 46.057153064400644, "longitude": -71.9751867371746}, "889217196RR0001": {"name": "COMITE DES OEUVRES CHARITABLES DU CONSEIL NOTRE-DAME DE LOURDES 6542", "designationCode": "C", "categoryCode": "65", "address": "21-3E AVENUE C.P. 825", "city": "CHAPAIS", "province": "QC", "country": "CA", "postalCode": "G0W1H0", "twitter": "None", "instagram": "None", "facebook": "None", "youtube": "None", "website": "None", "summary": "None", "logo": "None", "latitude": 49.783386457123854, "longitude": -74.85350155164737}, "127447498RR0001": {"name": "COMITE DES OEUVRES CHARITABLES DU CONSEIL NOTRE-DAME DU CAP MADELEINE NO:2669", "designationCode": "A", "categoryCode": "63", "address": "45 RUE DORVAL", "city": "TROIS-RIVIERES", "province": "QC", "country": "CA", "postalCode": "G8T5X6", "twitter": "None", "instagram": "None", "facebook": "None", "youtube": "None", "website": "None", "summary": "None", "logo": "None", "latitude": 46.36122450983908, "longitude": -72.50786218209345}, "890810245RR0001": {"name": "COMITE DES OEUVRES CHARITABLES DU CONSEIL NOTRE-DAME DU PERPETUEL SECOURS 9825-79", "designationCode": "C", "categoryCode": "65", "address": "905 ONTARIO                   C.P. 21044", "city": "SHERBROOKE", "province": "QC", "country": "CA", "postalCode": "J1H6J7", "twitter": "None", "instagram": "None", "facebook": "None", "youtube": "None", "website": "None", "summary": "None", "logo": "None", "latitude": 45.41227331083741, "longitude": -71.90852273209602}, "888017993RR0001": {"name": "COMITE DES OEUVRES CHARITABLES DU CONSEIL PERE SAMUEL TURBIDE 8527", "designationCode": "C", "categoryCode": "65", "address": "25 CHEMIN CENTRAL", "city": "HAVRE AUX-MAISONS", "province": "QC", "country": "CA", "postalCode": "G4T5H1", "twitter": "None", "instagram": "None", "facebook": "None", "youtube": "None", "website": "None", "summary": "None", "logo": "None", "latitude": 47.404644432311905, "longitude": -61.79790641994833}, "885463182RR0001": {"name": "COMITE DES OEUVRES CHARITABLES DU CONSEIL PLESSISVILLE NO 2527", "designationCode": "C", "categoryCode": "65", "address": "1880 RUE SAVOIE C.P. 276", "city": "PLESSISVILLE", "province": "QC", "country": "CA", "postalCode": "G6L2Y7", "twitter": "None", "instagram": "None", "facebook": "None", "youtube": "None", "website": "None", "summary": "None", "logo": "None", "latitude": 46.22339989367552, "longitude": -71.77300382566818}, "891578148RR0001": {"name": "COMITE DES OEUVRES CHARITABLES DU CONSEIL POINTE-CLAIRE 4832", "designationCode": "C", "categoryCode": "65", "address": "314 - 3223 BOUL DE LA GARE", "city": "VAUDREUIL-DORION", "province": "QC", "country": "CA", "postalCode": "J7V0L5", "twitter": "None", "instagram": "None", "facebook": "None", "youtube": "None", "website": "None", "summary": "None", "logo": "None", "latitude": 45.40451589058844, "longitude": -74.04461832286955}, "893416768RR0001": {"name": "COMITE DES OEUVRES CHARITABLES DU CONSEIL RAGUENEAU 8784", "designationCode": "C", "categoryCode": "65", "address": "8, RUE DE L'\u00c9GLISE            LOCAL 100", "city": "RAGUENEAU", "province": "QC", "country": "CA", "postalCode": "G0H1S0", "twitter": "None", "instagram": "None", "facebook": "None", "youtube": "None", "website": "None", "summary": "None", "logo": "None", "latitude": 49.07568700582837, "longitude": -68.46645110822907}, "893025973RR0001": {"name": "COMITE DES OEUVRES CHARITABLES DU CONSEIL REVEREND PERE WATIER 9453", "designationCode": "C", "categoryCode": "65", "address": "37C RUE FONTENELLE", "city": "GASPE", "province": "QC", "country": "CA", "postalCode": "G4X6R1", "twitter": "None", "instagram": "None", "facebook": "None", "youtube": "None", "website": "None", "summary": "None", "logo": "None", "latitude": 48.88839973633584, "longitude": -64.55276343788215}, "889350039RR0001": {"name": "COMITE DES OEUVRES CHARITABLES DU CONSEIL RIMOUSKI 2843-46", "designationCode": "C", "categoryCode": "65", "address": "139 RUE SAINT-GERMAIN E       C.P. 575 SUCC A", "city": "RIMOUSKI", "province": "QC", "country": "CA", "postalCode": "G5L7C5", "twitter": "None", "instagram": "None", "facebook": "None", "youtube": "None", "website": "None", "summary": "None", "logo": "None", "latitude": 48.45389607712527, "longitude": -68.52145919424115}, "890738396RR0001": {"name": "COMITE DES OEUVRES CHARITABLES DU CONSEIL RIPON 9947-50", "designationCode": "C", "categoryCode": "65", "address": "17-B MAJOR C P 182", "city": "RIPON", "province": "QC", "country": "CA", "postalCode": "J0V1V0", "twitter": "None", "instagram": "None", "facebook": "None", "youtube": "None", "website": "None", "summary": "None", "logo": "None", "latitude": 45.7854283722673, "longitude": -75.10147658599078}, "890788391RR0001": {"name": "COMITE DES OEUVRES CHARITABLES DU CONSEIL RIVIERE BLEUE NO 4292", "designationCode": "C", "categoryCode": "65", "address": "428 PRINCIPALE                C.P. 15, SULLY", "city": "POHENEGAMOOK", "province": "QC", "country": "CA", "postalCode": "G0L1J0", "twitter": "None", "instagram": "None", "facebook": "None", "youtube": "None", "website": "None", "summary": "None", "logo": "None", "latitude": 47.45320034470861, "longitude": -69.15155674988935}, "887351997RR0001": {"name": "COMITE DES OEUVRES CHARITABLES DU CONSEIL ROBERVAL 2442-92", "designationCode": "C", "categoryCode": "65", "address": "425 AVENUE F.X. BOUCHARD", "city": "ROBERVAL", "province": "QC", "country": "CA", "postalCode": "G8H2N4", "twitter": "None", "instagram": "None", "facebook": "None", "youtube": "None", "website": "None", "summary": "None", "logo": "None", "latitude": 48.51592305718728, "longitude": -72.22628678394587}, "891658379RR0001": {"name": "COMITE DES OEUVRES CHARITABLES DU CONSEIL ROXTON FALLS NO 3219", "designationCode": "C", "categoryCode": "65", "address": "36  RUE ST-ETIENNE", "city": "ROXTON FALLS", "province": "QC", "country": "CA", "postalCode": "J0H1E0", "twitter": "None", "instagram": "None", "facebook": "None", "youtube": "None", "website": "None", "summary": "None", "logo": "None", "latitude": 45.574793650271516, "longitude": -72.51986102900017}, "889244174RR0001": {"name": "COMITE DES OEUVRES CHARITABLES DU CONSEIL SANTA MARIA NO 2267", "designationCode": "C", "categoryCode": "65", "address": "173 RUE RENE PHILIPPE", "city": "LEMOYNE", "province": "QC", "country": "CA", "postalCode": "J4R2J9", "twitter": "None", "instagram": "None", "facebook": "None", "youtube": "None", "website": "None", "summary": "None", "logo": "None", "latitude": 45.498494912026025, "longitude": -73.49383415863569}, "893189571RR0001": {"name": "COMITE DES OEUVRES CHARITABLES DU CONSEIL SENNETERRE 3090-08", "designationCode": "C", "categoryCode": "65", "address": "191 5E RUE O                  C.P. 27", "city": "SENNETERRE", "province": "QC", "country": "CA", "postalCode": "J0Y2M0", "twitter": "None", "instagram": "None", "facebook": "None", "youtube": "None", "website": "None", "summary": "None", "logo": "None", "latitude": 48.39165086955393, "longitude": -77.24636223160601}, "893283168RR0001": {"name": "COMITE DES OEUVRES CHARITABLES DU CONSEIL SOREL NO: 1132", "designationCode": "A", "categoryCode": "05", "address": "60 RUE JACQUES CARTIER", "city": "SOREL-TRACY", "province": "QC", "country": "CA", "postalCode": "J3P2E1", "twitter": "None", "instagram": "None", "facebook": "None", "youtube": "None", "website": "None", "summary": "None", "logo": "None", "latitude": 46.03778073991592, "longitude": -73.11122652233257}, "885057786RR0001": {"name": "COMITE DES OEUVRES CHARITABLES DU CONSEIL ST CHARLES 6867", "designationCode": "C", "categoryCode": "65", "address": "101-1506 AVENUE DU LAC-SAINT- CHARLES", "city": "QUEBEC", "province": "QC", "country": "CA", "postalCode": "G3G2W3", "twitter": "None", "instagram": "None", "facebook": "None", "youtube": "None", "website": "None", "summary": "None", "logo": "None", "latitude": 46.910746017196686, "longitude": -71.3776051443532}, "887404994RR0001": {"name": "COMITE DES OEUVRES CHARITABLES DU CONSEIL ST-AGAPIT 7195-36", "designationCode": "C", "categoryCode": "65", "address": "1072 AVE. BERGERON", "city": "ST-AGAPIT", "province": "QC", "country": "CA", "postalCode": "G0S1Z0", "twitter": "None", "instagram": "None", "facebook": "None", "youtube": "None", "website": "None", "summary": "None", "logo": "None", "latitude": 46.56548733821015, "longitude": -71.43851267774303}, "889923595RR0001": {"name": "COMITE DES OEUVRES CHARITABLES DU CONSEIL ST-ALBERT 4115-87", "designationCode": "C", "categoryCode": "65", "address": "25 DE LA CATHEDRALE", "city": "GASPE", "province": "QC", "country": "CA", "postalCode": "G4X1N9", "twitter": "None", "instagram": "None", "facebook": "None", "youtube": "None", "website": "None", "summary": "None", "logo": "None", "latitude": 48.830106531219386, "longitude": -64.48716607550915}, "886273390RR0001": {"name": "COMITE DES OEUVRES CHARITABLES DU CONSEIL ST-ALEXIS-DES-MONTS 9829", "designationCode": "C", "categoryCode": "65", "address": "110 DES LOISIRS", "city": "ST-ALEXIS-DES-MONTS", "province": "QC", "country": "CA", "postalCode": "J0K1V0", "twitter": "None", "instagram": "None", "facebook": "None", "youtube": "None", "website": "None", "summary": "None", "logo": "None", "latitude": 46.460757856399745, "longitude": -73.15119365872567}, "892852047RR0001": {"name": "COMITE DES OEUVRES CHARITABLES DU CONSEIL ST-ALPHONSE-DE-ST-BRUNO NO 7615", "designationCode": "C", "categoryCode": "65", "address": "545 ST-ALPHONSE", "city": "SAINT-BRUNO-LAC-SAINT-JEAN", "province": "QC", "country": "CA", "postalCode": "G0W2L0", "twitter": "None", "instagram": "None", "facebook": "None", "youtube": "None", "website": "None", "summary": "None", "logo": "None", "latitude": 48.47075658451152, "longitude": -71.65396967747715}, "888080868RR0001": {"name": "COMITE DES OEUVRES CHARITABLES DU CONSEIL ST-AMBROISE 6875", "designationCode": "C", "categoryCode": "65", "address": "367 RUE GAGNON", "city": "ST-AMBROISE", "province": "QC", "country": "CA", "postalCode": "G7P2P8", "twitter": "None", "instagram": "None", "facebook": "None", "youtube": "None", "website": "None", "summary": "None", "logo": "None", "latitude": 48.554330835968614, "longitude": -71.32093070840807}, "893188375RR0001": {"name": "COMITE DES OEUVRES CHARITABLES DU CONSEIL ST-ANDRE AVELLIN 3007", "designationCode": "C", "categoryCode": "65", "address": "8-A RUE ST-ANDRE              C.P. 3667", "city": "SAINT-ANDRE-AVELLIN", "province": "QC", "country": "CA", "postalCode": "J0V1W0", "twitter": "None", "instagram": "None", "facebook": "None", "youtube": "None", "website": "None", "summary": "None", "logo": "None", "latitude": 45.722663999999995, "longitude": -75.06389460362969}, "893174847RR0001": {"name": "COMITE DES OEUVRES CHARITABLES DU CONSEIL ST-AUGUSTIN-MIRABEL 9954", "designationCode": "C", "categoryCode": "65", "address": "P.O. 4409", "city": "MIRABEL", "province": "QC", "country": "CA", "postalCode": "J7N2A7", "twitter": "None", "instagram": "None", "facebook": "None", "youtube": "None", "website": "None", "summary": "None", "logo": "None", "latitude": 45.66348600000005, "longitude": -74.01046399999993}, "889216438RR0001": {"name": "COMITE DES OEUVRES CHARITABLES DU CONSEIL ST-CESAIRE 2172", "designationCode": "C", "categoryCode": "65", "address": "1190 NOTRE-DAME, CONSEIL 2172", "city": "ST-CESAIRE", "province": "QC", "country": "CA", "postalCode": "J0L1T0", "twitter": "None", "instagram": "None", "facebook": "None", "youtube": "None", "website": "None", "summary": "None", "logo": "None", "latitude": 45.41159425506379, "longitude": -73.00239159397525}, "886295195RR0001": {"name": "COMITE DES OEUVRES CHARITABLES DU CONSEIL ST-CHARLES BELL 3194", "designationCode": "C", "categoryCode": "65", "address": "8A AVE COMMERCIALE            C.P. 61", "city": "SAINT-CHARLES DE BELLECHASSE", "province": "QC", "country": "CA", "postalCode": "G0R2T0", "twitter": "None", "instagram": "None", "facebook": "None", "youtube": "None", "website": "None", "summary": "None", "logo": "None", "latitude": 46.7733980312037, "longitude": -70.94539223099743}, "891500548RR0001": {"name": "COMITE DES OEUVRES CHARITABLES DU CONSEIL ST-CHARLES DE BOURGET 9970", "designationCode": "C", "categoryCode": "65", "address": "482-C RANG 2", "city": "SAINT-CHARLES DE BOURGET", "province": "QC", "country": "CA", "postalCode": "G0V1G0", "twitter": "None", "instagram": "None", "facebook": "None", "youtube": "None", "website": "None", "summary": "None", "logo": "None", "latitude": 48.52081168495033, "longitude": -71.41951657397995}, "892589441RR0001": {"name": "COMITE DES OEUVRES CHARITABLES DU CONSEIL ST-CHRYSOSTOME 3584-21", "designationCode": "C", "categoryCode": "65", "address": "542 NOTRE-DAME", "city": "ST CHRYSOSTOME", "province": "QC", "country": "CA", "postalCode": "J0S1R0", "twitter": "None", "instagram": "None", "facebook": "None", "youtube": "None", "website": "None", "summary": "None", "logo": "None", "latitude": 45.10337726949051, "longitude": -73.75985713015761}, "888393444RR0001": {"name": "COMITE DES OEUVRES CHARITABLES DU CONSEIL ST-CONRAD 9821-48", "designationCode": "C", "categoryCode": "65", "address": "7345 RHEAUME", "city": "ANJOU", "province": "QC", "country": "CA", "postalCode": "H1K2S6", "twitter": "None", "instagram": "None", "facebook": "None", "youtube": "None", "website": "None", "summary": "None", "logo": "None", "latitude": 45.6142582975359, "longitude": -73.54981914778699}, "886251198RR0001": {"name": "COMITE DES OEUVRES CHARITABLES DU CONSEIL ST-DAMASE 3141", "designationCode": "C", "categoryCode": "65", "address": "155, RUE ST-ETIENNE", "city": "ST-DAMASE", "province": "QC", "country": "CA", "postalCode": "J0H1J0", "twitter": "None", "instagram": "None", "facebook": "None", "youtube": "None", "website": "None", "summary": "None", "logo": "None", "latitude": 45.5259046702638, "longitude": -73.00534230587442}, "889824991RR0001": {"name": "COMITE DES OEUVRES CHARITABLES DU CONSEIL ST-ELIE D'ORFORD 8053", "designationCode": "C", "categoryCode": "65", "address": "186 RUE CROTEAU", "city": "SHERBROOKE", "province": "QC", "country": "CA", "postalCode": "J1R0L8", "twitter": "None", "instagram": "None", "facebook": "None", "youtube": "None", "website": "None", "summary": "None", "logo": "None", "latitude": 45.39926700000001, "longitude": -72.01007339589721}, "890644990RR0001": {"name": "COMITE DES OEUVRES CHARITABLES DU CONSEIL ST-EUSTACHE 1813", "designationCode": "C", "categoryCode": "65", "address": "109 RUE SAINT-NICOLAS", "city": "SAINT-EUSTACHE", "province": "QC", "country": "CA", "postalCode": "J7R2B5", "twitter": "None", "instagram": "None", "facebook": "None", "youtube": "None", "website": "None", "summary": "None", "logo": "None", "latitude": 45.55941176545113, "longitude": -73.89462638314393}, "888198447RR0001": {"name": "COMITE DES OEUVRES CHARITABLES DU CONSEIL ST-FELICIEN NO 2973", "designationCode": "C", "categoryCode": "65", "address": "1074 RUE VAUDREUIL  CP 5349", "city": "SAINT FELICIEN", "province": "QC", "country": "CA", "postalCode": "G8K2R3", "twitter": "None", "instagram": "None", "facebook": "None", "youtube": "None", "website": "None", "summary": "None", "logo": "None", "latitude": 48.649679076894124, "longitude": -72.446665491373}, "890754971RR0001": {"name": "COMITE DES OEUVRES CHARITABLES DU CONSEIL ST-FELIX DE DALQUIER 9819-58", "designationCode": "C", "categoryCode": "65", "address": "2116 RUE HARRICANA", "city": "AMOS", "province": "QC", "country": "CA", "postalCode": "J9T4K5", "twitter": "None", "instagram": "None", "facebook": "None", "youtube": "None", "website": "None", "summary": "None", "logo": "None", "latitude": 48.58808227742562, "longitude": -78.11684497083128}, "888204849RR0001": {"name": "COMITE DES OEUVRES CHARITABLES DU CONSEIL ST-FELIX-DE-VALOIS NO 4220", "designationCode": "C", "categoryCode": "65", "address": "CP 2631", "city": "SAINT-FELIX-DE-VALOIS", "province": "QC", "country": "CA", "postalCode": "J0K2M0", "twitter": "None", "instagram": "None", "facebook": "None", "youtube": "None", "website": "None", "summary": "None", "logo": "None", "latitude": 46.15618000000006, "longitude": -73.43101999999993}, "888110442RR0001": {"name": "COMITE DES OEUVRES CHARITABLES DU CONSEIL ST-FERDINAND NO 9149", "designationCode": "C", "categoryCode": "65", "address": "6155 RTE DOMAINE DU LAC", "city": "ST-FERDINAND", "province": "QC", "country": "CA", "postalCode": "G0N1N0", "twitter": "None", "instagram": "None", "facebook": "None", "youtube": "None", "website": "None", "summary": "None", "logo": "None", "latitude": 46.13890096696297, "longitude": -71.57639741799863}, "890775794RR0001": {"name": "COMITE DES OEUVRES CHARITABLES DU CONSEIL ST-GABREIL-DE-RIMOUSKI 8413-46", "designationCode": "C", "categoryCode": "65", "address": "102, RANG 2 ET 3 EST", "city": "LES HAUTEURS", "province": "QC", "country": "CA", "postalCode": "G0K1C0", "twitter": "None", "instagram": "None", "facebook": "None", "youtube": "None", "website": "None", "summary": "None", "logo": "None", "latitude": 48.424844471839045, "longitude": -68.05416283432383}, "890773849RR0001": {"name": "COMITE DES OEUVRES CHARITABLES DU CONSEIL ST-GABRIEL DE BRANDON 3045-95", "designationCode": "C", "categoryCode": "65", "address": "5111 CHEMIN DU LAC", "city": "ST-GABRIEL-DE-BRANDON", "province": "QC", "country": "CA", "postalCode": "J0K2N0", "twitter": "None", "instagram": "None", "facebook": "None", "youtube": "None", "website": "None", "summary": "None", "logo": "None", "latitude": 46.28468540527443, "longitude": -73.36400509978908}, "889119236RR0001": {"name": "COMITE DES OEUVRES CHARITABLES DU CONSEIL ST-GEORGES-DE- BEAUCE NO. 2283", "designationCode": "A", "categoryCode": "65", "address": "14200, BOUL. LACROIX C.P.34", "city": "VILLE DE SAINT-GEORGES BEAUCE", "province": "QC", "country": "CA", "postalCode": "G5Y5C4", "twitter": "None", "instagram": "None", "facebook": "None", "youtube": "None", "website": "None", "summary": "None", "logo": "None", "latitude": 46.112621217871784, "longitude": -70.65816543992717}, "890565591RR0001": {"name": "COMITE DES OEUVRES CHARITABLES DU CONSEIL ST-GILLES NO 9335", "designationCode": "C", "categoryCode": "65", "address": "2540 RTE 269 SUD              LOT BINI\u00c8RE", "city": "ST GILLES", "province": "QC", "country": "CA", "postalCode": "G0S2P0", "twitter": "None", "instagram": "None", "facebook": "None", "youtube": "None", "website": "None", "summary": "None", "logo": "None", "latitude": 46.480211007026526, "longitude": -71.34220720054446}, "890665979RR0001": {"name": "COMITE DES OEUVRES CHARITABLES DU CONSEIL ST-GUILLAUME 4335", "designationCode": "C", "categoryCode": "65", "address": "340 RANG LACHAPELLE", "city": "SAINT-GUILLAUME", "province": "QC", "country": "CA", "postalCode": "J0C1L0", "twitter": "None", "instagram": "None", "facebook": "None", "youtube": "None", "website": "None", "summary": "None", "logo": "None", "latitude": 45.8947755762182, "longitude": -72.75262550637623}, "886288596RR0001": {"name": "COMITE DES OEUVRES CHARITABLES DU CONSEIL ST-HONORE 7430-12", "designationCode": "A", "categoryCode": "63", "address": "711 RUE GAGNON", "city": "ST-HONOR\u00c9", "province": "QC", "country": "CA", "postalCode": "G0V1L0", "twitter": "None", "instagram": "None", "facebook": "None", "youtube": "None", "website": "None", "summary": "None", "logo": "None", "latitude": 48.53305763445679, "longitude": -71.0876050088868}, "886325992RR0001": {"name": "COMITE DES OEUVRES CHARITABLES DU CONSEIL ST-ISIDORE NO 9355", "designationCode": "C", "categoryCode": "65", "address": "126 B COULOMBE", "city": "SAINT-ISIDORE", "province": "QC", "country": "CA", "postalCode": "G0S2S0", "twitter": "None", "instagram": "None", "facebook": "None", "youtube": "None", "website": "None", "summary": "None", "logo": "None"}, "888365061RR0001": {"name": "COMITE DES OEUVRES CHARITABLES DU CONSEIL ST-JANVIER DE WEEDON 9828", "designationCode": "C", "categoryCode": "65", "address": "CP 856                        209 DES ERABLES", "city": "WEEDON", "province": "QC", "country": "CA", "postalCode": "J0B3J0", "twitter": "None", "instagram": "None", "facebook": "None", "youtube": "None", "website": "None", "summary": "None", "logo": "None", "latitude": 45.70103446324071, "longitude": -71.46192516345447}, "893293969RR0001": {"name": "COMITE DES OEUVRES CHARITABLES DU CONSEIL ST-JEAN DE MATHA 7661", "designationCode": "C", "categoryCode": "65", "address": "86A RUE ARCHAMBAULT", "city": "SAINT-JEAN-DE-MATHA", "province": "QC", "country": "CA", "postalCode": "J0K2S0", "twitter": "None", "instagram": "None", "facebook": "None", "youtube": "None", "website": "None", "summary": "None", "logo": "None", "latitude": 46.227557774197486, "longitude": -73.5326620849465}, "891431249RR0001": {"name": "COMITE DES OEUVRES CHARITABLES DU CONSEIL ST-JOSEPH-TRACY 2914", "designationCode": "C", "categoryCode": "65", "address": "1205, RUE ANTAYA", "city": "TRACY", "province": "QC", "country": "CA", "postalCode": "J3R5G3", "twitter": "None", "instagram": "None", "facebook": "None", "youtube": "None", "website": "None", "summary": "None", "logo": "None", "latitude": 46.01759946768412, "longitude": -73.13420280391252}, "890742794RR0001": {"name": "COMITE DES OEUVRES CHARITABLES DU CONSEIL ST-JOVITE NO 2377", "designationCode": "C", "categoryCode": "65", "address": "27 LABONT\u00c9", "city": "MONT-TREMBLANT", "province": "QC", "country": "CA", "postalCode": "J8E3C3", "twitter": "None", "instagram": "None", "facebook": "None", "youtube": "None", "website": "None", "summary": "None", "logo": "None", "latitude": 46.125713294477464, "longitude": -74.60539364775833}, "891854648RR0001": {"name": "COMITE DES OEUVRES CHARITABLES DU CONSEIL ST-JUDE-DE-OMERVILLE 9397", "designationCode": "C", "categoryCode": "65", "address": "474 PIE XII", "city": "MAGOG", "province": "QC", "country": "CA", "postalCode": "J1X4C8", "twitter": "None", "instagram": "None", "facebook": "None", "youtube": "None", "website": "None", "summary": "None", "logo": "None", "latitude": 45.29268333166945, "longitude": -72.11002695920133}, "891215246RR0001": {"name": "COMITE DES OEUVRES CHARITABLES DU CONSEIL ST-LEON DE STANDON 10081", "designationCode": "C", "categoryCode": "65", "address": "C.P. 685", "city": "SAINT-LEON DE STANDON", "province": "QC", "country": "CA", "postalCode": "G0R4L0", "twitter": "None", "instagram": "None", "facebook": "None", "youtube": "None", "website": "None", "summary": "None", "logo": "None", "latitude": 46.4786999483527, "longitude": -70.6192100339024}, "893334763RR0001": {"name": "COMITE DES OEUVRES CHARITABLES DU CONSEIL ST-LIBOIRE 3649", "designationCode": "C", "categoryCode": "65", "address": "1655 ST EDOUARD", "city": "ST LIBOIRE", "province": "QC", "country": "CA", "postalCode": "J0H1R0", "twitter": "None", "instagram": "None", "facebook": "None", "youtube": "None", "website": "None", "summary": "None", "logo": "None", "latitude": 45.65542335662774, "longitude": -72.7586493294764}, "891499741RR0001": {"name": "COMITE DES OEUVRES CHARITABLES DU CONSEIL ST-LOUIS-DE-FRANCE 9956-17", "designationCode": "C", "categoryCode": "65", "address": "805 LOUIS DE FRANCE", "city": "TROIS-RIVIERES", "province": "QC", "country": "CA", "postalCode": "G8T1A2", "twitter": "None", "instagram": "None", "facebook": "None", "youtube": "None", "website": "None", "summary": "None", "logo": "None", "latitude": 46.42321994647517, "longitude": -72.59602885249775}, "891870172RR0001": {"name": "COMITE DES OEUVRES CHARITABLES DU CONSEIL ST-LUDGER 9738-38", "designationCode": "C", "categoryCode": "65", "address": "155 RUE DU PONT", "city": "ST-LUDGER", "province": "QC", "country": "CA", "postalCode": "G0M1W0", "twitter": "None", "instagram": "None", "facebook": "None", "youtube": "None", "website": "None", "summary": "None", "logo": "None", "latitude": 45.74387212877263, "longitude": -70.69809543326208}, "891559544RR0001": {"name": "COMITE DES OEUVRES CHARITABLES DU CONSEIL ST-MARTIN 5931", "designationCode": "C", "categoryCode": "65", "address": "55 RUE DU BANC", "city": "RIVIERE-AU-RENARD", "province": "QC", "country": "CA", "postalCode": "G4X5E3", "twitter": "None", "instagram": "None", "facebook": "None", "youtube": "None", "website": "None", "summary": "None", "logo": "None", "latitude": 48.99419560876456, "longitude": -64.38811232022917}, "891461642RR0001": {"name": "COMITE DES OEUVRES CHARITABLES DU CONSEIL ST-METHODE NO 7425", "designationCode": "C", "categoryCode": "65", "address": "224, RANG 14", "city": "ADSTOCK", "province": "QC", "country": "CA", "postalCode": "G0N1S0", "twitter": "None", "instagram": "None", "facebook": "None", "youtube": "None", "website": "None", "summary": "None", "logo": "None", "latitude": 46.076786938917564, "longitude": -71.05840559175354}, "884913385RR0001": {"name": "COMITE DES OEUVRES CHARITABLES DU CONSEIL ST-NARCISSE NO 9336", "designationCode": "C", "categoryCode": "65", "address": "329 PRINCIPALE", "city": "ST NARCISSE DE BEAURIVAGE", "province": "QC", "country": "CA", "postalCode": "G0S1W0", "twitter": "None", "instagram": "None", "facebook": "None", "youtube": "None", "website": "None", "summary": "None", "logo": "None", "latitude": 46.479633119337585, "longitude": -71.23223797062695}, "890590193RR0001": {"name": "COMITE DES OEUVRES CHARITABLES DU CONSEIL ST-PASCAL NO 2941", "designationCode": "C", "categoryCode": "65", "address": "470 NOTRE-DAME APP B", "city": "ST-PASCAL", "province": "QC", "country": "CA", "postalCode": "G0L3Y0", "twitter": "None", "instagram": "None", "facebook": "None", "youtube": "None", "website": "None", "summary": "None", "logo": "None", "latitude": 47.53089447669335, "longitude": -69.8018824161143}, "891135972RR0001": {"name": "COMITE DES OEUVRES CHARITABLES DU CONSEIL ST-PATRICE BEAURIVAGE NO 2993", "designationCode": "C", "categoryCode": "65", "address": "21 RANG BEAURIVAGE", "city": "ST SYLVESTRE", "province": "QC", "country": "CA", "postalCode": "G0S3C0", "twitter": "None", "instagram": "None", "facebook": "None", "youtube": "None", "website": "None", "summary": "None", "logo": "None", "latitude": 46.37952115511592, "longitude": -71.14126242434662}}