{"854268430RR0001": {"name": "Pugalug Pug Rescue", "designationCode": "C", "categoryCode": "54", "address": "77 DUNKIRK ROAD", "city": "TORONTO", "province": "ON", "country": "CA", "postalCode": "M4C2M5", "twitter": "None", "instagram": "None", "facebook": "None", "youtube": "None", "website": "None", "summary": "None", "logo": "None", "latitude": 43.692947885913874, "longitude": -79.31774681181837}, "852010065RR0001": {"name": "Puits Eau Mali", "designationCode": "C", "categoryCode": "09", "address": "CP 20018 GRANDE ALLEE", "city": "TERREBONNE", "province": "QC", "country": "CA", "postalCode": "J6V0C9", "twitter": "None", "instagram": "None", "facebook": "None", "youtube": "None", "website": "None", "summary": "None", "logo": "None", "latitude": 45.72546900000006, "longitude": -73.50718849999993}, "119288918RR1544": {"name": "Punjabi Circuit 1 of Jehovah`s Witnesses", "designationCode": "C", "categoryCode": "61", "address": "108-33353 MARSHALL ROAD", "city": "ABBOTSFORD", "province": "BC", "country": "CA", "postalCode": "V2S8N9", "twitter": "None", "instagram": "None", "facebook": "None", "youtube": "None", "website": "None", "summary": "None", "logo": "None", "latitude": 49.03861747936952, "longitude": -122.3001840483005}, "883090409RR0001": {"name": "Punjabi Community Health Services", "designationCode": "C", "categoryCode": "09", "address": "241 - 2980 DREW RD", "city": "MISSISSAUGA", "province": "ON", "country": "CA", "postalCode": "L4T0A7", "twitter": "None", "instagram": "None", "facebook": "None", "youtube": "None", "website": "None", "summary": "None", "logo": "None", "latitude": 43.71070829387188, "longitude": -79.65274526721147}, "802996983RR0001": {"name": "Punjabi Community Health Services Calgary Society", "designationCode": "C", "categoryCode": "11", "address": "300 - 714 1 ST SE", "city": "CALGARY", "province": "AB", "country": "CA", "postalCode": "T2G2G8", "twitter": "None", "instagram": "None", "facebook": "None", "youtube": "None", "website": "None", "summary": "None", "logo": "None", "latitude": 51.046216196850395, "longitude": -114.06045327551206}, "119288918RR1542": {"name": "Punjabi Congregation of Jehovah's Witnesses, Vancouver, British Columbia", "designationCode": "C", "categoryCode": "61", "address": "495-49TH AVENUE EAST", "city": "VANCOUVER", "province": "BC", "country": "CA", "postalCode": "V5W2G8", "twitter": "None", "instagram": "None", "facebook": "None", "youtube": "None", "website": "None", "summary": "None", "logo": "None", "latitude": 49.22556147879262, "longitude": -123.09443066472387}, "119288918RR1613": {"name": "Punjabi East Congregation of Jehovah's Witnesses, Hamilton, Ontario", "designationCode": "C", "categoryCode": "61", "address": "120 DUKE STREET, UNIT 408", "city": "HAMILTON", "province": "ON", "country": "CA", "postalCode": "L8W1B2", "twitter": "None", "instagram": "None", "facebook": "None", "youtube": "None", "website": "None", "summary": "None", "logo": "None", "latitude": 43.253063024570054, "longitude": -79.87685366570308}, "859749129RR0001": {"name": "Punjabi Hindi Masihi Church of Edmonton", "designationCode": "B", "categoryCode": "39", "address": "4010 MACNEIL PL NW", "city": "EDMONTON", "province": "AB", "country": "CA", "postalCode": "T6R0H6", "twitter": "None", "instagram": "None", "facebook": "None", "youtube": "None", "website": "None", "summary": "None", "logo": "None", "latitude": 53.446036022765256, "longitude": -113.55712752986305}, "818309213RR0001": {"name": "Puppets Up! International Puppet Festival", "designationCode": "C", "categoryCode": "22", "address": "PO BOX 1297", "city": "ALMONTE", "province": "ON", "country": "CA", "postalCode": "K0A1A0", "twitter": "None", "instagram": "None", "facebook": "None", "youtube": "None", "website": "None", "summary": "None", "logo": "None", "latitude": 45.223665000000054, "longitude": -76.20363799999993}, "107866691RR0001": {"name": "Purdy Community Church", "designationCode": "C", "categoryCode": "31", "address": "BOX 70                        13 CENTREVIEW RD", "city": "COMBERMERE", "province": "ON", "country": "CA", "postalCode": "K0J1L0", "twitter": "None", "instagram": "None", "facebook": "None", "youtube": "None", "website": "None", "summary": "None", "logo": "None", "latitude": 45.374815513507876, "longitude": -77.61668356253622}, "818720427RR0001": {"name": "Purdy's Cemetery", "designationCode": "C", "categoryCode": "59", "address": "1130 BRUCE RD 15", "city": "CARGILL", "province": "ON", "country": "CA", "postalCode": "N0G1J0", "twitter": "None", "instagram": "None", "facebook": "None", "youtube": "None", "website": "None", "summary": "None", "logo": "None", "latitude": 44.19894547893401, "longitude": -81.22515076840679}, "847098787RR0001": {"name": "Pure Art Foundation /Fondation pur art", "designationCode": "B", "categoryCode": "03", "address": "132, CHEMIN DE L'ANSE", "city": "VAUDREUIL", "province": "QC", "country": "CA", "postalCode": "J7V8P3", "twitter": "None", "instagram": "None", "facebook": "None", "youtube": "None", "website": "None", "summary": "None", "logo": "None", "latitude": 45.41902112236735, "longitude": -74.05023127312585}, "850820051RR0001": {"name": "Pure North S'Energy Foundation", "designationCode": "B", "categoryCode": "11", "address": "800-326 11TH AVE SW", "city": "CALGARY", "province": "AB", "country": "CA", "postalCode": "T2R0C5", "twitter": "None", "instagram": "None", "facebook": "None", "youtube": "None", "website": "None", "summary": "None", "logo": "None", "latitude": 51.04257749321932, "longitude": -114.0692590269202}, "840123053RR0001": {"name": "Pure Witness Ministries Inc.", "designationCode": "C", "categoryCode": "39", "address": "SITE 500  BOX 17  R.R.  5", "city": "SASKATOON", "province": "SK", "country": "CA", "postalCode": "S7K3J8", "twitter": "None", "instagram": "None", "facebook": "None", "youtube": "None", "website": "None", "summary": "None", "logo": "None", "latitude": 52.13049000000005, "longitude": -106.65926449999994}, "819401399RR0001": {"name": "Purple Hope Project", "designationCode": "C", "categoryCode": "09", "address": "305-4885 HENRI BOURASSA WEST", "city": "MONTREAL", "province": "QC", "country": "CA", "postalCode": "H4L0A5", "twitter": "None", "instagram": "None", "facebook": "None", "youtube": "None", "website": "None", "summary": "None", "logo": "None", "latitude": 45.52244929479458, "longitude": -73.70700158260695}, "823855697RR0001": {"name": "Purpose Group International", "designationCode": "C", "categoryCode": "52", "address": "500 - 120 EGLINTON AVE E", "city": "TORONTO", "province": "ON", "country": "CA", "postalCode": "M4P1E2", "twitter": "None", "instagram": "None", "facebook": "None", "youtube": "None", "website": "None", "summary": "None", "logo": "None", "latitude": 43.7089009100495, "longitude": -79.38780176683875}, "816947386RR0001": {"name": "Purrfect Companions of Norfolk Cat Rescue and Adoption", "designationCode": "C", "categoryCode": "54", "address": "19 BRANTFORD RD", "city": "DELHI", "province": "ON", "country": "CA", "postalCode": "N4B1V5", "twitter": "None", "instagram": "None", "facebook": "None", "youtube": "None", "website": "None", "summary": "None", "logo": "None", "latitude": 42.858310641410355, "longitude": -80.47370970220432}, "810304576RR0001": {"name": "PurNat", "designationCode": "C", "categoryCode": "59", "address": "100, CH. DES ERABLES", "city": "SAINT-JEAN-D'ORLEANS", "province": "QC", "country": "CA", "postalCode": "G0A3W0", "twitter": "None", "instagram": "None", "facebook": "None", "youtube": "None", "website": "None", "summary": "None", "logo": "None", "latitude": 46.92910687318927, "longitude": -70.8817537648742}, "842138380RR0001": {"name": "Pushkin Russian School Foundation / Fondation \u00c9cole Russe Pouchkine", "designationCode": "C", "categoryCode": "20", "address": "425 AV EDOUARD-CHARLES", "city": "OUTREMONT", "province": "QC", "country": "CA", "postalCode": "H2V2N3", "twitter": "None", "instagram": "None", "facebook": "None", "youtube": "None", "website": "None", "summary": "None", "logo": "None", "latitude": 45.518087210110174, "longitude": -73.59615647864838}, "844753335RR0001": {"name": "Pythagoras Academy Society", "designationCode": "B", "categoryCode": "20", "address": "8671 ODLIN CRES", "city": "RICHMOND", "province": "BC", "country": "CA", "postalCode": "V6X1G1", "twitter": "None", "instagram": "None", "facebook": "None", "youtube": "None", "website": "None", "summary": "None", "logo": "None", "latitude": 49.181232487740544, "longitude": -123.12708178634193}, "834818924RR0001": {"name": "PA CHRISTIAN RADIO CORPORATION", "designationCode": "C", "categoryCode": "47", "address": "PO BOX 3141", "city": "PRINCE ALBERT", "province": "SK", "country": "CA", "postalCode": "S6V7M4", "twitter": "None", "instagram": "None", "facebook": "None", "youtube": "None", "website": "None", "summary": "None", "logo": "None", "latitude": 53.199456000000055, "longitude": -105.74863099999993}, "861284016RR0001": {"name": "PA MOJA FOUNDATION", "designationCode": "A", "categoryCode": "03", "address": "590 ARTISAN LANE", "city": "BOWEN ISLAND", "province": "BC", "country": "CA", "postalCode": "V0N1G2", "twitter": "None", "instagram": "None", "facebook": "None", "youtube": "None", "website": "None", "summary": "None", "logo": "None", "latitude": 49.38041753932836, "longitude": -123.34516794923702}, "107820441RR0001": {"name": "PACE INDEPENDENT LIVING", "designationCode": "C", "categoryCode": "01", "address": "SUITE 210 970 LAWRENCE AVE W", "city": "NORTH YORK", "province": "ON", "country": "CA", "postalCode": "M6A3B6", "twitter": "None", "instagram": "None", "facebook": "None", "youtube": "None", "website": "None", "summary": "None", "logo": "None", "latitude": 43.713414238444024, "longitude": -79.45809593770547}, "892857962RR0001": {"name": "PACE 2000 INTERNATIONAL FOUNDATION", "designationCode": "C", "categoryCode": "01", "address": "206-356 WOODROFFE AVE", "city": "OTTAWA", "province": "ON", "country": "CA", "postalCode": "K2A3V6", "twitter": "None", "instagram": "None", "facebook": "None", "youtube": "None", "website": "None", "summary": "None", "logo": "None", "latitude": 45.37057811322073, "longitude": -75.77091028302225}, "827116336RR0001": {"name": "PACHA", "designationCode": "C", "categoryCode": "21", "address": "B-1596 HOSKINS CRES", "city": "CUMBERLAND", "province": "ON", "country": "CA", "postalCode": "K4A2H8", "twitter": "None", "instagram": "None", "facebook": "None", "youtube": "None", "website": "None", "summary": "None", "logo": "None", "latitude": 45.47572289927274, "longitude": -75.49211820373353}, "889832176RR0001": {"name": "PACIFIC ACADEMY FOUNDATION", "designationCode": "A", "categoryCode": "23", "address": "10238 168TH ST", "city": "SURREY", "province": "BC", "country": "CA", "postalCode": "V4N1Z4", "twitter": "None", "instagram": "None", "facebook": "None", "youtube": "None", "website": "None", "summary": "None", "logo": "None", "latitude": 49.18891466472388, "longitude": -122.7564104733396}, "889788774RR0001": {"name": "PACIFIC ACADEMY OUTREACH SOCIETY", "designationCode": "C", "categoryCode": "59", "address": "10238-168TH STREET", "city": "SURREY", "province": "BC", "country": "CA", "postalCode": "V4N1Z4", "twitter": "None", "instagram": "None", "facebook": "None", "youtube": "None", "website": "None", "summary": "None", "logo": "None", "latitude": 49.18891466472388, "longitude": -122.7564104733396}, "891441172RR0001": {"name": "PACIFIC AIR SEARCH AND RESCUE SOCIETY", "designationCode": "C", "categoryCode": "59", "address": "BOX 36523                     RPO SEAFAIR", "city": "RICHMOND", "province": "BC", "country": "CA", "postalCode": "V7C5M4", "twitter": "None", "instagram": "None", "facebook": "None", "youtube": "None", "website": "None", "summary": "None", "logo": "None", "latitude": 49.14754320537071, "longitude": -123.19298523758391}, "873021752RR0001": {"name": "PACIFIC ANIMAL FOUNDATION", "designationCode": "B", "categoryCode": "54", "address": "330 EAST 23RD STREET", "city": "NORTH VANCOUVER", "province": "BC", "country": "CA", "postalCode": "V7L3E5", "twitter": "None", "instagram": "None", "facebook": "None", "youtube": "None", "website": "None", "summary": "None", "logo": "None", "latitude": 49.33020352596792, "longitude": -123.06446083236193}, "889160974RR0001": {"name": "PACIFIC ANIMAL THERAPY SOCIETY", "designationCode": "C", "categoryCode": "11", "address": "550 - 2950 DOUGLAS ST", "city": "VICTORIA", "province": "BC", "country": "CA", "postalCode": "V8T4N4", "twitter": "None", "instagram": "None", "facebook": "None", "youtube": "None", "website": "None", "summary": "None", "logo": "None", "latitude": 48.44324183622842, "longitude": -123.36969413913039}, "851184994RR0001": {"name": "PACIFIC ANIMAL WELFARE SOCIETY", "designationCode": "A", "categoryCode": "03", "address": "330 E. 23RD STREET", "city": "NORTH VANCOUVER", "province": "BC", "country": "CA", "postalCode": "V7L3E5", "twitter": "None", "instagram": "None", "facebook": "None", "youtube": "None", "website": "None", "summary": "None", "logo": "None", "latitude": 49.33020352596792, "longitude": -123.06446083236193}, "892252347RR0001": {"name": "PACIFIC ASSISTANCE DOGS SOCIETY", "designationCode": "C", "categoryCode": "09", "address": "9048 STORMONT AVE", "city": "BURNABY", "province": "BC", "country": "CA", "postalCode": "V3N4G6", "twitter": "None", "instagram": "None", "facebook": "None", "youtube": "None", "website": "None", "summary": "None", "logo": "None", "latitude": 49.245168877685984, "longitude": -122.91282153213592}, "119075364RR0001": {"name": "PACIFIC BALLET BRITISH COLUMBIA SOCIETY", "designationCode": "C", "categoryCode": "22", "address": "601 SMITHE ST", "city": "VANCOUVER", "province": "BC", "country": "CA", "postalCode": "V6B5G1", "twitter": "None", "instagram": "None", "facebook": "None", "youtube": "None", "website": "None", "summary": "None", "logo": "None", "latitude": 49.27986949209414, "longitude": -123.12067832194592}, "119075372RR0001": {"name": "PACIFIC CENTRE FAMILY SERVICES ASSOCIATION", "designationCode": "C", "categoryCode": "20", "address": "345 WALE ROAD", "city": "VICTORIA", "province": "BC", "country": "CA", "postalCode": "V9B6X2", "twitter": "None", "instagram": "None", "facebook": "None", "youtube": "None", "website": "None", "summary": "None", "logo": "None", "latitude": 48.44507301944245, "longitude": -123.46715150268831}, "107810129RR0001": {"name": "PACIFIC CENTRE FOR DISCIPLESHIP ASSOCIATION", "designationCode": "C", "categoryCode": "49", "address": "4000 11TH AVE W", "city": "VANCOUVER", "province": "BC", "country": "CA", "postalCode": "V6R2L3", "twitter": "None", "instagram": "None", "facebook": "None", "youtube": "None", "website": "None", "summary": "None", "logo": "None", "latitude": 49.262641513994026, "longitude": -123.19442405398465}, "119075398RR0001": {"name": "PACIFIC CHRISTIAN SCHOOL FOUNDATION", "designationCode": "A", "categoryCode": "23", "address": "201-4400 CHATTERTON", "city": "VICTORIA", "province": "BC", "country": "CA", "postalCode": "V8X5J2", "twitter": "None", "instagram": "None", "facebook": "None", "youtube": "None", "website": "None", "summary": "None", "logo": "None", "latitude": 48.48674397890817, "longitude": -123.38178234341218}, "119075406RR0001": {"name": "PACIFIC CINEMATHEQUE PACIFIQUE", "designationCode": "C", "categoryCode": "22", "address": "200-1131 HOWE ST", "city": "VANCOUVER", "province": "BC", "country": "CA", "postalCode": "V6Z2L7", "twitter": "None", "instagram": "None", "facebook": "None", "youtube": "None", "website": "None", "summary": "None", "logo": "None", "latitude": 49.27865077243116, "longitude": -123.12606403598599}, "870819232RR0001": {"name": "PACIFIC COAST ANIMAL CONCERNS SOCIETY", "designationCode": "C", "categoryCode": "54", "address": "399 KING RD", "city": "GIBSONS", "province": "BC", "country": "CA", "postalCode": "V0N1V5", "twitter": "None", "instagram": "None", "facebook": "None", "youtube": "None", "website": "None", "summary": "None", "logo": "None", "latitude": 49.39771457487205, "longitude": -123.54077764604371}, "119075414RR0001": {"name": "PACIFIC COAST CHILDREN'S MISSION", "designationCode": "C", "categoryCode": "47", "address": "PO BOX 40", "city": "HERIOT BAY", "province": "BC", "country": "CA", "postalCode": "V0P1H0", "twitter": "None", "instagram": "None", "facebook": "None", "youtube": "None", "website": "None", "summary": "None", "logo": "None", "latitude": 50.100100277953125, "longitude": -125.20502305421007}, "131879744RR0001": {"name": "PACIFIC COAST PUBLIC TELEVISION ASSOCIATION", "designationCode": "C", "categoryCode": "21", "address": "1800 - 510 GEORGIA ST W", "city": "VANCOUVER", "province": "BC", "country": "CA", "postalCode": "V6B0M3", "twitter": "None", "instagram": "None", "facebook": "None", "youtube": "None", "website": "None", "summary": "None", "logo": "None", "latitude": 49.281267759207665, "longitude": -123.11633309804196}, "138619135RR0001": {"name": "PACIFIC COMMUNITY CHURCH", "designationCode": "C", "categoryCode": "39", "address": "5337 180 ST", "city": "SURREY", "province": "BC", "country": "CA", "postalCode": "V3S4K5", "twitter": "None", "instagram": "None", "facebook": "None", "youtube": "None", "website": "None", "summary": "None", "logo": "None", "latitude": 49.099798424923534, "longitude": -122.72397442841464}, "869354142RR0001": {"name": "PACIFIC COMMUNITY METHODIST CHURCH INC", "designationCode": "C", "categoryCode": "39", "address": "1563 LOGAN AVENUE", "city": "WINNIPEG", "province": "MB", "country": "CA", "postalCode": "R3E1S5", "twitter": "None", "instagram": "None", "facebook": "None", "youtube": "None", "website": "None", "summary": "None", "logo": "None", "latitude": 49.91964091369947, "longitude": -97.1890048771713}, "107775785RR0001": {"name": "PACIFIC COMMUNITY RESOURCES SOCIETY", "designationCode": "C", "categoryCode": "10", "address": "#201-2830 GRANDVIEW HWY", "city": "VANCOUVER", "province": "BC", "country": "CA", "postalCode": "V5M2C9", "twitter": "None", "instagram": "None", "facebook": "None", "youtube": "None", "website": "None", "summary": "None", "logo": "None", "latitude": 49.25815652842077, "longitude": -123.04634221870852}, "889578464RR0001": {"name": "PACIFIC FOUNDATION FOR UNDERSTANDING NATURE SOCIETY", "designationCode": "C", "categoryCode": "21", "address": "2823 SECHELT DRIVE", "city": "NORTH VANCOUVER", "province": "BC", "country": "CA", "postalCode": "V7H1P5", "twitter": "None", "instagram": "None", "facebook": "None", "youtube": "None", "website": "None", "summary": "None", "logo": "None", "latitude": 49.326443352184356, "longitude": -122.99562988715464}, "865492995RR0001": {"name": "PACIFIC GRACE MANDARIN CHURCH", "designationCode": "C", "categoryCode": "39", "address": "380 HYTHE AVENUE", "city": "BURNABY", "province": "BC", "country": "CA", "postalCode": "V5B3H9", "twitter": "None", "instagram": "None", "facebook": "None", "youtube": "None", "website": "None", "summary": "None", "logo": "None", "latitude": 49.28068166111719, "longitude": -122.99045531083742}, "107810368RR0001": {"name": "PACIFIC GRACE MB CHURCH", "designationCode": "C", "categoryCode": "34", "address": "2855 1ST AVE E", "city": "VANCOUVER", "province": "BC", "country": "CA", "postalCode": "V5M1A9", "twitter": "None", "instagram": "None", "facebook": "None", "youtube": "None", "website": "None", "summary": "None", "logo": "None", "latitude": 49.26961650043269, "longitude": -123.04572177407813}, "119075463RR0001": {"name": "PACIFIC IMMIGRANT RESOURCES SOCIETY", "designationCode": "C", "categoryCode": "09", "address": "1874 KINGSWAY", "city": "VANCOUVER", "province": "BC", "country": "CA", "postalCode": "V5N2S7", "twitter": "None", "instagram": "None", "facebook": "None", "youtube": "None", "website": "None", "summary": "None", "logo": "None", "latitude": 49.24585688019948, "longitude": -123.06684108524364}, "107810442RR0001": {"name": "PACIFIC JUNCTION DAY CARE INCORPORATED", "designationCode": "C", "categoryCode": "01", "address": "715 CATHCART ST", "city": "WINNIPEG", "province": "MB", "country": "CA", "postalCode": "R3R3M7", "twitter": "None", "instagram": "None", "facebook": "None", "youtube": "None", "website": "None", "summary": "None", "logo": "None", "latitude": 49.85073823535695, "longitude": -97.25446775347726}, "126285931RR0001": {"name": "PACIFIC LIFE BIBLE COLLEGE", "designationCode": "C", "categoryCode": "20", "address": "15030-66A AVE", "city": "SURREY", "province": "BC", "country": "CA", "postalCode": "V3S2A5", "twitter": "None", "instagram": "None", "facebook": "None", "youtube": "None", "website": "None", "summary": "None", "logo": "None", "latitude": 49.12352851947664, "longitude": -122.80630143741702}, "107810525RR0001": {"name": "PACIFIC MONTESSORI SOCIETY", "designationCode": "C", "categoryCode": "20", "address": "2970 JUTLAND RD", "city": "VICTORIA", "province": "BC", "country": "CA", "postalCode": "V8T5K2", "twitter": "None", "instagram": "None", "facebook": "None", "youtube": "None", "website": "None", "summary": "None", "logo": "None", "latitude": 48.44073444852552, "longitude": -123.37809867586103}, "892429390RR0001": {"name": "PACIFIC MUSIC/FRASER MACPHERSON MUSIC SCHOLARSHIP FUND", "designationCode": "C", "categoryCode": "22", "address": "#100 - 925 W. 8TH AVE", "city": "VANCOUVER", "province": "BC", "country": "CA", "postalCode": "V5Z1E4", "twitter": "None", "instagram": "None", "facebook": "None", "youtube": "None", "website": "None", "summary": "None", "logo": "None", "latitude": 49.26431346768412, "longitude": -123.12485949708581}, "132643826RR0001": {"name": "PACIFIC NORTHWEST MUSIC FESTIVAL ASSOCIATION", "designationCode": "C", "categoryCode": "22", "address": "BOX 456", "city": "TERRACE", "province": "BC", "country": "CA", "postalCode": "V8G4B5", "twitter": "None", "instagram": "None", "facebook": "None", "youtube": "None", "website": "None", "summary": "None", "logo": "None", "latitude": 54.51590400000006, "longitude": -128.60321299999993}, "888920865RR0001": {"name": "PACIFIC NUCLEAR CHARITABLE FOUNDATION", "designationCode": "B", "categoryCode": "03", "address": "1227-1124 LONSDALE AVE", "city": "NORTH VANCOUVER", "province": "BC", "country": "CA", "postalCode": "V7M2H1", "twitter": "None", "instagram": "None", "facebook": "None", "youtube": "None", "website": "None", "summary": "None", "logo": "None", "latitude": 49.31843282653355, "longitude": -123.07238792890558}, "137824330RR0001": {"name": "PACIFIC OPEN HEART ASSOCIATION", "designationCode": "C", "categoryCode": "01", "address": "PO BOX 45001 RPO OCEAN PARK", "city": "SURREY", "province": "BC", "country": "CA", "postalCode": "V4A9L1", "twitter": "None", "instagram": "None", "facebook": "None", "youtube": "None", "website": "None", "summary": "None", "logo": "None", "latitude": 49.03519090817018, "longitude": -122.87567092121638}, "119075547RR0001": {"name": "PACIFIC OPERA ASSOCIATION", "designationCode": "C", "categoryCode": "22", "address": "925 BALMORAL RD", "city": "VICTORIA", "province": "BC", "country": "CA", "postalCode": "V8T1A7", "twitter": "None", "instagram": "None", "facebook": "None", "youtube": "None", "website": "None", "summary": "None", "logo": "None", "latitude": 48.428889539529244, "longitude": -123.35823300152921}, "119075554RR0001": {"name": "PACIFIC OPERA VICTORIA FOUNDATION", "designationCode": "A", "categoryCode": "23", "address": "925 BALMORAL RD", "city": "VICTORIA", "province": "BC", "country": "CA", "postalCode": "V8T1A7", "twitter": "None", "instagram": "None", "facebook": "None", "youtube": "None", "website": "None", "summary": "None", "logo": "None", "latitude": 48.428889539529244, "longitude": -123.35823300152921}, "140415811RR0001": {"name": "PACIFIC ORCA SOCIETY", "designationCode": "C", "categoryCode": "21", "address": "102 - 222 SECOND AVE W", "city": "QUALICUM BEACH", "province": "BC", "country": "CA", "postalCode": "V9K0A4", "twitter": "None", "instagram": "None", "facebook": "None", "youtube": "None", "website": "None", "summary": "None", "logo": "None", "latitude": 49.34716449567217, "longitude": -124.44798069317329}, "129898714RR0001": {"name": "PACIFIC OTOLARYNGOLOGY FOUNDATION", "designationCode": "C", "categoryCode": "11", "address": "P.O. BOX 39131", "city": "VANCOUVER", "province": "BC", "country": "CA", "postalCode": "V6R4P1", "twitter": "None", "instagram": "None", "facebook": "None", "youtube": "None", "website": "None", "summary": "None", "logo": "None", "latitude": 49.26743700000006, "longitude": -123.19643149999993}, "891567349RR0001": {"name": "PACIFIC PARKINSON'S RESEARCH INSTITUTE - VANCOUVER, CANADA SOCIETY", "designationCode": "A", "categoryCode": "23", "address": "210-1095 WEST PENDER STREET", "city": "VANCOUVER", "province": "BC", "country": "CA", "postalCode": "V6E2M6", "twitter": "None", "instagram": "None", "facebook": "None", "youtube": "None", "website": "None", "summary": "None", "logo": "None", "latitude": 49.28738612519462, "longitude": -123.1198538531653}, "889353017RR0001": {"name": "PACIFIC PARKLANDS FOUNDATION", "designationCode": "A", "categoryCode": "53", "address": "6TH FLOOR, 4330 KINGSWAY", "city": "BURNABY", "province": "BC", "country": "CA", "postalCode": "V5H4G8", "twitter": "None", "instagram": "None", "facebook": "None", "youtube": "None", "website": "None", "summary": "None", "logo": "None", "latitude": 49.23103133698539, "longitude": -123.00758948840347}, "130245483RR0001": {"name": "PACIFIC PENTECOSTAL EDUCATION AND COMMUNICATION SOCIETY", "designationCode": "C", "categoryCode": "20", "address": "10238 168 ST", "city": "SURREY", "province": "BC", "country": "CA", "postalCode": "V4N1Z4", "twitter": "None", "instagram": "None", "facebook": "None", "youtube": "None", "website": "None", "summary": "None", "logo": "None", "latitude": 49.18891466472388, "longitude": -122.7564104733396}, "119254977RR0001": {"name": "PACIFIC PEOPLES' PARTNERSHIP ASSOCIATION", "designationCode": "C", "categoryCode": "09", "address": "407-620 VIEW STREET", "city": "VICTORIA", "province": "BC", "country": "CA", "postalCode": "V8W1J6", "twitter": "None", "instagram": "None", "facebook": "None", "youtube": "None", "website": "None", "summary": "None", "logo": "None", "latitude": 48.42565545657561, "longitude": -123.36678018872988}, "107810632RR0001": {"name": "PACIFIC POST-PARTUM SUPPORT SOCIETY", "designationCode": "C", "categoryCode": "09", "address": "200-7342 WINSTON ST", "city": "BURNABY", "province": "BC", "country": "CA", "postalCode": "V5A2H1", "twitter": "None", "instagram": "None", "facebook": "None", "youtube": "None", "website": "None", "summary": "None", "logo": "None", "latitude": 49.2499014921415, "longitude": -122.95030636084228}, "119075604RR0001": {"name": "PACIFIC PUBLISHING ASSOCIATION CANADA", "designationCode": "C", "categoryCode": "47", "address": "1148 KING ST E", "city": "OSHAWA", "province": "ON", "country": "CA", "postalCode": "L1H1H8", "twitter": "None", "instagram": "None", "facebook": "None", "youtube": "None", "website": "None", "summary": "None", "logo": "None", "latitude": 43.90577745830635, "longitude": -78.8216426759766}, "119075620RR0001": {"name": "PACIFIC RIDING FOR DEVELOPING ABILITIES", "designationCode": "C", "categoryCode": "11", "address": "1088 - 208TH ST", "city": "LANGLEY", "province": "BC", "country": "CA", "postalCode": "V2Z1T4", "twitter": "None", "instagram": "None", "facebook": "None", "youtube": "None", "website": "None", "summary": "None", "logo": "None", "latitude": 49.02158708381904, "longitude": -122.64698868151652}, "125976852RR0001": {"name": "PACIFIC RIM ARTS SOCIETY", "designationCode": "C", "categoryCode": "22", "address": "BOX 468", "city": "UCLUELET", "province": "BC", "country": "CA", "postalCode": "V0R3A0", "twitter": "None", "instagram": "None", "facebook": "None", "youtube": "None", "website": "None", "summary": "None", "logo": "None", "latitude": 48.938210000000026, "longitude": -125.54276999999996}, "891924771RR0001": {"name": "PACIFIC RIM HOSPICE SOCIETY", "designationCode": "C", "categoryCode": "01", "address": "BOX 7", "city": "TOFINO", "province": "BC", "country": "CA", "postalCode": "V0R2Z0", "twitter": "None", "instagram": "None", "facebook": "None", "youtube": "None", "website": "None", "summary": "None", "logo": "None", "latitude": 49.15262000000007, "longitude": -125.90403999999995}, "898962832RR0001": {"name": "PACIFIC RIM MARINE SEARCH AND RESCUE SOCIETY", "designationCode": "C", "categoryCode": "59", "address": "PO BOX 253", "city": "UCLUELET", "province": "BC", "country": "CA", "postalCode": "V0R3A0", "twitter": "None", "instagram": "None", "facebook": "None", "youtube": "None", "website": "None", "summary": "None", "logo": "None", "latitude": 48.938210000000026, "longitude": -125.54276999999996}, "862592797RR0001": {"name": "PACIFIC SALMON ENDOWMENT FUND SOCIETY", "designationCode": "A", "categoryCode": "54", "address": "300-1682 WEST 7TH AVENUE", "city": "VANCOUVER", "province": "BC", "country": "CA", "postalCode": "V6J4S6", "twitter": "None", "instagram": "None", "facebook": "None", "youtube": "None", "website": "None", "summary": "None", "logo": "None", "latitude": 49.26541150288553, "longitude": -123.1428044701656}, "119075638RR0001": {"name": "PACIFIC SALMON FOUNDATION FONDATION DU SAUMON DU PACIFIQUE", "designationCode": "C", "categoryCode": "52", "address": "300-1682 WEST 7TH AVE", "city": "VANCOUVER", "province": "BC", "country": "CA", "postalCode": "V6J4S6", "twitter": "None", "instagram": "None", "facebook": "None", "youtube": "None", "website": "None", "summary": "None", "logo": "None", "latitude": 49.26541150288553, "longitude": -123.1428044701656}, "891642860RR0001": {"name": "PACIFIC SOCIAL WORK FOUNDATION", "designationCode": "C", "categoryCode": "59", "address": "402-1755 W BROADWAY", "city": "VANCOUVER", "province": "BC", "country": "CA", "postalCode": "V6J4S5", "twitter": "None", "instagram": "None", "facebook": "None", "youtube": "None", "website": "None", "summary": "None", "logo": "None", "latitude": 49.2637214787926, "longitude": -123.1446912485429}, "825844525RR0001": {"name": "PACIFIC SPIRIT MARINE INSTITUTE SOCIETY", "designationCode": "C", "categoryCode": "20", "address": "1005-945 JERVIS ST", "city": "VANCOUVER", "province": "BC", "country": "CA", "postalCode": "V6E2B8", "twitter": "None", "instagram": "None", "facebook": "None", "youtube": "None", "website": "None", "summary": "None", "logo": "None", "latitude": 49.285429394425314, "longitude": -123.13099859830307}, "893189365RR0001": {"name": "PACIFIC SYMPHONIC WIND ENSEMBLE", "designationCode": "C", "categoryCode": "22", "address": "214-4845 53RD ST", "city": "DELTA", "province": "BC", "country": "CA", "postalCode": "V4K2Z3", "twitter": "None", "instagram": "None", "facebook": "None", "youtube": "None", "website": "None", "summary": "None", "logo": "None", "latitude": 49.09108877293567, "longitude": -123.07591346249558}, "895307403RR0001": {"name": "PACIFIC TORAH INSTITUTE SOCIETY", "designationCode": "C", "categoryCode": "20", "address": "4TH FL-5750 OAK ST", "city": "VANCOUVER", "province": "BC", "country": "CA", "postalCode": "V6M2V9", "twitter": "None", "instagram": "None", "facebook": "None", "youtube": "None", "website": "None", "summary": "None", "logo": "None", "latitude": 49.2334493366611, "longitude": -123.12807190337037}, "119075646RR0001": {"name": "PACIFIC TRANSIT COOPERATIVE", "designationCode": "C", "categoryCode": "09", "address": "208-175 EAST BROADWAY", "city": "VANCOUVER", "province": "BC", "country": "CA", "postalCode": "V5T1W2", "twitter": "None", "instagram": "None", "facebook": "None", "youtube": "None", "website": "None", "summary": "None", "logo": "None", "latitude": 49.26294953318128, "longitude": -123.10146030391252}, "854050887RR0001": {"name": "PACIFIC WEST PERFORMING ARTS FESTIVAL SOCIETY", "designationCode": "C", "categoryCode": "22", "address": "8965  15TH AVENUE", "city": "BURNABY", "province": "BC", "country": "CA", "postalCode": "V3N1Y4", "twitter": "None", "instagram": "None", "facebook": "None", "youtube": "None", "website": "None", "summary": "None", "logo": "None", "latitude": 49.236291824310086, "longitude": -122.90682591241475}, "891381444RR0001": {"name": "PACIFIC WILDLIFE FOUNDATION", "designationCode": "C", "categoryCode": "21", "address": "403-1176 BURNABY STREET", "city": "VANCOUVER", "province": "BC", "country": "CA", "postalCode": "V6E1P1", "twitter": "None", "instagram": "None", "facebook": "None", "youtube": "None", "website": "None", "summary": "None", "logo": "None", "latitude": 49.28078087203543, "longitude": -123.13402949420028}, "130560196RR0001": {"name": "PACIFIC YOUTH AND FAMILY SERVICES SOCIETY", "designationCode": "C", "categoryCode": "09", "address": "205 - 2735 HASTINGS STREET", "city": "VANCOUVER", "province": "BC", "country": "CA", "postalCode": "V5K1Z8", "twitter": "None", "instagram": "None", "facebook": "None", "youtube": "None", "website": "None", "summary": "None", "logo": "None", "latitude": 49.28116551154119, "longitude": -123.04905202553522}, "122654999RR0001": {"name": "PACIFICA HOUSING ADVISORY ASSOCIATION", "designationCode": "C", "categoryCode": "09", "address": "827 FISGARD ST", "city": "VICTORIA", "province": "BC", "country": "CA", "postalCode": "V8W1R9", "twitter": "None", "instagram": "None", "facebook": "None", "youtube": "None", "website": "None", "summary": "None", "logo": "None", "latitude": 48.42919854674261, "longitude": -123.3605942231519}, "108082496RR0001": {"name": "PACIFICA TREATMENT CENTRE SOCIETY", "designationCode": "C", "categoryCode": "57", "address": "1755 EAST 11TH AVENUE", "city": "VANCOUVER", "province": "BC", "country": "CA", "postalCode": "V5N1Y9", "twitter": "None", "instagram": "None", "facebook": "None", "youtube": "None", "website": "None", "summary": "None", "logo": "None", "latitude": 49.260495518754546, "longitude": -123.06843}, "831571476RR0001": {"name": "PACKSAC SMILES ORGANIZATION", "designationCode": "C", "categoryCode": "09", "address": "P.O. BOX 893", "city": "NORTH BAY", "province": "ON", "country": "CA", "postalCode": "P1B8K1", "twitter": "None", "instagram": "None", "facebook": "None", "youtube": "None", "website": "None", "summary": "None", "logo": "None", "latitude": 46.30661700000006, "longitude": -79.45993249999994}, "894695139RR0001": {"name": "PADDLE PRAIRIE SPIRIT ABLAZE FELLOWSHIP.", "designationCode": "C", "categoryCode": "39", "address": "BOX 158", "city": "PADDLE PRAIRIE", "province": "AB", "country": "CA", "postalCode": "T0H2W0", "twitter": "None", "instagram": "None", "facebook": "None", "youtube": "None", "website": "None", "summary": "None", "logo": "None", "latitude": 57.96236000000005, "longitude": -117.46809999999999}, "854135175RR0001": {"name": "PADDLERS ABREAST SOCIETY", "designationCode": "C", "categoryCode": "11", "address": "PO BOX 30114 RPO OGILVIE", "city": "WHITEHORSE", "province": "YT", "country": "CA", "postalCode": "Y1A5M2", "twitter": "None", "instagram": "None", "facebook": "None", "youtube": "None", "website": "None", "summary": "None", "logo": "None", "latitude": 60.725686384902716, "longitude": -135.06208261385214}, "871246344RR0001": {"name": "PADDY WALKER HERITAGE SOCIETY", "designationCode": "C", "categoryCode": "50", "address": "235 HARBOUR STREET", "city": "KINCARDINE", "province": "ON", "country": "CA", "postalCode": "N2Z2X9", "twitter": "None", "instagram": "None", "facebook": "None", "youtube": "None", "website": "None", "summary": "None", "logo": "None", "latitude": 44.17750161838529, "longitude": -81.63793016374292}, "130314230RR0001": {"name": "PADNOMA SUPPORT SERVICES", "designationCode": "C", "categoryCode": "59", "address": "BOX 3835 STN MAIN", "city": "OLDS", "province": "AB", "country": "CA", "postalCode": "T4H1P5", "twitter": "None", "instagram": "None", "facebook": "None", "youtube": "None", "website": "None", "summary": "None", "logo": "None", "latitude": 51.791613000000055, "longitude": -114.11061199999993}, "123726408RR0001": {"name": "PAHKISIMON NUYE?AH LIBRARY SYSTEM", "designationCode": "C", "categoryCode": "50", "address": "BAG SERVICE 6600", "city": "LA RONGE", "province": "SK", "country": "CA", "postalCode": "S0J1L0", "twitter": "None", "instagram": "None", "facebook": "None", "youtube": "None", "website": "None", "summary": "None", "logo": "None", "latitude": 55.104968852218384, "longitude": -105.2789552305204}, "119075703RR0001": {"name": "PAIN DE VIE EVANGELISATION", "designationCode": "C", "categoryCode": "49", "address": "345 BOUL.LAURIER C.P.85049", "city": "MONT ST-HILAIRE", "province": "QC", "country": "CA", "postalCode": "J3H2W1", "twitter": "None", "instagram": "None", "facebook": "None", "youtube": "None", "website": "None", "summary": "None", "logo": "None", "latitude": 45.5372277372551, "longitude": -73.20990798243304}, "860305341RR0001": {"name": "PAINSWICK UNITED CHURCH MISSION", "designationCode": "C", "categoryCode": "44", "address": "258 COX MILL ROAD", "city": "BARRIE", "province": "ON", "country": "CA", "postalCode": "L4N4G5", "twitter": "None", "instagram": "None", "facebook": "None", "youtube": "None", "website": "None", "summary": "None", "logo": "None", "latitude": 44.36467503857697, "longitude": -79.6525873780367}, "890447147RR0001": {"name": "PAINTEARTH LODGE FRIENDSHIP SOCIETY", "designationCode": "C", "categoryCode": "09", "address": "BOX 209", "city": "CASTOR", "province": "AB", "country": "CA", "postalCode": "T0C0X0", "twitter": "None", "instagram": "None", "facebook": "None", "youtube": "None", "website": "None", "summary": "None", "logo": "None", "latitude": 52.21792000000005, "longitude": -111.90889999999996}, "119075729RR0001": {"name": "PAINTER/MOLYNEUX ENDOWMENT TRUST FUND", "designationCode": "C", "categoryCode": "45", "address": "32 IDYLEWYLDE PLACE", "city": "FORT ERIE", "province": "ON", "country": "CA", "postalCode": "L2A2L1", "twitter": "None", "instagram": "None", "facebook": "None", "youtube": "None", "website": "None", "summary": "None", "logo": "None", "latitude": 42.91983970246413, "longitude": -78.91326051408095}, "119075752RR0001": {"name": "PAISLEY BAPTIST CHURCH", "designationCode": "C", "categoryCode": "31", "address": "288 CHURCH STREET, PO BOX 299", "city": "PAISLEY", "province": "ON", "country": "CA", "postalCode": "N0G2N0", "twitter": "None", "instagram": "None", "facebook": "None", "youtube": "None", "website": "None", "summary": "None", "logo": "None", "latitude": 44.30824336164808, "longitude": -81.27257573910785}, "107503724RR0001": {"name": "PAISLEY IMMANUEL EVANGELICAL MISSIONARY CHURCH", "designationCode": "C", "categoryCode": "39", "address": "307 BALACLAVA STREET          BOX 220", "city": "PAISLEY", "province": "ON", "country": "CA", "postalCode": "N0G2N0", "twitter": "None", "instagram": "None", "facebook": "None", "youtube": "None", "website": "None", "summary": "None", "logo": "None", "latitude": 44.3001426927406, "longitude": -81.26907834901036}, "124040726RR0001": {"name": "PAISLEY PASTORAL CHARGE UNITED CHURCH", "designationCode": "C", "categoryCode": "44", "address": "PO BOX 310", "city": "PAISLEY", "province": "ON", "country": "CA", "postalCode": "N0G2N0", "twitter": "None", "instagram": "None", "facebook": "None", "youtube": "None", "website": "None", "summary": "None", "logo": "None", "latitude": 44.306530000000066, "longitude": -81.27205999999995}, "132219395RR0001": {"name": "PAIX PROGRAMME D'AIDE ET D'INTERVENTION INC.", "designationCode": "C", "categoryCode": "09", "address": "CASE POSTALE 523", "city": "SAINTE-AGATHE-DES-MONTS", "province": "QC", "country": "CA", "postalCode": "J8C3C6", "twitter": "None", "instagram": "None", "facebook": "None", "youtube": "None", "website": "None", "summary": "None", "logo": "None", "latitude": 46.04740800000006, "longitude": -74.28346099999993}, "886989797RR0001": {"name": "PAKISTAN - CANADA ASSOCIATION", "designationCode": "C", "categoryCode": "56", "address": "P.O. BOX 47002, UNIT 19       555 WEST 12TH AVENUE", "city": "VANCOUVER", "province": "BC", "country": "CA", "postalCode": "V5Z4L6", "twitter": "None", "instagram": "None", "facebook": "None", "youtube": "None", "website": "None", "summary": "None", "logo": "None", "latitude": 49.26043952654483, "longitude": -123.1163112783773}, "840542369RR0001": {"name": "PAL CALGARY", "designationCode": "C", "categoryCode": "09", "address": "844 LAKE TWINTREE CRESCENT SE", "city": "CALGARY", "province": "AB", "country": "CA", "postalCode": "T2J2W3", "twitter": "None", "instagram": "None", "facebook": "None", "youtube": "None", "website": "None", "summary": "None", "logo": "None", "latitude": 50.93779252761269, "longitude": -114.045304913411}, "897880902RR0001": {"name": "PAL CANADA FOUNDATION", "designationCode": "C", "categoryCode": "09", "address": "300A - 1000 YONGE ST", "city": "TORONTO", "province": "ON", "country": "CA", "postalCode": "M4W2K2", "twitter": "None", "instagram": "None", "facebook": "None", "youtube": "None", "website": "None", "summary": "None", "logo": "None", "latitude": 43.675733776848105, "longitude": -79.38905557496089}, "806300885RR0001": {"name": "PAL Ottawa", "designationCode": "C", "categoryCode": "09", "address": "ARTS COURTS                   2 DALY AVENUE", "city": "OTTAWA", "province": "ON", "country": "CA", "postalCode": "K1N6E2", "twitter": "None", "instagram": "None", "facebook": "None", "youtube": "None", "website": "None", "summary": "None", "logo": "None", "latitude": 45.425649966674534, "longitude": -75.68902994113927}, "866407711RR0001": {"name": "PAL VANCOUVER", "designationCode": "C", "categoryCode": "09", "address": "300-581 CARDERO STREET", "city": "VANCOUVER", "province": "BC", "country": "CA", "postalCode": "V6G3L3", "twitter": "None", "instagram": "None", "facebook": "None", "youtube": "None", "website": "None", "summary": "None", "logo": "None", "latitude": 49.29124658591319, "longitude": -123.12971138033944}, "832526727RR0001": {"name": "PAL Winnipeg Inc.", "designationCode": "C", "categoryCode": "09", "address": "203-245 MCDERMOT AVENUE", "city": "WINNIPEG", "province": "MB", "country": "CA", "postalCode": "R3B0S6", "twitter": "None", "instagram": "None", "facebook": "None", "youtube": "None", "website": "None", "summary": "None", "logo": "None", "latitude": 49.897426902590986, "longitude": -97.14132111128748}}