{"106727423RR0001": {"name": "EGLISE AMOUR ET VIE", "designationCode": "C", "categoryCode": "36", "address": "34 RUE NOTRE-DAME O", "city": "VICTORIAVILLE", "province": "QC", "country": "CA", "postalCode": "G6P1R5", "twitter": "None", "instagram": "None", "facebook": "None", "youtube": "None", "website": "None", "summary": "None", "logo": "None", "latitude": 46.055927282560916, "longitude": -71.96069533663244}, "118894898RR0001": {"name": "EGLISE AMOUR GRACE ADORATION DU PERE ETERNEL (AGAPE) DE TROIS-RIVIERES INC.", "designationCode": "C", "categoryCode": "39", "address": "1703 CHEMIN DE LA PRESQU'ILE", "city": "SAINT-MATHIEU-DU-PARC", "province": "QC", "country": "CA", "postalCode": "G0X1N0", "twitter": "None", "instagram": "None", "facebook": "None", "youtube": "None", "website": "None", "summary": "None", "logo": "None", "latitude": 46.58224425644875, "longitude": -72.96232060915177}, "855395448RR0001": {"name": "EGLISE APOSTOLIQUE D'EBENEZER TABERNACLE (QUEBEC) INC./EBENEZER TABERNACLE APOSTOLIC CHURCH (QUEBEC) INC.", "designationCode": "C", "categoryCode": "39", "address": "172, RUE WILLIBRORD", "city": "VERDUN", "province": "QC", "country": "CA", "postalCode": "H4G2T4", "twitter": "None", "instagram": "None", "facebook": "None", "youtube": "None", "website": "None", "summary": "None", "logo": "None", "latitude": 45.45913050678069, "longitude": -73.56592280835592}, "118894922RR0001": {"name": "EGLISE APOSTOLIQUE DU MONT SION MOUNT ZION APOSTOLIC CHURCH", "designationCode": "C", "categoryCode": "39", "address": "4685 DE COURTRAI AV", "city": "MONTREAL", "province": "QC", "country": "CA", "postalCode": "H3W1A2", "twitter": "None", "instagram": "None", "facebook": "None", "youtube": "None", "website": "None", "summary": "None", "logo": "None", "latitude": 45.499490150441375, "longitude": -73.64379381337623}, "841818347RR0001": {"name": "EGLISE APOSTOLIQUE INDEPENDANTE GITAN ROUMAIN PHILADELPHIE /INDEPENDENT APOSTOLIC ROMANIAN GIPSY PHILADELPHIA CHURCH", "designationCode": "C", "categoryCode": "39", "address": "234 RUE SAINT-HUBERT", "city": "LAVAL", "province": "QC", "country": "CA", "postalCode": "H7G2Y4", "twitter": "None", "instagram": "None", "facebook": "None", "youtube": "None", "website": "None", "summary": "None", "logo": "None", "latitude": 45.56531277823307, "longitude": -73.68466243701299}, "891369142RR0001": {"name": "EGLISE ARM\u00c9NIENNE APOSTOLIQUE SOURP KEVORK/SOURP KEVORK ARMENIAN APOSTOLIC CHURCH", "designationCode": "C", "categoryCode": "39", "address": "397 BLVD DES PRAIRIES", "city": "LAVAL", "province": "QC", "country": "CA", "postalCode": "H7N2W6", "twitter": "None", "instagram": "None", "facebook": "None", "youtube": "None", "website": "None", "summary": "None", "logo": "None", "latitude": 45.545539135754865, "longitude": -73.7095698612727}, "130722556RR0001": {"name": "EGLISE BAPTISTE \u00c9VANG\u00c9LIQUE DE REPENTIGNY", "designationCode": "C", "categoryCode": "31", "address": "CP 176", "city": "REPENTIGNY", "province": "QC", "country": "CA", "postalCode": "J6A5J1", "twitter": "None", "instagram": "None", "facebook": "None", "youtube": "None", "website": "None", "summary": "None", "logo": "None", "latitude": 45.741372000000055, "longitude": -73.45104199999993}, "897940334RR0001": {"name": "EGLISE BAPTISTE ARABE DU CHRIST", "designationCode": "C", "categoryCode": "31", "address": "507-725 PLACE FORTIER", "city": "V.S.L.", "province": "QC", "country": "CA", "postalCode": "H4L5B9", "twitter": "None", "instagram": "None", "facebook": "None", "youtube": "None", "website": "None", "summary": "None", "logo": "None", "latitude": 45.52081374883136, "longitude": -73.6695493870104}, "101589380RR0001": {"name": "EGLISE BAPTISTE BIBLIQUE DE BOUCHERVILLE INC.", "designationCode": "C", "categoryCode": "31", "address": "124 BOULEVARD MARIE-VICTORIN", "city": "BOUCHERVILLE", "province": "QC", "country": "CA", "postalCode": "J4B1V7", "twitter": "None", "instagram": "None", "facebook": "None", "youtube": "None", "website": "None", "summary": "None", "logo": "None", "latitude": 45.58981581819501, "longitude": -73.46447244252425}, "893819987RR0001": {"name": "EGLISE BAPTISTE CENTRALE DE LA RIVE-SUD DE MONTREAL", "designationCode": "C", "categoryCode": "31", "address": "12 AV D'ABERDEEN", "city": "CANDIAC", "province": "QC", "country": "CA", "postalCode": "J5R2B9", "twitter": "None", "instagram": "None", "facebook": "None", "youtube": "None", "website": "None", "summary": "None", "logo": "None", "latitude": 45.390678623348286, "longitude": -73.50950991312254}, "107286155RR0001": {"name": "EGLISE BAPTISTE CHALEUR", "designationCode": "C", "categoryCode": "31", "address": "253 NOTRE-DAME ST", "city": "ATHOLVILLE", "province": "NB", "country": "CA", "postalCode": "E3N4T1", "twitter": "None", "instagram": "None", "facebook": "None", "youtube": "None", "website": "None", "summary": "None", "logo": "None", "latitude": 47.98807067724602, "longitude": -66.72300081851213}, "132186347RR0001": {"name": "EGLISE BAPTISTE CHINOISE DE MONTREAL L'/MONTREAL CHINESE BAPTIST CHURCH", "designationCode": "C", "categoryCode": "31", "address": "3567 RUE SAINT-URBAIN", "city": "MONTREAL", "province": "QC", "country": "CA", "postalCode": "H2X2N6", "twitter": "None", "instagram": "None", "facebook": "None", "youtube": "None", "website": "None", "summary": "None", "logo": "None", "latitude": 45.51237421039865, "longitude": -73.57284914819101}, "846148120RR0001": {"name": "EGLISE BAPTISTE CREDO/ CREDO BAPTIST CHURCH", "designationCode": "C", "categoryCode": "39", "address": "1250 BOUL.AUCLAIR", "city": "QU\u00c9BEC", "province": "QC", "country": "CA", "postalCode": "G2G2H2", "twitter": "None", "instagram": "None", "facebook": "None", "youtube": "None", "website": "None", "summary": "None", "logo": "None", "latitude": 46.78408804163538, "longitude": -71.3560122124761}, "889200044RR0001": {"name": "EGLISE BAPTISTE D'AHUNTSIC", "designationCode": "C", "categoryCode": "31", "address": "9741 BOULEVARD ST-LAURENT", "city": "MONTREAL", "province": "QC", "country": "CA", "postalCode": "H3L1Y9", "twitter": "None", "instagram": "None", "facebook": "None", "youtube": "None", "website": "None", "summary": "None", "logo": "None", "latitude": 45.54655995034321, "longitude": -73.65839418982641}, "823198676RR0001": {"name": "EGLISE BAPTISTE DE L'ESPOIR DES MILLE ILES", "designationCode": "C", "categoryCode": "31", "address": "751 ALCIDE-SAUV\u00c9", "city": "BLAINVILLE", "province": "QC", "country": "CA", "postalCode": "J7C5T1", "twitter": "None", "instagram": "None", "facebook": "None", "youtube": "None", "website": "None", "summary": "None", "logo": "None", "latitude": 45.66929047905241, "longitude": -73.86324843577223}, "107610172RR0001": {"name": "EGLISE BAPTISTE DE L'EVANGILE", "designationCode": "C", "categoryCode": "31", "address": "121 BOUL LAMAQUE CP 97", "city": "VAL DOR", "province": "QC", "country": "CA", "postalCode": "J9P4N9", "twitter": "None", "instagram": "None", "facebook": "None", "youtube": "None", "website": "None", "summary": "None", "logo": "None", "latitude": 48.099884082145586, "longitude": -77.77843025924737}, "858594286RR0001": {"name": "EGLISE BAPTISTE DE LA BEAUCE", "designationCode": "C", "categoryCode": "31", "address": "615, 182E RUE", "city": "VILLE DE SAINT-GEORGES", "province": "QC", "country": "CA", "postalCode": "G5Y5B8", "twitter": "None", "instagram": "None", "facebook": "None", "youtube": "None", "website": "None", "summary": "None", "logo": "None", "latitude": 46.09412674940828, "longitude": -70.63726783005332}, "128793361RR0001": {"name": "EGLISE BAPTISTE DE LA FOI / FAITH BAPTIST CHURCH", "designationCode": "C", "categoryCode": "31", "address": "C. P. 304", "city": "DRUMMONDVILLE", "province": "QC", "country": "CA", "postalCode": "J2B6W3", "twitter": "None", "instagram": "None", "facebook": "None", "youtube": "None", "website": "None", "summary": "None", "logo": "None", "latitude": 45.88082700000005, "longitude": -72.48417199999993}, "891874166RR0001": {"name": "EGLISE BAPTISTE DE LA NOUVELLE JERUSALEM", "designationCode": "C", "categoryCode": "31", "address": "9977 BOUL ST-MICHEL", "city": "MONTREAL NORD", "province": "QC", "country": "CA", "postalCode": "H1H5G7", "twitter": "None", "instagram": "None", "facebook": "None", "youtube": "None", "website": "None", "summary": "None", "logo": "None", "latitude": 45.57748531253952, "longitude": -73.63986101621573}, "118894948RR0001": {"name": "EGLISE BAPTISTE DE LA NOUVELLE-BEAUCE", "designationCode": "C", "categoryCode": "31", "address": "CP 26", "city": "ST MARIE", "province": "QC", "country": "CA", "postalCode": "G6E3B4", "twitter": "None", "instagram": "None", "facebook": "None", "youtube": "None", "website": "None", "summary": "None", "logo": "None", "latitude": 46.46906700000005, "longitude": -71.03760199999994}, "887907665RR0001": {"name": "EGLISE BAPTISTE DE LA RIVE-SUD, INC.", "designationCode": "C", "categoryCode": "31", "address": "650 CHEMIN DE CHAMBLY", "city": "LONGUEUIL", "province": "QC", "country": "CA", "postalCode": "J4H3L8", "twitter": "None", "instagram": "None", "facebook": "None", "youtube": "None", "website": "None", "summary": "None", "logo": "None", "latitude": 45.536952647498524, "longitude": -73.49994138164337}, "889617577RR0001": {"name": "EGLISE BAPTISTE DE LA VALLEE DU RICHELIEU INC", "designationCode": "C", "categoryCode": "31", "address": "116, CHEMIN DES PATRIOTES EST", "city": "SAINT-JEAN-SUR-RICHELIEU", "province": "QC", "country": "CA", "postalCode": "J2X4J3", "twitter": "None", "instagram": "None", "facebook": "None", "youtube": "None", "website": "None", "summary": "None", "logo": "None", "latitude": 45.3290591312828, "longitude": -73.25761354755068}, "821169745RR0001": {"name": "EGLISE BAPTISTE DE LA VERITE DE QUEBEC / TRUTH BAPTIST CHURCH OF QUEBEC", "designationCode": "C", "categoryCode": "31", "address": "57 RUE DE L'OISELET", "city": "LEVIS", "province": "QC", "country": "CA", "postalCode": "G6Z8B2", "twitter": "None", "instagram": "None", "facebook": "None", "youtube": "None", "website": "None", "summary": "None", "logo": "None", "latitude": 46.66743640161002, "longitude": -71.22818111267247}, "107610180RR0001": {"name": "EGLISE BAPTISTE DE MONTREAL (1982) INC.", "designationCode": "C", "categoryCode": "31", "address": "8340 BOUL ST-LAURENT", "city": "MONTR\u00c9AL", "province": "QC", "country": "CA", "postalCode": "H2P2M3", "twitter": "None", "instagram": "None", "facebook": "None", "youtube": "None", "website": "None", "summary": "None", "logo": "None", "latitude": 45.53987602412159, "longitude": -73.63489014253553}, "107286197RR0001": {"name": "EGLISE BAPTISTE DE SEPT-ILES INC./SEPT-ILES BAPTIST CHURCH INC.", "designationCode": "C", "categoryCode": "31", "address": "CP 422", "city": "SEPT-ILES", "province": "QC", "country": "CA", "postalCode": "G4R4K6", "twitter": "None", "instagram": "None", "facebook": "None", "youtube": "None", "website": "None", "summary": "None", "logo": "None", "latitude": 50.209593000000055, "longitude": -66.38952049999993}, "891463606RR0001": {"name": "EGLISE BAPTISTE DU ROCHER VIVANT", "designationCode": "C", "categoryCode": "31", "address": "341 CH DE SAINTE-B\u00c9ATRIX", "city": "SAINTE-B\u00c9ATRIX", "province": "QC", "country": "CA", "postalCode": "J0K1Y0", "twitter": "None", "instagram": "None", "facebook": "None", "youtube": "None", "website": "None", "summary": "None", "logo": "None", "latitude": 46.1749308259853, "longitude": -73.6046394241728}, "107286205RR0001": {"name": "EGLISE BAPTISTE EMMANUEL DE RIMOUSKI INC.", "designationCode": "C", "categoryCode": "31", "address": "260 DE LA GARE", "city": "ST-ANACLET", "province": "QC", "country": "CA", "postalCode": "G0K1H0", "twitter": "None", "instagram": "None", "facebook": "None", "youtube": "None", "website": "None", "summary": "None", "logo": "None", "latitude": 48.48434968430172, "longitude": -68.43467227106373}, "107287518RR0001": {"name": "EGLISE BAPTISTE EVANGELIQUE BETHESDA", "designationCode": "C", "categoryCode": "31", "address": "7012 1ERE AVE", "city": "MONTR\u00c9AL", "province": "QC", "country": "CA", "postalCode": "H2A3H7", "twitter": "None", "instagram": "None", "facebook": "None", "youtube": "None", "website": "None", "summary": "None", "logo": "None", "latitude": 45.553961756852786, "longitude": -73.59821280073852}, "131803496RR0001": {"name": "EGLISE BAPTISTE EVANGELIQUE D'ACTON-VALE", "designationCode": "C", "categoryCode": "31", "address": "1044, RUE LEMAY", "city": "ACTON VALE", "province": "QC", "country": "CA", "postalCode": "J0H1A0", "twitter": "None", "instagram": "None", "facebook": "None", "youtube": "None", "website": "None", "summary": "None", "logo": "None", "latitude": 45.65033130336427, "longitude": -72.56599835429049}, "107610198RR0001": {"name": "EGLISE BAPTISTE EVANGELIQUE D'ASBESTOS ET DE DANVILLE", "designationCode": "C", "categoryCode": "31", "address": "896, ROUTE 255", "city": "DANVILLE", "province": "QC", "country": "CA", "postalCode": "J0A1A0", "twitter": "None", "instagram": "None", "facebook": "None", "youtube": "None", "website": "None", "summary": "None", "logo": "None", "latitude": 45.775190195273225, "longitude": -71.98643385413496}, "118895069RR0001": {"name": "EGLISE BAPTISTE EVANGELIQUE DE CHICOUTIMI", "designationCode": "C", "categoryCode": "31", "address": "1700, BOUL. DU ROYAUME O.", "city": "CHICOUTIMI", "province": "QC", "country": "CA", "postalCode": "G7H5B1", "twitter": "None", "instagram": "None", "facebook": "None", "youtube": "None", "website": "None", "summary": "None", "logo": "None", "latitude": 48.39145451731227, "longitude": -71.12564535804138}, "118895077RR0001": {"name": "EGLISE BAPTISTE EVANGELIQUE DE FERMONT INC.", "designationCode": "C", "categoryCode": "31", "address": "235 RUE LE CARREFOUR", "city": "FERMONT", "province": "QC", "country": "CA", "postalCode": "G0G1J0", "twitter": "None", "instagram": "None", "facebook": "None", "youtube": "None", "website": "None", "summary": "None", "logo": "None", "latitude": 52.79663042102839, "longitude": -67.08081702562214}, "118895085RR0001": {"name": "EGLISE BAPTISTE EVANGELIQUE DE GATINEAU", "designationCode": "C", "categoryCode": "31", "address": "770 BOUL. GREBER", "city": "GATINEAU", "province": "QC", "country": "CA", "postalCode": "J8T4Y6", "twitter": "None", "instagram": "None", "facebook": "None", "youtube": "None", "website": "None", "summary": "None", "logo": "None", "latitude": 45.49752814126613, "longitude": -75.70412095343026}, "118895101RR0001": {"name": "EGLISE BAPTISTE EVANGELIQUE DE LA SARRE", "designationCode": "C", "categoryCode": "31", "address": "99, 5E AVENUE EST", "city": "LASARRE", "province": "QC", "country": "CA", "postalCode": "J9Z3A8", "twitter": "None", "instagram": "None", "facebook": "None", "youtube": "None", "website": "None", "summary": "None", "logo": "None", "latitude": 48.805281546742606, "longitude": -79.20011241618097}, "138354709RR0001": {"name": "EGLISE BAPTISTE EVANGELIQUE DE LAVAL EST", "designationCode": "C", "categoryCode": "31", "address": "500, BOUL. D'AUTEUIL", "city": "LAVAL", "province": "QC", "country": "CA", "postalCode": "H7E3H1", "twitter": "None", "instagram": "None", "facebook": "None", "youtube": "None", "website": "None", "summary": "None", "logo": "None", "latitude": 45.589533810981656, "longitude": -73.66076107190247}, "107286494RR0001": {"name": "EGLISE BAPTISTE EVANGELIQUE DE LENNOXVILLE", "designationCode": "C", "categoryCode": "31", "address": "3401 COLL\u00c8GE                  C.P. 147 LENOXVILLE", "city": "SHERBROOKE", "province": "QC", "country": "CA", "postalCode": "J1M1Z4", "twitter": "None", "instagram": "None", "facebook": "None", "youtube": "None", "website": "None", "summary": "None", "logo": "None", "latitude": 45.36542547619647, "longitude": -71.87842477269314}, "107286445RR0001": {"name": "EGLISE BAPTISTE EVANGELIQUE DE LONGUEUIL", "designationCode": "C", "categoryCode": "31", "address": "911 BOUL. ROLAND-THERRIEN", "city": "LONGUEUIL", "province": "QC", "country": "CA", "postalCode": "J4J4L3", "twitter": "None", "instagram": "None", "facebook": "None", "youtube": "None", "website": "None", "summary": "None", "logo": "None", "latitude": 45.54063048990111, "longitude": -73.48951177116393}, "118895127RR0001": {"name": "EGLISE BAPTISTE EVANGELIQUE DE MATANE INC.", "designationCode": "C", "categoryCode": "31", "address": "147 RUE THIBEAULT", "city": "MATANE", "province": "QC", "country": "CA", "postalCode": "G4W2V8", "twitter": "None", "instagram": "None", "facebook": "None", "youtube": "None", "website": "None", "summary": "None", "logo": "None", "latitude": 48.851026795718205, "longitude": -67.52005411362477}, "118895143RR0001": {"name": "EGLISE BAPTISTE EVANGELIQUE DE MONT-LAURIER", "designationCode": "C", "categoryCode": "31", "address": "CP 203", "city": "MONT-LAURIER", "province": "QC", "country": "CA", "postalCode": "J9L3N7", "twitter": "None", "instagram": "None", "facebook": "None", "youtube": "None", "website": "None", "summary": "None", "logo": "None", "latitude": 46.55214600000005, "longitude": -75.49647199999994}, "107286320RR0001": {"name": "EGLISE BAPTISTE EVANGELIQUE DE MONT-ST-HILAIRE", "designationCode": "C", "categoryCode": "31", "address": "180, MONTEE DES TRENTE", "city": "MONT-SAINT-HILAIRE", "province": "QC", "country": "CA", "postalCode": "J3H2R4", "twitter": "None", "instagram": "None", "facebook": "None", "youtube": "None", "website": "None", "summary": "None", "logo": "None", "latitude": 45.55701136384113, "longitude": -73.19882800822297}, "137800314RR0001": {"name": "EGLISE BAPTISTE EVANGELIQUE DE RIVI\u00c8RE-DES-PRAIRIES", "designationCode": "C", "categoryCode": "39", "address": "8166 BOUL GOUIN  EST", "city": "MONTREAL", "province": "QC", "country": "CA", "postalCode": "H1E1B7", "twitter": "None", "instagram": "None", "facebook": "None", "youtube": "None", "website": "None", "summary": "None", "logo": "None", "latitude": 45.64398302524676, "longitude": -73.59655669856897}, "107286353RR0002": {"name": "EGLISE BAPTISTE EVANGELIQUE DE ROSEMONT", "designationCode": "C", "categoryCode": "31", "address": "3245 BOULEVARD ST-JOSEPH EST", "city": "MONTREAL", "province": "QC", "country": "CA", "postalCode": "H1Y2B6", "twitter": "None", "instagram": "None", "facebook": "None", "youtube": "None", "website": "None", "summary": "None", "logo": "None", "latitude": 45.549327068844065, "longitude": -73.56847260759389}, "107286361RR0001": {"name": "EGLISE BAPTISTE EVANGELIQUE DE SHERBROOKE", "designationCode": "C", "categoryCode": "31", "address": "930 RUE HAUT-BOIS SUD", "city": "SHERBROOKE", "province": "QC", "country": "CA", "postalCode": "J1N2E6", "twitter": "None", "instagram": "None", "facebook": "None", "youtube": "None", "website": "None", "summary": "None", "logo": "None", "latitude": 45.36788156226586, "longitude": -71.98729044304291}, "107286221RR0001": {"name": "EGLISE BAPTISTE EVANGELIQUE DE ST-GEORGES", "designationCode": "C", "categoryCode": "31", "address": "17645 BOUL. LACROIX           R.R. 2", "city": "SAINT-GEORGES", "province": "QC", "country": "CA", "postalCode": "G5Y5B8", "twitter": "None", "instagram": "None", "facebook": "None", "youtube": "None", "website": "None", "summary": "None", "logo": "None", "latitude": 46.09534861182343, "longitude": -70.64193200226939}, "118895184RR0001": {"name": "EGLISE BAPTISTE EVANGELIQUE DE ST-HUBERT", "designationCode": "C", "categoryCode": "31", "address": "5680 CHEMIN CHAMBLY", "city": "ST-HUBERT", "province": "QC", "country": "CA", "postalCode": "J3Y3P7", "twitter": "None", "instagram": "None", "facebook": "None", "youtube": "None", "website": "None", "summary": "None", "logo": "None", "latitude": 45.50111361838529, "longitude": -73.4138526382077}, "107286395RR0001": {"name": "EGLISE BAPTISTE EVANGELIQUE DE ST-JEAN, IBERVILLE", "designationCode": "C", "categoryCode": "31", "address": "940 RUE CHOQUETTE", "city": "ST-JEAN-SUR-RICHELIEU", "province": "QC", "country": "CA", "postalCode": "J3A1V6", "twitter": "None", "instagram": "None", "facebook": "None", "youtube": "None", "website": "None", "summary": "None", "logo": "None", "latitude": 45.33370258673324, "longitude": -73.27878205360926}, "875828436RR0001": {"name": "EGLISE BAPTISTE EVANGELIQUE DE VAUDREUIL", "designationCode": "C", "categoryCode": "39", "address": "90 CITE DES JEUNES", "city": "VAUDREUIL-DORION", "province": "QC", "country": "CA", "postalCode": "J7V8B9", "twitter": "None", "instagram": "None", "facebook": "None", "youtube": "None", "website": "None", "summary": "None", "logo": "None", "latitude": 45.395943003058434, "longitude": -74.03277699795117}, "881851729RR0001": {"name": "EGLISE BAPTISTE EVANGELIQUE DES LAURENTIDES INC", "designationCode": "C", "categoryCode": "31", "address": "116 RUE FRASER", "city": "LACHUTE", "province": "QC", "country": "CA", "postalCode": "J8H2N8", "twitter": "None", "instagram": "None", "facebook": "None", "youtube": "None", "website": "None", "summary": "None", "logo": "None", "latitude": 45.65720827837732, "longitude": -74.3294976848634}, "888227154RR0001": {"name": "EGLISE BAPTISTE EVANGELIQUE DU SAGUENAY", "designationCode": "C", "categoryCode": "31", "address": "2885 RUE BERTHIER", "city": "JONQUIERE", "province": "QC", "country": "CA", "postalCode": "G7S2J6", "twitter": "None", "instagram": "None", "facebook": "None", "youtube": "None", "website": "None", "summary": "None", "logo": "None", "latitude": 48.43360848456367, "longitude": -71.18515341618097}, "107286452RR0001": {"name": "EGLISE BAPTISTE EVANGELIQUE EMMANUEL DE L'OUEST DE L'ILE", "designationCode": "C", "categoryCode": "31", "address": "4902 BOUL. ST-CHARLES", "city": "PIERREFONDS", "province": "QC", "country": "CA", "postalCode": "H9H3E3", "twitter": "None", "instagram": "None", "facebook": "None", "youtube": "None", "website": "None", "summary": "None", "logo": "None", "latitude": 45.46783910156397, "longitude": -73.87503002031242}, "118895259RR0001": {"name": "EGLISE BAPTISTE EVANGELIQUE VALCOURT PQ", "designationCode": "C", "categoryCode": "31", "address": "2517, CH. MALBOEUF            R.R. 2", "city": "VALCOURT", "province": "QC", "country": "CA", "postalCode": "J0E2L0", "twitter": "None", "instagram": "None", "facebook": "None", "youtube": "None", "website": "None", "summary": "None", "logo": "None", "latitude": 45.468773413266774, "longitude": -72.2856143265049}, "866557911RR0001": {"name": "EGLISE BAPTISTE FRANCAISE DE RICHIBOUCTOU", "designationCode": "C", "categoryCode": "31", "address": "59 RUE ACADIE", "city": "RICHIBUCTO", "province": "NB", "country": "CA", "postalCode": "E4W3V1", "twitter": "None", "instagram": "None", "facebook": "None", "youtube": "None", "website": "None", "summary": "None", "logo": "None", "latitude": 46.67885051143156, "longitude": -64.86591250426126}, "118895275RR0001": {"name": "EGLISE BAPTISTE FRANCAISE DE ROXTON POND", "designationCode": "C", "categoryCode": "31", "address": "615 BULLOCK", "city": "ROXTON POND", "province": "QC", "country": "CA", "postalCode": "J0E1Z0", "twitter": "None", "instagram": "None", "facebook": "None", "youtube": "None", "website": "None", "summary": "None", "logo": "None", "latitude": 45.476192837930526, "longitude": -72.65925297290691}, "889258976RR0001": {"name": "EGLISE BAPTISTE HAITIENNE DE SILOE", "designationCode": "C", "categoryCode": "31", "address": "745, RUE D'ANVERS", "city": "MONTREAL", "province": "QC", "country": "CA", "postalCode": "H3N1C8", "twitter": "None", "instagram": "None", "facebook": "None", "youtube": "None", "website": "None", "summary": "None", "logo": "None", "latitude": 45.53136250375092, "longitude": -73.63939325924737}, "894190123RR0001": {"name": "EGLISE BAPTISTE INTERNATIONALE DE LA RIVE-SUD / SOUTH-SHORE INTERNATIONAL BAPTIST CHURCH", "designationCode": "C", "categoryCode": "31", "address": "5765 PELLAN", "city": "BROSSARD", "province": "QC", "country": "CA", "postalCode": "J4W1J2", "twitter": "None", "instagram": "None", "facebook": "None", "youtube": "None", "website": "None", "summary": "None", "logo": "None", "latitude": 45.47416169969415, "longitude": -73.48450526392192}, "822722948RR0001": {"name": "EGLISE BAPTISTE LE NOUVEAU PACTE / IGLESIA BAUTISTA EL NUEVO PACTO", "designationCode": "C", "categoryCode": "31", "address": "7611, RUE CENTRALE", "city": "LASALLE", "province": "QC", "country": "CA", "postalCode": "H8P1L1", "twitter": "None", "instagram": "None", "facebook": "None", "youtube": "None", "website": "None", "summary": "None", "logo": "None", "latitude": 45.43198835942638, "longitude": -73.59761919305771}, "896568011RR0001": {"name": "EGLISE BAPTISTE MISSIONNAIRE HAITIENNE", "designationCode": "B", "categoryCode": "39", "address": "37 DONNACONA CRESCENT", "city": "WEST HILL", "province": "ON", "country": "CA", "postalCode": "M1E3P8", "twitter": "None", "instagram": "None", "facebook": "None", "youtube": "None", "website": "None", "summary": "None", "logo": "None", "latitude": 43.762931957816356, "longitude": -79.17580925893026}, "820914943RR0001": {"name": "EGLISE BAPTISTE SAINT-JEAN L'APOTRE", "designationCode": "C", "categoryCode": "31", "address": "5788,CH.DE LA COTE ST-ANTOINE", "city": "MONTREAL", "province": "QC", "country": "CA", "postalCode": "H4A1S2", "twitter": "None", "instagram": "None", "facebook": "None", "youtube": "None", "website": "None", "summary": "None", "logo": "None", "latitude": 45.47052637079468, "longitude": -73.61839775018768}, "107286593RR0001": {"name": "EGLISE BETHANIE DE LONGUEUIL", "designationCode": "C", "categoryCode": "36", "address": "1789 RUE STE-HELENE", "city": "LONGUEUIL", "province": "QC", "country": "CA", "postalCode": "J4K3T2", "twitter": "None", "instagram": "None", "facebook": "None", "youtube": "None", "website": "None", "summary": "None", "logo": "None", "latitude": 45.51596175327477, "longitude": -73.49286464403608}, "893967463RR0001": {"name": "EGLISE BIBLIQUE BAPTISTE DE L'OUTAOUAIS", "designationCode": "C", "categoryCode": "39", "address": "1275 RUE GILLES", "city": "GATINEAU", "province": "QC", "country": "CA", "postalCode": "J8R2G8", "twitter": "None", "instagram": "None", "facebook": "None", "youtube": "None", "website": "None", "summary": "None", "logo": "None", "latitude": 45.52619946932888, "longitude": -75.64219811659626}, "129717906RR0001": {"name": "EGLISE BIBLIQUE BAPTISTE DE SHEFFORD", "designationCode": "C", "categoryCode": "31", "address": "895 MARCIL", "city": "GRANBY", "province": "QC", "country": "CA", "postalCode": "J2H0S4", "twitter": "None", "instagram": "None", "facebook": "None", "youtube": "None", "website": "None", "summary": "None", "logo": "None", "latitude": 45.38961154284749, "longitude": -72.67609399723004}, "107286619RR0001": {"name": "EGLISE BIBLIQUE BAPTISTE DES CANTONS DE L'EST-BIBLE BAPTIST CHURCH OF THE EASTERN TOWNSHIP", "designationCode": "C", "categoryCode": "31", "address": "971, RUE DE GIBRALTAR", "city": "SHERBROOKE", "province": "QC", "country": "CA", "postalCode": "J1N2G2", "twitter": "None", "instagram": "None", "facebook": "None", "youtube": "None", "website": "None", "summary": "None", "logo": "None", "latitude": 45.3708210769228, "longitude": -71.9854801094125}, "118895333RR0001": {"name": "EGLISE BIBLIQUE BAPTISTE METROPOLITAINE SUD", "designationCode": "C", "categoryCode": "31", "address": "3395 MOUNTAINVIEW", "city": "SAINT-HUBERT", "province": "QC", "country": "CA", "postalCode": "J3Y5N4", "twitter": "None", "instagram": "None", "facebook": "None", "youtube": "None", "website": "None", "summary": "None", "logo": "None", "latitude": 45.46952216374293, "longitude": -73.37696639644547}, "107286627RR0001": {"name": "EGLISE BIBLIQUE PIERRE ANGULAIRE", "designationCode": "C", "categoryCode": "39", "address": "7137, AV. DES ERABLES", "city": "MONTR\u00c9AL", "province": "QC", "country": "CA", "postalCode": "H2E2R1", "twitter": "None", "instagram": "None", "facebook": "None", "youtube": "None", "website": "None", "summary": "None", "logo": "None", "latitude": 45.55076920650348, "longitude": -73.60441926144041}, "108204256RR0001": {"name": "EGLISE BIBLIQUE WESTVIEW / WESTVIEW BIBLE CHURCH", "designationCode": "C", "categoryCode": "39", "address": "16789 PIERREFONDS BLVD", "city": "PIERREFONDS", "province": "QC", "country": "CA", "postalCode": "H9H4T3", "twitter": "None", "instagram": "None", "facebook": "None", "youtube": "None", "website": "None", "summary": "None", "logo": "None", "latitude": 45.47004693620492, "longitude": -73.87413609931266}, "107286635RR0001": {"name": "EGLISE BONNE NOUVELLE", "designationCode": "C", "categoryCode": "36", "address": "828 7E AV", "city": "SENNETERRE", "province": "QC", "country": "CA", "postalCode": "J0Y2M0", "twitter": "None", "instagram": "None", "facebook": "None", "youtube": "None", "website": "None", "summary": "None", "logo": "None", "latitude": 48.38693237607478, "longitude": -77.2461225}, "119012714RR0002": {"name": "EGLISE CATHOLIQUE ROMAINE DE SAINTE MONIQUE", "designationCode": "C", "categoryCode": "38", "address": "C.P. 98", "city": "NOTRE DAME DE LOURDES", "province": "MB", "country": "CA", "postalCode": "R0G1M0", "twitter": "None", "instagram": "None", "facebook": "None", "youtube": "None", "website": "None", "summary": "None", "logo": "None", "latitude": 49.53272000000004, "longitude": -98.55749999999995}, "889637344RR0001": {"name": "EGLISE CATHOLIQUE UKRAINIENNE DE ST-ANDRIJ L'AP\u00d4TRE/UKRAINIAN CATHOLIC CHURCH OF ST-ANDRIJ THE APOSTLE", "designationCode": "C", "categoryCode": "39", "address": "131 NIAGARA", "city": "KIRKLAND", "province": "QC", "country": "CA", "postalCode": "H9J3B2", "twitter": "None", "instagram": "None", "facebook": "None", "youtube": "None", "website": "None", "summary": "None", "logo": "None", "latitude": 45.45550799890349, "longitude": -73.87457417167742}, "106903172RR0001": {"name": "EGLISE CENTRE VIE ABONDANTE", "designationCode": "C", "categoryCode": "36", "address": "107, RUE ST-JEAN-BAPTISTE EST", "city": "MONTMAGNY", "province": "QC", "country": "CA", "postalCode": "G5V1J9", "twitter": "None", "instagram": "None", "facebook": "None", "youtube": "None", "website": "None", "summary": "None", "logo": "None", "latitude": 46.98042289344437, "longitude": -70.55853670693618}, "132003591RR0001": {"name": "EGLISE CHR\u00c9TIENNE PENTEC\u00d4TISTE DE LA SAMARIE INC./ CHRISTIANPENTECOSTAL CHURCH OF SMARIA INC.", "designationCode": "B", "categoryCode": "39", "address": "5795-97 BOUL. GOUIN OUEST", "city": "MONTREAL", "province": "QC", "country": "CA", "postalCode": "H4J1E3", "twitter": "None", "instagram": "None", "facebook": "None", "youtube": "None", "website": "None", "summary": "None", "logo": "None", "latitude": 45.53234550000001, "longitude": -73.71985274999999}, "892468927RR0001": {"name": "EGLISE CHRETIENNE \"LA MAISON DU POTIER\"", "designationCode": "C", "categoryCode": "39", "address": "1284, BOUL. DU SEIGNEUR       CP 94064  DP LA SEIGNEURIE", "city": "TERREBONNE", "province": "QC", "country": "CA", "postalCode": "J6W5V4", "twitter": "None", "instagram": "None", "facebook": "None", "youtube": "None", "website": "None", "summary": "None", "logo": "None", "latitude": 45.699468561169354, "longitude": -73.65541786066711}, "118895382RR0001": {"name": "EGLISE CHRETIENNE APOSTOLIQUE", "designationCode": "C", "categoryCode": "39", "address": "3275  NOLET", "city": "BROSSARD", "province": "QC", "country": "CA", "postalCode": "J4Y1Z7", "twitter": "None", "instagram": "None", "facebook": "None", "youtube": "None", "website": "None", "summary": "None", "logo": "None", "latitude": 45.4451370463386, "longitude": -73.45973118971084}, "875035305RR0001": {"name": "EGLISE CHRETIENNE BETHANIE / IGLESIA CRISTIANA BETANIA", "designationCode": "C", "categoryCode": "39", "address": "7032 BOULEVARD LACORDAIRE", "city": "SAINT-LEONARD", "province": "QC", "country": "CA", "postalCode": "H1S2A4", "twitter": "None", "instagram": "None", "facebook": "None", "youtube": "None", "website": "None", "summary": "None", "logo": "None", "latitude": 45.58302670716733, "longitude": -73.57374853303703}, "118895390RR0001": {"name": "EGLISE CHRETIENNE CHINOISE DE L'EVANGILE / CHINESE CHRISTIAN GOSPEL CHURCH", "designationCode": "C", "categoryCode": "39", "address": "WILLIAM T.P. LO               PO BOX 604 STN B", "city": "MONTREAL", "province": "QC", "country": "CA", "postalCode": "H3B3K3", "twitter": "None", "instagram": "None", "facebook": "None", "youtube": "None", "website": "None", "summary": "None", "logo": "None", "latitude": 45.49987500000006, "longitude": -73.56867649999994}, "118894930RR0001": {"name": "EGLISE CHRETIENNE D'AHUNTSIC", "designationCode": "C", "categoryCode": "39", "address": "10211 RUE BASILE-ROUTHIER", "city": "MONTREAL", "province": "QC", "country": "CA", "postalCode": "H2C2C5", "twitter": "None", "instagram": "None", "facebook": "None", "youtube": "None", "website": "None", "summary": "None", "logo": "None", "latitude": 45.55392392091283, "longitude": -73.66083520093491}, "890289192RR0001": {"name": "EGLISE CHRETIENNE DE HAWKESBURY", "designationCode": "C", "categoryCode": "39", "address": "260 MCGILL STREET             CP 675", "city": "HAWKESBURY", "province": "ON", "country": "CA", "postalCode": "K6A3C8", "twitter": "None", "instagram": "None", "facebook": "None", "youtube": "None", "website": "None", "summary": "None", "logo": "None", "latitude": 45.60822006048525, "longitude": -74.61401625359764}, "831045521RR0001": {"name": "EGLISE CHRETIENNE DE L'ILE BIGRAS", "designationCode": "C", "categoryCode": "39", "address": "73 LOCKHART", "city": "MONT-ROYAL", "province": "QC", "country": "CA", "postalCode": "H3P1X7", "twitter": "None", "instagram": "None", "facebook": "None", "youtube": "None", "website": "None", "summary": "None", "logo": "None", "latitude": 45.51615169692421, "longitude": -73.63394050057691}, "860606144RR0001": {"name": "EGLISE CHRETIENNE DE LA GRACE / CHRISTIAN CHURCH OF GRACE", "designationCode": "C", "categoryCode": "47", "address": "8770 BOULEVARD SAINT-MICHEL", "city": "MONTREAL", "province": "QC", "country": "CA", "postalCode": "H1Z3G2", "twitter": "None", "instagram": "None", "facebook": "None", "youtube": "None", "website": "None", "summary": "None", "logo": "None", "latitude": 45.5691537568528, "longitude": -73.62193221691949}, "118895408RR0001": {"name": "EGLISE CHRETIENNE DE LA MAURICE", "designationCode": "C", "categoryCode": "39", "address": "3 - 625 RUE FORGET", "city": "TROIS-RIVIERES", "province": "QC", "country": "CA", "postalCode": "G8T6C7", "twitter": "None", "instagram": "None", "facebook": "None", "youtube": "None", "website": "None", "summary": "None", "logo": "None", "latitude": 46.38422734664442, "longitude": -72.54343514282398}, "861108371RR0001": {"name": "EGLISE CHRETIENNE DE LA NOUVELLE ALLIANCE / NEW COVENANT CHRISTIAN CHURCH", "designationCode": "C", "categoryCode": "39", "address": "CP 76551                      CP BELANGER", "city": "MONTREAL", "province": "QC", "country": "CA", "postalCode": "H1T4C7", "twitter": "None", "instagram": "None", "facebook": "None", "youtube": "None", "website": "None", "summary": "None", "logo": "None", "latitude": 45.58589602025729, "longitude": -73.57012923865634}, "893456723RR0001": {"name": "EGLISE CHRETIENNE DE PENTECOTE", "designationCode": "C", "categoryCode": "36", "address": "159 RUE OLIVIER BOUCHER", "city": "EDMUNDSTON", "province": "NB", "country": "CA", "postalCode": "E3V4L6", "twitter": "None", "instagram": "None", "facebook": "None", "youtube": "None", "website": "None", "summary": "None", "logo": "None", "latitude": 47.40633212185905, "longitude": -68.33915495872283}, "870090206RR0001": {"name": "EGLISE CHRETIENNE DU DERNIER TEMPS (E.C.D.T.)", "designationCode": "C", "categoryCode": "39", "address": "8565 RUE PIERRE-FORESTIER", "city": "MONTR\u00c9AL", "province": "QC", "country": "CA", "postalCode": "H1E4C2", "twitter": "None", "instagram": "None", "facebook": "None", "youtube": "None", "website": "None", "summary": "None", "logo": "None", "latitude": 45.645489386635035, "longitude": -73.58684809521598}, "107287104RR0001": {"name": "EGLISE CHRETIENNE DU ROI DES ROIS", "designationCode": "C", "categoryCode": "31", "address": "3674 EST RUE ONTARIO", "city": "MONTREAL", "province": "QC", "country": "CA", "postalCode": "H1W1R9", "twitter": "None", "instagram": "None", "facebook": "None", "youtube": "None", "website": "None", "summary": "None", "logo": "None", "latitude": 45.546030891194015, "longitude": -73.54421343294496}, "133563825RR0001": {"name": "EGLISE CHRETIENNE EVAGELIQUE VIETNAMIENNE/VIETNAMESE CHRISTIAN GOSPEL CHURCH", "designationCode": "C", "categoryCode": "31", "address": "5196 LANGELIER", "city": "MONTREAL", "province": "QC", "country": "CA", "postalCode": "H1M2A1", "twitter": "None", "instagram": "None", "facebook": "None", "youtube": "None", "website": "None", "summary": "None", "logo": "None", "latitude": 45.58418122119, "longitude": -73.54774927214488}, "107286718RR0001": {"name": "EGLISE CHRETIENNE EVANGELIQUE (BAPTISTE) DE SEPT ILES", "designationCode": "C", "categoryCode": "39", "address": "CP 1051 SUCC BUREAU-CHEF", "city": "SEPT-ILES", "province": "QC", "country": "CA", "postalCode": "G4R4S3", "twitter": "None", "instagram": "None", "facebook": "None", "youtube": "None", "website": "None", "summary": "None", "logo": "None", "latitude": 50.209593000000055, "longitude": -66.38952049999993}, "891575540RR0001": {"name": "EGLISE CHRETIENNE EVANGELIQUE BAPTISTE DE NEW RICHMOND", "designationCode": "C", "categoryCode": "39", "address": "111, 5E RUE", "city": "NEW RICHMOND", "province": "QC", "country": "CA", "postalCode": "G0C2B0", "twitter": "None", "instagram": "None", "facebook": "None", "youtube": "None", "website": "None", "summary": "None", "logo": "None", "latitude": 48.164846741329534, "longitude": -65.86090115557727}, "107286676RR0001": {"name": "EGLISE CHRETIENNE EVANGELIQUE BAPTISTE DE TRACADIE INC.", "designationCode": "C", "categoryCode": "31", "address": "575 RUE BENOIT", "city": "TRACADIE-SHEILA", "province": "NB", "country": "CA", "postalCode": "E1X1B6", "twitter": "None", "instagram": "None", "facebook": "None", "youtube": "None", "website": "None", "summary": "None", "logo": "None", "latitude": 47.498283151883676, "longitude": -64.9118872793869}, "891603771RR0001": {"name": "EGLISE CHRETIENNE EVANGELIQUE CAMBODGIENNE DE MONTREAL", "designationCode": "C", "categoryCode": "39", "address": "7706 RUE BERNARD", "city": "LASALLE", "province": "QC", "country": "CA", "postalCode": "H8N1V9", "twitter": "None", "instagram": "None", "facebook": "None", "youtube": "None", "website": "None", "summary": "None", "logo": "None", "latitude": 45.43960200415494, "longitude": -73.6261690928214}, "119008787RR0006": {"name": "EGLISE CHRETIENNE EVANGELIQUE DE SAINT-EUSTACHE", "designationCode": "C", "categoryCode": "34", "address": "69 RUE ST-LAURENT", "city": "ST-EUSTACHE", "province": "QC", "country": "CA", "postalCode": "J7P3X6", "twitter": "None", "instagram": "None", "facebook": "None", "youtube": "None", "website": "None", "summary": "None", "logo": "None", "latitude": 45.567291214293775, "longitude": -73.89246591398792}, "131881823RR0001": {"name": "EGLISE CHRETIENNE EVANGELIQUE DE SAINT-JUSTE-DE-BRETENIERES", "designationCode": "C", "categoryCode": "39", "address": "130 RTE 204", "city": "SAINT-JUST-DE-BRETENIERES", "province": "QC", "country": "CA", "postalCode": "G0R3H0", "twitter": "None", "instagram": "None", "facebook": "None", "youtube": "None", "website": "None", "summary": "None", "logo": "None", "latitude": 46.62313971168144, "longitude": -70.07180580731583}, "118782630RR0020": {"name": "EGLISE CHRETIENNE EVANGELIQUE DE ST-DONAT", "designationCode": "C", "categoryCode": "39", "address": "720 A , RUE PRINCIPALE", "city": "ST-DONAT", "province": "QC", "country": "CA", "postalCode": "J0T2C0", "twitter": "None", "instagram": "None", "facebook": "None", "youtube": "None", "website": "None", "summary": "None", "logo": "None", "latitude": 46.313431974176325, "longitude": -74.21438704567475}, "888667045RR0001": {"name": "EGLISE CHRETIENNE EVANGELIQUE DE STE-ROSE", "designationCode": "C", "categoryCode": "34", "address": "85 BOUL JE-ME-SOUVIENS", "city": "LAVAL", "province": "QC", "country": "CA", "postalCode": "H7L3L7", "twitter": "None", "instagram": "None", "facebook": "None", "youtube": "None", "website": "None", "summary": "None", "logo": "None", "latitude": 45.612445303941186, "longitude": -73.77751597183904}, "885106815RR0001": {"name": "EGLISE CHRETIENNE FLEUVE D'EAU VIVE", "designationCode": "C", "categoryCode": "39", "address": "445 RUE KLEBER", "city": "LAVAL", "province": "QC", "country": "CA", "postalCode": "H7E3T1", "twitter": "None", "instagram": "None", "facebook": "None", "youtube": "None", "website": "None", "summary": "None", "logo": "None", "latitude": 45.58549128005073, "longitude": -73.66487011405745}, "863547220RR0001": {"name": "EGLISE CHRETIENNE MINISTERE QUINTUPLE / IGLESIA CHRISTIANA MINISTERIO QUINTUPLE", "designationCode": "C", "categoryCode": "39", "address": "2036 RUE BALDWIN", "city": "MONTREAL", "province": "QC", "country": "CA", "postalCode": "H1L5A4", "twitter": "None", "instagram": "None", "facebook": "None", "youtube": "None", "website": "None", "summary": "None", "logo": "None", "latitude": 45.5980690496568, "longitude": -73.51355795227644}, "861820975RR0001": {"name": "EGLISE CHRETIENNE PRINCE DE LA VIE / PRINCE OF LIFE CHRISTIAN CHURCH", "designationCode": "C", "categoryCode": "39", "address": "7893 BOULEVARD SAINT-LAURENT", "city": "MONTR\u00c9AL", "province": "QC", "country": "CA", "postalCode": "H2R1X1", "twitter": "None", "instagram": "None", "facebook": "None", "youtube": "None", "website": "None", "summary": "None", "logo": "None", "latitude": 45.538036971983296, "longitude": -73.62805367539968}, "839965563RR0001": {"name": "EGLISE COMMUNAUTAIRE DE LA RIVIERE ROUGE", "designationCode": "C", "categoryCode": "39", "address": "231 KITSON ST", "city": "WINNIPEG", "province": "MB", "country": "CA", "postalCode": "R2H0Z4", "twitter": "None", "instagram": "None", "facebook": "None", "youtube": "None", "website": "None", "summary": "None", "logo": "None", "latitude": 49.878955486005964, "longitude": -97.11734225007211}, "107951618RR0034": {"name": "EGLISE COMMUNAUTAIRE DE QUEBEC DE L'ARMEE DU SALUT", "designationCode": "C", "categoryCode": "40", "address": "815 BOUL WILFRID-HAMEL", "city": "QUEBEC", "province": "QC", "country": "CA", "postalCode": "G1M2R6", "twitter": "None", "instagram": "None", "facebook": "None", "youtube": "None", "website": "None", "summary": "None", "logo": "None", "latitude": 46.811291627791675, "longitude": -71.25635709114795}, "107951618RR0310": {"name": "EGLISE COMMUNAUTAIRE DE SHERBROOKE DE L'ARMEE DU SALUT", "designationCode": "C", "categoryCode": "40", "address": "112 RUE WELLINGTON S", "city": "SHERBROOKE", "province": "QC", "country": "CA", "postalCode": "J1H5C7", "twitter": "None", "instagram": "None", "facebook": "None", "youtube": "None", "website": "None", "summary": "None", "logo": "None", "latitude": 45.39970755926476, "longitude": -71.88920243738835}, "107951618RR0032": {"name": "EGLISE COMMUNAUTAIRE DE TROIS-RIVERES DE L'ARMEE DU SALUT", "designationCode": "C", "categoryCode": "40", "address": "770 BOUL DU SAINT-MAURICE", "city": "TROIS-RIVIERES", "province": "QC", "country": "CA", "postalCode": "G9A3P6", "twitter": "None", "instagram": "None", "facebook": "None", "youtube": "None", "website": "None", "summary": "None", "logo": "None", "latitude": 46.35223221547699, "longitude": -72.54602181491742}, "889455671RR0001": {"name": "EGLISE CORENNE SARANG DE MONTREAL", "designationCode": "C", "categoryCode": "37", "address": "2330 TERRASSE MERCURE", "city": "MONTREAL", "province": "QC", "country": "CA", "postalCode": "H2H1P1", "twitter": "None", "instagram": "None", "facebook": "None", "youtube": "None", "website": "None", "summary": "None", "logo": "None", "latitude": 45.53582944878533, "longitude": -73.56573750317399}}