{"888930542RR0001": {"name": "SYLVAN LAKE APOSTOLIC LUTHERAN CHURCH", "designationCode": "C", "categoryCode": "32", "address": "15 GARDEN CRT", "city": "SYLVAN LAKE", "province": "AB", "country": "CA", "postalCode": "T4S1M4", "twitter": "None", "instagram": "None", "facebook": "None", "youtube": "None", "website": "None", "summary": "None", "logo": "None", "latitude": 52.30101831502104, "longitude": -114.1042620094064}, "890570799RR0001": {"name": "SYLVAN LAKE CHRISTMAS BUREAU", "designationCode": "C", "categoryCode": "09", "address": "5104 47A AVE", "city": "SYLVAN LAKE", "province": "AB", "country": "CA", "postalCode": "T4S1G8", "twitter": "None", "instagram": "None", "facebook": "None", "youtube": "None", "website": "None", "summary": "None", "logo": "None", "latitude": 52.30562946768411, "longitude": -114.09982136081135}, "868590472RR0001": {"name": "SYLVAN LAKE COMMUNITY PARTNERS ASSOCIATION", "designationCode": "C", "categoryCode": "09", "address": "4936 50TH AVE", "city": "SYLVAN LAKE", "province": "AB", "country": "CA", "postalCode": "T4S1C9", "twitter": "None", "instagram": "None", "facebook": "None", "youtube": "None", "website": "None", "summary": "None", "logo": "None", "latitude": 52.308146314472765, "longitude": -114.09643553733622}, "872645122RR0001": {"name": "SYLVAN LAKE FOUNDATION", "designationCode": "C", "categoryCode": "09", "address": "BOX 100                       4620-47 AVENUE", "city": "SYLVAN LAKE", "province": "AB", "country": "CA", "postalCode": "T4S1N2", "twitter": "None", "instagram": "None", "facebook": "None", "youtube": "None", "website": "None", "summary": "None", "logo": "None", "latitude": 52.3047004538343, "longitude": -114.09173002553523}, "896616455RR0001": {"name": "SYLVAN LAKE FRONTLINE WORSHIP CENTRE", "designationCode": "C", "categoryCode": "39", "address": "P.O. BOX 9020 STN MAIN", "city": "SYLVAN LAKE", "province": "AB", "country": "CA", "postalCode": "T4S1S6", "twitter": "None", "instagram": "None", "facebook": "None", "youtube": "None", "website": "None", "summary": "None", "logo": "None", "latitude": 52.31122800000006, "longitude": -114.09405199999993}, "864123880RR0001": {"name": "SYLVAN LAKE GOSPEL CHAPEL PENTECOSTAL MINISTRIES", "designationCode": "C", "categoryCode": "36", "address": "4290 50 ST", "city": "SYLVAN LAKE", "province": "AB", "country": "CA", "postalCode": "T4S0H3", "twitter": "None", "instagram": "None", "facebook": "None", "youtube": "None", "website": "None", "summary": "None", "logo": "None", "latitude": 52.29776554631709, "longitude": -114.09726827145224}, "108058082RR0001": {"name": "SYLVAN LAKE LUTHERAN BIBLE CAMP ASSOCIATION", "designationCode": "C", "categoryCode": "56", "address": "5 - 39317 RANGE ROAD 24", "city": "LACOMBE COUNTY", "province": "AB", "country": "CA", "postalCode": "T4E2R7", "twitter": "None", "instagram": "None", "facebook": "None", "youtube": "None", "website": "None", "summary": "None", "logo": "None", "latitude": 52.369776, "longitude": -114.24155803851964}, "872241211RR0001": {"name": "SYLVAN LAKE SENIORS ASSOCIATION", "designationCode": "C", "categoryCode": "55", "address": "PO BOX 9058 STN MAIN", "city": "SYLVAN LAKE", "province": "AB", "country": "CA", "postalCode": "T4S1S6", "twitter": "None", "instagram": "None", "facebook": "None", "youtube": "None", "website": "None", "summary": "None", "logo": "None", "latitude": 52.31122800000006, "longitude": -114.09405199999993}, "106693047RR0003": {"name": "SYLVAN LAKE SEVENTH-DAY ADVENTIST CHURCH", "designationCode": "C", "categoryCode": "41", "address": "5816 HIGHWAY, 2A", "city": "LACOMBE", "province": "AB", "country": "CA", "postalCode": "T4L2G5", "twitter": "None", "instagram": "None", "facebook": "None", "youtube": "None", "website": "None", "summary": "None", "logo": "None", "latitude": 52.474063600197404, "longitude": -113.71692568401835}, "870025574RR0001": {"name": "SYLVAN MEADOWS ADVENTIST SCHOOL", "designationCode": "C", "categoryCode": "20", "address": "38424 RANGE ROAD 20", "city": "RED DEER COUNTY", "province": "AB", "country": "CA", "postalCode": "T4E2L6", "twitter": "None", "instagram": "None", "facebook": "None", "youtube": "None", "website": "None", "summary": "None", "logo": "None", "latitude": 52.29363416543518, "longitude": -114.14464716191752}, "889677647RR0001": {"name": "SYLVAN PASTORAL CHARGE", "designationCode": "C", "categoryCode": "44", "address": "985 SHAWNIGAN MILL BAY RD", "city": "MILL BAY", "province": "BC", "country": "CA", "postalCode": "V0R2P2", "twitter": "None", "instagram": "None", "facebook": "None", "youtube": "None", "website": "None", "summary": "None", "logo": "None", "latitude": 48.65757966663274, "longitude": -123.57036846266149}, "839565744RR0001": {"name": "SYLVIA JURIANSZ MEMORIAL FOUNDATION", "designationCode": "B", "categoryCode": "21", "address": "5700 YONGE STREET             SUITE 1100", "city": "TORONTO", "province": "ON", "country": "CA", "postalCode": "M2M4K2", "twitter": "None", "instagram": "None", "facebook": "None", "youtube": "None", "website": "None", "summary": "None", "logo": "None", "latitude": 43.78071895475794, "longitude": -79.41582800279862}, "883802985RR0001": {"name": "SYME-WOOLNER NEIGHBOURHOOD AND FAMILY CENTRE", "designationCode": "C", "categoryCode": "56", "address": "2468 EGLINGTON AVE WEST       UNIT 3", "city": "TORONTO", "province": "ON", "country": "CA", "postalCode": "M6M5E2", "twitter": "None", "instagram": "None", "facebook": "None", "youtube": "None", "website": "None", "summary": "None", "logo": "None", "latitude": 43.691737303941196, "longitude": -79.46805575313054}, "119207884RR0001": {"name": "SYMFONIA CHOIR OF HAMILTON", "designationCode": "C", "categoryCode": "22", "address": "1 SERENITY LANE", "city": "HANNON", "province": "ON", "country": "CA", "postalCode": "L0R1P0", "twitter": "None", "instagram": "None", "facebook": "None", "youtube": "None", "website": "None", "summary": "None", "logo": "None"}, "861660579RR0001": {"name": "SYMONS VALLEY FULL GOSPEL CHURCH", "designationCode": "C", "categoryCode": "39", "address": "PO BOX 6561 STN D", "city": "CALGARY", "province": "AB", "country": "CA", "postalCode": "T2P2E4", "twitter": "None", "instagram": "None", "facebook": "None", "youtube": "None", "website": "None", "summary": "None", "logo": "None", "latitude": 51.04531500000006, "longitude": -114.06301099999993}, "108058462RR0001": {"name": "SYMONS VALLEY UNITED CHURCH", "designationCode": "C", "categoryCode": "44", "address": "38 KINCORA RISE NW", "city": "CALGARY", "province": "AB", "country": "CA", "postalCode": "T3R0A3", "twitter": "None", "instagram": "None", "facebook": "None", "youtube": "None", "website": "None", "summary": "None", "logo": "None", "latitude": 51.162701762421364, "longitude": -114.13157541629654}, "885823534RR0001": {"name": "SYMPHOLIES VOCALES INC.", "designationCode": "C", "categoryCode": "22", "address": "3302, RUE LACORDAIRE", "city": "MONTR\u00c9AL", "province": "QC", "country": "CA", "postalCode": "H1N2N3", "twitter": "None", "instagram": "None", "facebook": "None", "youtube": "None", "website": "None", "summary": "None", "logo": "None", "latitude": 45.574435279473825, "longitude": -73.54728063295623}, "892006404RR0001": {"name": "SYMPHONY IN THE BARN", "designationCode": "C", "categoryCode": "22", "address": "RR #1                         393889 CONCESSION 2", "city": "DURHAM", "province": "ON", "country": "CA", "postalCode": "N0G1R0", "twitter": "None", "instagram": "None", "facebook": "None", "youtube": "None", "website": "None", "summary": "None", "logo": "None", "latitude": 44.20920400106554, "longitude": -80.79393687109224}, "892947763RR0001": {"name": "SYMPHONY NEW BRUNSWICK FOUNDATION INC./LA FONDATION SYMPHONIE NOUVEAU-BRUNSWICK INC.", "designationCode": "A", "categoryCode": "23", "address": "BRUNSWICK SQUARE, LEVEL 3     39 KING STREET", "city": "SAINT JOHN", "province": "NB", "country": "CA", "postalCode": "E2L4W3", "twitter": "None", "instagram": "None", "facebook": "None", "youtube": "None", "website": "None", "summary": "None", "logo": "None", "latitude": 45.27306008050087, "longitude": -66.06129006939226}, "119132447RR0001": {"name": "SYMPHONY NEW BRUNSWICK INC.", "designationCode": "C", "categoryCode": "22", "address": "BRUNSWICK SQUARE SHOPPING CTR 39 KING STREET LEVEL III", "city": "SAINT JOHN", "province": "NB", "country": "CA", "postalCode": "E2L4W3", "twitter": "None", "instagram": "None", "facebook": "None", "youtube": "None", "website": "None", "summary": "None", "logo": "None", "latitude": 45.27306008050087, "longitude": -66.06129006939226}, "890531791RR0001": {"name": "SYMPHONY NOVA SCOTIA FOUNDATION", "designationCode": "A", "categoryCode": "23", "address": "PO BOX 997", "city": "HALIFAX", "province": "NS", "country": "CA", "postalCode": "B3J2X2", "twitter": "None", "instagram": "None", "facebook": "None", "youtube": "None", "website": "None", "summary": "None", "logo": "None", "latitude": 44.645478000000054, "longitude": -63.576552499999934}, "119207900RR0001": {"name": "SYMPHONY NOVA SCOTIA SOCIETY", "designationCode": "C", "categoryCode": "22", "address": "BOX 218                       5657 SPRING GARDEN ROAD", "city": "HALIFAX", "province": "NS", "country": "CA", "postalCode": "B3J3R4", "twitter": "None", "instagram": "None", "facebook": "None", "youtube": "None", "website": "None", "summary": "None", "logo": "None", "latitude": 44.64263317294686, "longitude": -63.57850782405205}, "125118349RR0001": {"name": "SYMPHONY OF THE KOOTENAYS ASSOCIATION", "designationCode": "C", "categoryCode": "22", "address": "P O. BOX 512", "city": "CRANBROOK", "province": "BC", "country": "CA", "postalCode": "V1C4J1", "twitter": "None", "instagram": "None", "facebook": "None", "youtube": "None", "website": "None", "summary": "None", "logo": "None", "latitude": 49.513515000000055, "longitude": -115.76875399999994}, "868928938RR0001": {"name": "SYMPHONY ORCHESTRA OF CANADA", "designationCode": "C", "categoryCode": "22", "address": "1207 - 7825 BAYVIEW AVE", "city": "THORNHILL", "province": "ON", "country": "CA", "postalCode": "L3T7N2", "twitter": "None", "instagram": "None", "facebook": "None", "youtube": "None", "website": "None", "summary": "None", "logo": "None", "latitude": 43.82311707002721, "longitude": -79.40157093328996}, "107534729RR0001": {"name": "SYNAGOGUE AND JEWISH COMMUNITY CENTRE OF OTTAWA", "designationCode": "C", "categoryCode": "42", "address": "21 NADOLNY SACHS PRIVATE", "city": "OTTAWA", "province": "ON", "country": "CA", "postalCode": "K2A1R9", "twitter": "None", "instagram": "None", "facebook": "None", "youtube": "None", "website": "None", "summary": "None", "logo": "None", "latitude": 45.375832560101486, "longitude": -75.75231223766554}, "128378130RR0001": {"name": "SYNAGOGUE NETIVOT HAIM ISRAEL INC", "designationCode": "C", "categoryCode": "42", "address": "2485 RUE VALADE", "city": "ST-LAURENT", "province": "QC", "country": "CA", "postalCode": "H4M1T7", "twitter": "None", "instagram": "None", "facebook": "None", "youtube": "None", "website": "None", "summary": "None", "logo": "None", "latitude": 45.49761885235725, "longitude": -73.68715258148175}, "883810525RR0001": {"name": "SYNAGOGUE UN ARBRE DE VIE-OR MENACHEM / SYNAGOGUE ETZ HAIM-HI LAMACHAZIKIM BAH-OR MENACHEM", "designationCode": "C", "categoryCode": "42", "address": "4700 KENT AVENUE", "city": "MONTREAL", "province": "QC", "country": "CA", "postalCode": "H3W1H1", "twitter": "None", "instagram": "None", "facebook": "None", "youtube": "None", "website": "None", "summary": "None", "logo": "None", "latitude": 45.49574517762138, "longitude": -73.63770758546382}, "851840959RR0001": {"name": "SYNERGY HANDBELL CHOIR", "designationCode": "C", "categoryCode": "22", "address": "2998 CHRISTOPHER CR.", "city": "PRINCE GEORGE", "province": "BC", "country": "CA", "postalCode": "V2N4S4", "twitter": "None", "instagram": "None", "facebook": "None", "youtube": "None", "website": "None", "summary": "None", "logo": "None", "latitude": 53.89035065306712, "longitude": -122.79088704203943}, "128846391RR0001": {"name": "SYNOD OF ALBERTA,", "designationCode": "C", "categoryCode": "37", "address": "RR 3", "city": "ECKVILLE", "province": "AB", "country": "CA", "postalCode": "T0M0X0", "twitter": "None", "instagram": "None", "facebook": "None", "youtube": "None", "website": "None", "summary": "None", "logo": "None", "latitude": 52.359560000000045, "longitude": -114.36145999999997}, "119207959RR0001": {"name": "SYNOD OF BRITISH COLUMBIA,", "designationCode": "C", "categoryCode": "37", "address": "3486 FULTON RD", "city": "VICTORIA", "province": "BC", "country": "CA", "postalCode": "V9C3N2", "twitter": "None", "instagram": "None", "facebook": "None", "youtube": "None", "website": "None", "summary": "None", "logo": "None", "latitude": 48.41602055453289, "longitude": -123.51091050219304}, "108099789RR0001": {"name": "SYNOD OF CENTRAL, NORTHEASTERN ONTARIO AND BERMUDA", "designationCode": "C", "categoryCode": "37", "address": "709-671 WOOLWICH ST", "city": "GUELPH", "province": "ON", "country": "CA", "postalCode": "N1H3Y9", "twitter": "None", "instagram": "None", "facebook": "None", "youtube": "None", "website": "None", "summary": "None", "logo": "None", "latitude": 43.5596563630617, "longitude": -80.26994248788189}, "107020323RR0001": {"name": "SYNOD OF DIOCESE OF MOOSONEE", "designationCode": "C", "categoryCode": "30", "address": "113 3RD ST                    PO BOX 735", "city": "COCHRANE", "province": "ON", "country": "CA", "postalCode": "P0L1C0", "twitter": "None", "instagram": "None", "facebook": "None", "youtube": "None", "website": "None", "summary": "None", "logo": "None", "latitude": 49.0619844676841, "longitude": -81.0270908068267}, "893243469RR0001": {"name": "SYNOD OF SASKATCHEWAN", "designationCode": "C", "categoryCode": "37", "address": "1-2338 ASSINIBOINE AVENUE E", "city": "REGINA", "province": "SK", "country": "CA", "postalCode": "S4V2E9", "twitter": "None", "instagram": "None", "facebook": "None", "youtube": "None", "website": "None", "summary": "None", "logo": "None", "latitude": 50.42281779519861, "longitude": -104.55024557905851}, "108061441RR0001": {"name": "SYNOD OF THE DIOCESE OF EDMONTON", "designationCode": "C", "categoryCode": "30", "address": "10035 103 ST", "city": "EDMONTON", "province": "AB", "country": "CA", "postalCode": "T5J0X5", "twitter": "None", "instagram": "None", "facebook": "None", "youtube": "None", "website": "None", "summary": "None", "logo": "None", "latitude": 53.540019, "longitude": -113.49735679623781}, "129144549RR0001": {"name": "SYNOD OF THE DIOCESE OF KOOTENAY", "designationCode": "C", "categoryCode": "30", "address": "201 - 380 LEATHEAD ROAD", "city": "KELOWNA", "province": "BC", "country": "CA", "postalCode": "V1X2H8", "twitter": "None", "instagram": "None", "facebook": "None", "youtube": "None", "website": "None", "summary": "None", "logo": "None", "latitude": 49.89537349711448, "longitude": -119.39283}, "108061466RR0001": {"name": "SYNOD OF THE DIOCESE OF NEW WESTMINSTER", "designationCode": "C", "categoryCode": "30", "address": "1410 NANTON AVE", "city": "VANCOUVER", "province": "BC", "country": "CA", "postalCode": "V6H2E2", "twitter": "None", "instagram": "None", "facebook": "None", "youtube": "None", "website": "None", "summary": "None", "logo": "None", "latitude": 49.247329075864954, "longitude": -123.13708322274447}, "119208023RR0001": {"name": "SYNOD OF THE DIOCESE OF QU'APPELLE", "designationCode": "C", "categoryCode": "30", "address": "1501 COLLEGE AVE", "city": "REGINA", "province": "SK", "country": "CA", "postalCode": "S4P1B8", "twitter": "None", "instagram": "None", "facebook": "None", "youtube": "None", "website": "None", "summary": "None", "logo": "None", "latitude": 50.44068154284747, "longitude": -104.60194102553523}, "128841582RR0001": {"name": "SYNOD OF THE DIOCESE OF SASKATOON", "designationCode": "C", "categoryCode": "30", "address": "1403 9TH AVE N", "city": "SASKATOON", "province": "SK", "country": "CA", "postalCode": "S7K2Z6", "twitter": "None", "instagram": "None", "facebook": "None", "youtube": "None", "website": "None", "summary": "None", "logo": "None", "latitude": 52.14595191428364, "longitude": -106.64954096672149}, "119208031RR0002": {"name": "SYNOD OF THE DIOCESE OF YUKON", "designationCode": "C", "categoryCode": "30", "address": "SECRETARY/TREASURER           P.O. BOX 31136", "city": "WHITEHORSE", "province": "YT", "country": "CA", "postalCode": "Y1A5P7", "twitter": "None", "instagram": "None", "facebook": "None", "youtube": "None", "website": "None", "summary": "None", "logo": "None", "latitude": 60.72084600000005, "longitude": -135.05323399999992}, "119208049RR0001": {"name": "SYNTAX ARTS SOCIETY", "designationCode": "C", "categoryCode": "22", "address": "#2, 2220- 7 AVE.N.W.", "city": "CALGARY", "province": "AB", "country": "CA", "postalCode": "T2N0Z6", "twitter": "None", "instagram": "None", "facebook": "None", "youtube": "None", "website": "None", "summary": "None", "logo": "None", "latitude": 51.05917349321934, "longitude": -114.11170216763806}, "875303919RR0001": {"name": "SYRCA-SASKATCHEWAN YOUNG READERS' CHOICE-THE WILLOW AWARDS INC.", "designationCode": "C", "categoryCode": "21", "address": "304 POPLAR CRES", "city": "SASKATOON", "province": "SK", "country": "CA", "postalCode": "S7M0A6", "twitter": "None", "instagram": "None", "facebook": "None", "youtube": "None", "website": "None", "summary": "None", "logo": "None", "latitude": 52.115895807374976, "longitude": -106.67285642016301}, "119208064RR0001": {"name": "SYRINX CONCERTS TORONTO", "designationCode": "C", "categoryCode": "22", "address": "135 ARLINGTON AVENUE", "city": "TORONTO", "province": "ON", "country": "CA", "postalCode": "M6C2Y9", "twitter": "None", "instagram": "None", "facebook": "None", "youtube": "None", "website": "None", "summary": "None", "logo": "None", "latitude": 43.681579396618346, "longitude": -79.4290367376942}, "888784618RR0001": {"name": "SZE CHEUNG SHIU KING FOUNDATION", "designationCode": "B", "categoryCode": "03", "address": "1500 WEST GEORGIA SUITE 1250  BOX 62", "city": "VANCOUVER", "province": "BC", "country": "CA", "postalCode": "V6G2Z6", "twitter": "None", "instagram": "None", "facebook": "None", "youtube": "None", "website": "None", "summary": "None", "logo": "None", "latitude": 49.2900638104334, "longitude": -123.12989899362336}, "119208072RR0001": {"name": "SZECHENYI SOCIETY, INC.", "designationCode": "C", "categoryCode": "23", "address": "201 - 1715 LAKESHORE RD W", "city": "MISSISSAUGA", "province": "ON", "country": "CA", "postalCode": "L5J1J4", "twitter": "None", "instagram": "None", "facebook": "None", "youtube": "None", "website": "None", "summary": "None", "logo": "None", "latitude": 43.51943769977096, "longitude": -79.62075135814788}, "864826490RR0001": {"name": "SZOCS FOUNDATION", "designationCode": "B", "categoryCode": "21", "address": "PO BOX 10007                  LCD PACIFIC CENTRE", "city": "VAN", "province": "BC", "country": "CA", "postalCode": "V7Y1A1", "twitter": "None", "instagram": "None", "facebook": "None", "youtube": "None", "website": "None", "summary": "None", "logo": "None", "latitude": 49.28299000000004, "longitude": -123.11890999999997}, "899389712RR0001": {"name": "T & L NEUFELD TRUST", "designationCode": "B", "categoryCode": "05", "address": "320 PTH 12 N", "city": "STEINBACH", "province": "MB", "country": "CA", "postalCode": "R5G1T6", "twitter": "None", "instagram": "None", "facebook": "None", "youtube": "None", "website": "None", "summary": "None", "logo": "None", "latitude": 49.50690658562036, "longitude": -96.69137460772255}, "892442369RR0001": {"name": "T A S TUTORING-AID SOCIETY", "designationCode": "C", "categoryCode": "21", "address": "3325 4TH AVE W", "city": "VANCOUVER", "province": "BC", "country": "CA", "postalCode": "V6R1N6", "twitter": "None", "instagram": "None", "facebook": "None", "youtube": "None", "website": "None", "summary": "None", "logo": "None", "latitude": 49.268587746681604, "longitude": -123.17821504391652}, "867253460RR0001": {"name": "T D BAKER (1996) PARENT ADVISORY ASSOCIATION", "designationCode": "C", "categoryCode": "21", "address": "1750 MILLWOODS ROAD EAST", "city": "EDMONTON", "province": "AB", "country": "CA", "postalCode": "T6L5C5", "twitter": "None", "instagram": "None", "facebook": "None", "youtube": "None", "website": "None", "summary": "None", "logo": "None", "latitude": 53.44818654478072, "longitude": -113.40483642137417}, "119208940RR0001": {"name": "T D H CANADA INC", "designationCode": "C", "categoryCode": "11", "address": "2520 LIONEL GROULX, SUITE 5", "city": "MONTREAL", "province": "QC", "country": "CA", "postalCode": "H3J1J8", "twitter": "None", "instagram": "None", "facebook": "None", "youtube": "None", "website": "None", "summary": "None", "logo": "None", "latitude": 45.484168883143916, "longitude": -73.5771951942698}, "889874970RR0001": {"name": "T E A D EQUESTRIAN ASSOCIATION FOR THE DISABLED", "designationCode": "C", "categoryCode": "56", "address": "8360 LEEMING RD. EAST         R.R.#3", "city": "MOUNT HOPE", "province": "ON", "country": "CA", "postalCode": "L0R1W0", "twitter": "None", "instagram": "None", "facebook": "None", "youtube": "None", "website": "None", "summary": "None", "logo": "None", "latitude": 43.12009205637923, "longitude": -79.92191572840338}, "888541042RR0001": {"name": "T N T CHRISTIAN TRUST FUND", "designationCode": "B", "categoryCode": "49", "address": "2 WOODSEND CRES", "city": "AURORA", "province": "ON", "country": "CA", "postalCode": "L4G6W6", "twitter": "None", "instagram": "None", "facebook": "None", "youtube": "None", "website": "None", "summary": "None", "logo": "None", "latitude": 43.97286441661366, "longitude": -79.44459004599187}, "119265544RR0001": {"name": "T O PETERSON SCHOLARSHIP FUND", "designationCode": "B", "categoryCode": "21", "address": "447 PORTAGE AVENUE            INVESTORS GROUP TRUST CO. LTD.", "city": "WINNIPEG", "province": "MB", "country": "CA", "postalCode": "R3C3B6", "twitter": "None", "instagram": "None", "facebook": "None", "youtube": "None", "website": "None", "summary": "None", "logo": "None", "latitude": 49.899525000000054, "longitude": -97.14112999999993}, "872728357RR0001": {"name": "T.A.P.P. (THE ANTIPOVERTY PROJECT)", "designationCode": "C", "categoryCode": "09", "address": "SAINT PAUL UNIVERSITY         279 - 223 MAIN STREET", "city": "OTTAWA", "province": "ON", "country": "CA", "postalCode": "K1S1C4", "twitter": "None", "instagram": "None", "facebook": "None", "youtube": "None", "website": "None", "summary": "None", "logo": "None", "latitude": 45.40836002611218, "longitude": -75.67755992498175}, "135244234RR0001": {"name": "T.BUCK SUZUKI ENVIRONMENTAL FOUNDATION", "designationCode": "C", "categoryCode": "21", "address": "100-326 12TH STREET", "city": "NEW WESTMINSTER", "province": "BC", "country": "CA", "postalCode": "V3M4H6", "twitter": "None", "instagram": "None", "facebook": "None", "youtube": "None", "website": "None", "summary": "None", "logo": "None", "latitude": 49.2035036258298, "longitude": -122.92542247717648}, "865767008RR0001": {"name": "T.D. JAKES MINISTRIES - CANADA", "designationCode": "C", "categoryCode": "39", "address": "201-33140 MILL LAKE ROAD", "city": "ABBOTSFORD", "province": "BC", "country": "CA", "postalCode": "V2S2A5", "twitter": "None", "instagram": "None", "facebook": "None", "youtube": "None", "website": "None", "summary": "None", "logo": "None", "latitude": 49.04963061336497, "longitude": -122.3059362712795}, "828910356RR0001": {"name": "T.E.A.C.H. Telling Everyone About Christ Heritage Ministries", "designationCode": "C", "categoryCode": "39", "address": "131 BUTTON RD", "city": "WOODBRIDGE", "province": "ON", "country": "CA", "postalCode": "L4L1J9", "twitter": "None", "instagram": "None", "facebook": "None", "youtube": "None", "website": "None", "summary": "None", "logo": "None", "latitude": 43.777300842056796, "longitude": -79.60621798666979}, "816131585RR0001": {"name": "T.E.A.M. (Together Everyone Achieves More) Foundation", "designationCode": "C", "categoryCode": "09", "address": "1250-1500 WEST GEORGIA ST     BOX 62", "city": "VANCOUVER", "province": "BC", "country": "CA", "postalCode": "V6G2Z6", "twitter": "None", "instagram": "None", "facebook": "None", "youtube": "None", "website": "None", "summary": "None", "logo": "None", "latitude": 49.290187500000016, "longitude": -123.130035}, "871100244RR0001": {"name": "T.I.C.K. Inc. (Teaching Intelligent Choices To Kids)", "designationCode": "C", "categoryCode": "57", "address": "20 RIVERVIEW DRIVE", "city": "BRANTFORD", "province": "ON", "country": "CA", "postalCode": "N3T5A7", "twitter": "None", "instagram": "None", "facebook": "None", "youtube": "None", "website": "None", "summary": "None", "logo": "None", "latitude": 43.15426764888351, "longitude": -80.28937621412088}, "825012545RR0001": {"name": "T.J. RICE FAMILY FOUNDATION, INC.", "designationCode": "B", "categoryCode": "03", "address": "1325 KENASTON BLVD", "city": "WINNIPEG", "province": "MB", "country": "CA", "postalCode": "R3P2P2", "twitter": "None", "instagram": "None", "facebook": "None", "youtube": "None", "website": "None", "summary": "None", "logo": "None", "latitude": 49.831541035807014, "longitude": -97.20987432096403}, "842008278RR0001": {"name": "T.J.E.E. - THE JEWISH EDUCATIONAL EXPERIENCE", "designationCode": "C", "categoryCode": "49", "address": "4600 BATHURST STREET          LIPA GREEN BUILDING, 4TH FLR", "city": "NORTH YORK", "province": "ON", "country": "CA", "postalCode": "M2R3V2", "twitter": "None", "instagram": "None", "facebook": "None", "youtube": "None", "website": "None", "summary": "None", "logo": "None", "latitude": 43.76395500000005, "longitude": -79.44059149999994}, "894506245RR0001": {"name": "T.L.C. ANIMAL AID", "designationCode": "C", "categoryCode": "54", "address": "831 EASTLAWN AVE", "city": "WINDSOR", "province": "ON", "country": "CA", "postalCode": "N8S3H6", "twitter": "None", "instagram": "None", "facebook": "None", "youtube": "None", "website": "None", "summary": "None", "logo": "None", "latitude": 42.33188513543776, "longitude": -82.94703974037725}, "893413971RR0001": {"name": "T.L.C. ANIMAL SHELTER", "designationCode": "C", "categoryCode": "54", "address": "PO BOX 1601", "city": "DIGBY", "province": "NS", "country": "CA", "postalCode": "B0V1A0", "twitter": "None", "instagram": "None", "facebook": "None", "youtube": "None", "website": "None", "summary": "None", "logo": "None", "latitude": 44.39616000000005, "longitude": -66.20374249999993}, "107869075RR0001": {"name": "T.L.C. GLOBAL MISSIONS", "designationCode": "C", "categoryCode": "47", "address": "P.O. BOX 4248", "city": "QUESNEL", "province": "BC", "country": "CA", "postalCode": "V2J3J3", "twitter": "None", "instagram": "None", "facebook": "None", "youtube": "None", "website": "None", "summary": "None", "logo": "None", "latitude": 52.978128000000055, "longitude": -122.49828349999993}, "119272714RR0001": {"name": "T.M.S.S. SCHOLARSHIP FUND INC.", "designationCode": "C", "categoryCode": "21", "address": "PO BOX 1000", "city": "TISDALE", "province": "SK", "country": "CA", "postalCode": "S0E1T0", "twitter": "None", "instagram": "None", "facebook": "None", "youtube": "None", "website": "None", "summary": "None", "logo": "None", "latitude": 52.84785000000005, "longitude": -104.04749999999996}, "767807126RR0001": {"name": "T.O.P. Foundation", "designationCode": "B", "categoryCode": "03", "address": "RBC PLAZA SOUTH TOWER         2305 - 200 BAY ST", "city": "TORONTO", "province": "ON", "country": "CA", "postalCode": "M5J2J1", "twitter": "None", "instagram": "None", "facebook": "None", "youtube": "None", "website": "None", "summary": "None", "logo": "None", "latitude": 43.64635885622373, "longitude": -79.37932458843532}, "119243608RR0001": {"name": "T.R. Meighen Family Foundation/Fondation de la Famille T.R. Meighen", "designationCode": "B", "categoryCode": "03", "address": "600 - 77 BLOOR ST W", "city": "TORONTO", "province": "ON", "country": "CA", "postalCode": "M5S1M2", "twitter": "None", "instagram": "None", "facebook": "None", "youtube": "None", "website": "None", "summary": "None", "logo": "None", "latitude": 43.667372648743196, "longitude": -79.40049643191246}, "886299593RR0001": {"name": "T.R.E.E. FOUNDATION FOR TRAINING AND DEVELOPMENT / FONDATIONPOUR LA FORMATION ET LE D\u00c9VELOPPEMENT T.R.E.E.", "designationCode": "A", "categoryCode": "09", "address": "810-5250 RUE FERRIER", "city": "MONTR\u00c9AL", "province": "QC", "country": "CA", "postalCode": "H4P1L4", "twitter": "None", "instagram": "None", "facebook": "None", "youtube": "None", "website": "None", "summary": "None", "logo": "None", "latitude": 45.49819035913793, "longitude": -73.65688247778299}, "141478925RR0001": {"name": "T.R.O.P. TRAVAIL DE REFLEXION POUR DES ONDES PACIFIQUES/P.E.A.C.E. POSITIVE ENTERTAINMENT ALTERNATIVES FOR CHILDREN EVERYWHERE", "designationCode": "C", "categoryCode": "21", "address": "1855, RUE DEZERY", "city": "MONTREAL", "province": "QC", "country": "CA", "postalCode": "H1W2S1", "twitter": "None", "instagram": "None", "facebook": "None", "youtube": "None", "website": "None", "summary": "None", "logo": "None", "latitude": 45.54083391759462, "longitude": -73.5465556898264}, "850543448RR0001": {"name": "T\u00e9l\u00e9-Universit\u00e9", "designationCode": "C", "categoryCode": "20", "address": "455 RUE DU PARVIS", "city": "QU\u00c9BEC", "province": "QC", "country": "CA", "postalCode": "G1K9H6", "twitter": "None", "instagram": "None", "facebook": "None", "youtube": "None", "website": "None", "summary": "None", "logo": "None", "latitude": 46.81325202221699, "longitude": -71.22253542238472}, "801763566RR0001": {"name": "T-GEAR FOUNDATION", "designationCode": "B", "categoryCode": "05", "address": "14 - 9731 CAPELLA DR", "city": "RICHMOND", "province": "BC", "country": "CA", "postalCode": "V6X3R1", "twitter": "None", "instagram": "None", "facebook": "None", "youtube": "None", "website": "None", "summary": "None", "logo": "None", "latitude": 49.18850343037524, "longitude": -123.1164042637503}, "843180159RR0001": {"name": "T\u00c9LIO FOUNDATION / FONDATION T\u00c9LIO", "designationCode": "B", "categoryCode": "03", "address": "625, RUE DESLAURIERS", "city": "MONTR\u00c9AL", "province": "QC", "country": "CA", "postalCode": "H4N1W8", "twitter": "None", "instagram": "None", "facebook": "None", "youtube": "None", "website": "None", "summary": "None", "logo": "None", "latitude": 45.52569252264969, "longitude": -73.66570276155505}, "803862481RR0001": {"name": "T'Ruah Canada", "designationCode": "C", "categoryCode": "59", "address": "50 CHARLES STREET EAST        P.O. BOX 1002", "city": "TORONTO", "province": "ON", "country": "CA", "postalCode": "M4Y2T7", "twitter": "None", "instagram": "None", "facebook": "None", "youtube": "None", "website": "None", "summary": "None", "logo": "None", "latitude": 43.66919317294685, "longitude": -79.38357610534354}, "853166734RR0001": {"name": "Ta Zone Jeunesse", "designationCode": "C", "categoryCode": "56", "address": "8931, AVENUE PAPINEAU", "city": "MONTR\u00c9AL", "province": "QC", "country": "CA", "postalCode": "H2M0A5", "twitter": "None", "instagram": "None", "facebook": "None", "youtube": "None", "website": "None", "summary": "None", "logo": "None", "latitude": 45.560239323071116, "longitude": -73.63462253843272}, "819624701RR0001": {"name": "Taam-Ul-Miskin - Help the Poor - Canada Taam-Ul-Miskin - Aider les pauvres - Canada", "designationCode": "C", "categoryCode": "09", "address": "3381 PIPER RD", "city": "VICTORIA", "province": "BC", "country": "CA", "postalCode": "V9C0G9", "twitter": "None", "instagram": "None", "facebook": "None", "youtube": "None", "website": "None", "summary": "None", "logo": "None", "latitude": 48.42705945033743, "longitude": -123.53421927372297}, "856886650RR0001": {"name": "Taber Society for Christian Education Ltd.", "designationCode": "C", "categoryCode": "20", "address": "4809-60TH AVENUE", "city": "TABER", "province": "AB", "country": "CA", "postalCode": "T1G1E9", "twitter": "None", "instagram": "None", "facebook": "None", "youtube": "None", "website": "None", "summary": "None", "logo": "None", "latitude": 49.79639050375092, "longitude": -112.1528205}, "892712993RR0001": {"name": "Tabern\u00e0culo Bautista Nueva Jerusal\u00e9n", "designationCode": "C", "categoryCode": "39", "address": "1850 GLASGOW ST", "city": "KITCHENER", "province": "ON", "country": "CA", "postalCode": "N2N0A7", "twitter": "None", "instagram": "None", "facebook": "None", "youtube": "None", "website": "None", "summary": "None", "logo": "None", "latitude": 43.42315069660708, "longitude": -80.55840476051678}, "829096353RR0001": {"name": "Tabernacle des chr\u00e9tiens du dernier \u00e2ge", "designationCode": "C", "categoryCode": "39", "address": "8725 10E AV", "city": "MONTREAL", "province": "QC", "country": "CA", "postalCode": "H1Z3B9", "twitter": "None", "instagram": "None", "facebook": "None", "youtube": "None", "website": "None", "summary": "None", "logo": "None", "latitude": 45.56831628310917, "longitude": -73.62169237800804}, "833708100RR0001": {"name": "Tabernacle of Faith", "designationCode": "C", "categoryCode": "39", "address": "37 ELGIN ST W", "city": "OSHAWA", "province": "ON", "country": "CA", "postalCode": "L1G1S3", "twitter": "None", "instagram": "None", "facebook": "None", "youtube": "None", "website": "None", "summary": "None", "logo": "None", "latitude": 43.90223776213292, "longitude": -78.86730550790585}, "846739514RR0001": {"name": "Tabernacle of God Worship Ministry", "designationCode": "C", "categoryCode": "39", "address": "1015 JALNA BLVD", "city": "LONDON", "province": "ON", "country": "CA", "postalCode": "N6E2R2", "twitter": "None", "instagram": "None", "facebook": "None", "youtube": "None", "website": "None", "summary": "None", "logo": "None", "latitude": 42.940096397714875, "longitude": -81.23001349099762}, "772039129RR0001": {"name": "Tabernacle Baptist Church Inc.", "designationCode": "C", "categoryCode": "31", "address": "70 VEY RD", "city": "SAINT JOHN", "province": "NB", "country": "CA", "postalCode": "E2N1J1", "twitter": "None", "instagram": "None", "facebook": "None", "youtube": "None", "website": "None", "summary": "None", "logo": "None", "latitude": 45.31843605107044, "longitude": -65.95703462585846}, "804540631RR0001": {"name": "Tabernaculo de Vida Society", "designationCode": "C", "categoryCode": "39", "address": "12197 95A AVE", "city": "SURREY", "province": "BC", "country": "CA", "postalCode": "V3V1P7", "twitter": "None", "instagram": "None", "facebook": "None", "youtube": "None", "website": "None", "summary": "None", "logo": "None", "latitude": 49.17628245657562, "longitude": -122.88489236081135}, "853241040RR0001": {"name": "Tabernaculo Aposento Alto", "designationCode": "C", "categoryCode": "39", "address": "77 TINDALE COURT              UNIT 9", "city": "HAMILTON", "province": "ON", "country": "CA", "postalCode": "L8K6C9", "twitter": "None", "instagram": "None", "facebook": "None", "youtube": "None", "website": "None", "summary": "None", "logo": "None", "latitude": 43.21425550845413, "longitude": -79.78415712678208}, "138945506RR0002": {"name": "Table de Concertation Jeunesse de Chute-aux-Outardes inc.", "designationCode": "C", "categoryCode": "09", "address": "C.P. 2022", "city": "CHUTE AUX OUTARDES", "province": "QC", "country": "CA", "postalCode": "G0H1C0", "twitter": "None", "instagram": "None", "facebook": "None", "youtube": "None", "website": "None", "summary": "None", "logo": "None", "latitude": 49.12989994388064, "longitude": -68.39672002553516}, "853170314RR0001": {"name": "Table de Quartier L'Engrenage de Saint-Roch", "designationCode": "C", "categoryCode": "09", "address": "435, RUE DU ROI               BUREAUX 6 ET 8", "city": "QU\u00c9BEC", "province": "QC", "country": "CA", "postalCode": "G1K2X1", "twitter": "None", "instagram": "None", "facebook": "None", "youtube": "None", "website": "None", "summary": "None", "logo": "None", "latitude": 46.815010166801336, "longitude": -71.22461457132555}, "854954906RR0001": {"name": "Table itin\u00e9rance Rive-Sud", "designationCode": "C", "categoryCode": "09", "address": "885, RUE SAINTE-H\u00c9L\u00c8NE", "city": "LONGUEUIL", "province": "QC", "country": "CA", "postalCode": "J4K3R7", "twitter": "None", "instagram": "None", "facebook": "None", "youtube": "None", "website": "None", "summary": "None", "logo": "None", "latitude": 45.520640862629016, "longitude": -73.50720181167415}, "820985000RR0001": {"name": "Tadd N.B. Inc.", "designationCode": "C", "categoryCode": "59", "address": "31 ASHTON CRT", "city": "FREDERICTON", "province": "NB", "country": "CA", "postalCode": "E3C0H8", "twitter": "None", "instagram": "None", "facebook": "None", "youtube": "None", "website": "None", "summary": "None", "logo": "None", "latitude": 45.94383469551055, "longitude": -66.69637285065514}, "119288918RR1548": {"name": "Tagalog Central Congregation of Jehovah's Witnesses, Montreal, Quebec", "designationCode": "C", "categoryCode": "61", "address": "6262 BIERMANS AVENUE", "city": "MONTREAL", "province": "QC", "country": "CA", "postalCode": "H3X1Z1", "twitter": "None", "instagram": "None", "facebook": "None", "youtube": "None", "website": "None", "summary": "None", "logo": "None", "latitude": 45.471641606151614, "longitude": -73.63686603246012}, "119288918RR1645": {"name": "Tagalog Circuit 1A of Jehovah's Witnesses", "designationCode": "C", "categoryCode": "61", "address": "64 ANAHEIM CRES NE", "city": "CALGARY", "province": "AB", "country": "CA", "postalCode": "T1Y7B8", "twitter": "None", "instagram": "None", "facebook": "None", "youtube": "None", "website": "None", "summary": "None", "logo": "None", "latitude": 51.084850002221714, "longitude": -113.92478860534354}, "119288918RR1493": {"name": "Tagalog Circuit 1B of Jehovah's Witnesses", "designationCode": "C", "categoryCode": "61", "address": "12250-82 AVENUE", "city": "SURREY", "province": "BC", "country": "CA", "postalCode": "V3W3E3", "twitter": "None", "instagram": "None", "facebook": "None", "youtube": "None", "website": "None", "summary": "None", "logo": "None", "latitude": 49.15213049235397, "longitude": -122.88343388926077}, "119288918RR1708": {"name": "Tagalog Circuit 1C of Jehovah's Witnesses", "designationCode": "C", "categoryCode": "61", "address": "925 WILLIAM AVE", "city": "WINNIPEG", "province": "MB", "country": "CA", "postalCode": "R3E0Z7", "twitter": "None", "instagram": "None", "facebook": "None", "youtube": "None", "website": "None", "summary": "None", "logo": "None", "latitude": 49.90781190648611, "longitude": -97.1668812167466}, "119288918RR1722": {"name": "Tagalog Circuit 2A of Jehovah's Witnesses", "designationCode": "C", "categoryCode": "61", "address": "114 CAMERON AVE", "city": "YORK", "province": "ON", "country": "CA", "postalCode": "M6M1R3", "twitter": "None", "instagram": "None", "facebook": "None", "youtube": "None", "website": "None", "summary": "None", "logo": "None", "latitude": 43.690319139621344, "longitude": -79.4697767647873}, "119288918RR1470": {"name": "Tagalog Circuit 2B of Jehovah's Witnesses", "designationCode": "C", "categoryCode": "61", "address": "2425 BOUL DE LA COTE-VERTU    APP 101", "city": "SAINT-LAURENT", "province": "QC", "country": "CA", "postalCode": "H4R1P3", "twitter": "None", "instagram": "None", "facebook": "None", "youtube": "None", "website": "None", "summary": "None", "logo": "None", "latitude": 45.50372912934955, "longitude": -73.69620035264569}, "119288918RR1719": {"name": "Tagalog Circuit 2C of Jehovah's Witnesses", "designationCode": "C", "categoryCode": "61", "address": "925 WILLIAM AVE", "city": "WINNIPEG", "province": "MB", "country": "CA", "postalCode": "R3E0Z7", "twitter": "None", "instagram": "None", "facebook": "None", "youtube": "None", "website": "None", "summary": "None", "logo": "None", "latitude": 49.90781190648611, "longitude": -97.1668812167466}, "119288918RR1566": {"name": "Tagalog Congregation of Jehovah's Witnesses, Mississauga, Ontario", "designationCode": "C", "categoryCode": "61", "address": "4351 DIXIE ROAD", "city": "MISSISSAUGA", "province": "ON", "country": "CA", "postalCode": "L4W1M9", "twitter": "None", "instagram": "None", "facebook": "None", "youtube": "None", "website": "None", "summary": "None", "logo": "None", "latitude": 43.62960737027508, "longitude": -79.61219583856568}, "119288918RR1529": {"name": "Tagalog Congregation of Jehovah's Witnesses, Victoria, British Columbia", "designationCode": "C", "categoryCode": "61", "address": "3067 TILLICUM ROAD", "city": "VICTORIA", "province": "BC", "country": "CA", "postalCode": "V9A2B2", "twitter": "None", "instagram": "None", "facebook": "None", "youtube": "None", "website": "None", "summary": "None", "logo": "None", "latitude": 48.45126940631321, "longitude": -123.3964516616368}, "119288918RR1432": {"name": "Tagalog East Congregation of Jehovah's Witnesses, Surrey, British Columbia", "designationCode": "C", "categoryCode": "61", "address": "10446-157TH AVENUE", "city": "SURREY", "province": "BC", "country": "CA", "postalCode": "V4N2H7", "twitter": "None", "instagram": "None", "facebook": "None", "youtube": "None", "website": "None", "summary": "None", "logo": "None", "latitude": 49.192325832361945, "longitude": -122.78688192226915}, "119288918RR1611": {"name": "Tagalog North Congregation of Jehovah's Witnesses, Edmonton, Alberta", "designationCode": "C", "categoryCode": "61", "address": "5003 162 AVENUE NORTHWEST", "city": "EDMONTON", "province": "AB", "country": "CA", "postalCode": "T5Y3K2", "twitter": "None", "instagram": "None", "facebook": "None", "youtube": "None", "website": "None", "summary": "None", "logo": "None", "latitude": 53.62226947928356, "longitude": -113.41482220987903}, "119288918RR1451": {"name": "Tagalog North Congregation of Jehovah's Witnesses, Montreal, Quebec", "designationCode": "C", "categoryCode": "61", "address": "2400 WARD STREET", "city": "SAINT-LAURENT", "province": "QC", "country": "CA", "postalCode": "H4M2Y3", "twitter": "None", "instagram": "None", "facebook": "None", "youtube": "None", "website": "None", "summary": "None", "logo": "None", "latitude": 45.49627816928284, "longitude": -73.68206098012027}, "119288918RR1519": {"name": "Tagalog North Congregation of Jehovah's Witnesses, Toronto, Ontario", "designationCode": "C", "categoryCode": "61", "address": "77 CHAMPAGNE DR", "city": "NORTH YORK", "province": "ON", "country": "CA", "postalCode": "M3J2C6", "twitter": "None", "instagram": "None", "facebook": "None", "youtube": "None", "website": "None", "summary": "None", "logo": "None", "latitude": 43.76610834999131, "longitude": -79.4708426732649}, "119288918RR1698": {"name": "Tagalog South Congregation of Jehovah's Witnesses, Edmonton, Alberta", "designationCode": "C", "categoryCode": "61", "address": "11030 19 AVENUE NW", "city": "EDMONTON", "province": "AB", "country": "CA", "postalCode": "T6J6P5", "twitter": "None", "instagram": "None", "facebook": "None", "youtube": "None", "website": "None", "summary": "None", "logo": "None", "latitude": 53.44880546436588, "longitude": -113.51447019317328}}