{"118843622RR0001": {"name": "TENTH AVENUE BIBLE CHAPEL", "designationCode": "C", "categoryCode": "39", "address": "7103 TENTH AVE", "city": "BURNABY", "province": "BC", "country": "CA", "postalCode": "V3N2R5", "twitter": "None", "instagram": "None", "facebook": "None", "youtube": "None", "website": "None", "summary": "None", "logo": "None", "latitude": 49.207933834059986, "longitude": -122.94794841108275}, "864643598RR0001": {"name": "TERESINA LARIZZA CHARITIES FOUNDATION", "designationCode": "C", "categoryCode": "03", "address": "7222 CLAYTON WALK             UNIT #27", "city": "LONDON", "province": "ON", "country": "CA", "postalCode": "N6P1W1", "twitter": "None", "instagram": "None", "facebook": "None", "youtube": "None", "website": "None", "summary": "None", "logo": "None", "latitude": 42.918652004731875, "longitude": -81.32112799362336}, "861012268RR0001": {"name": "TERRA CATS INC.", "designationCode": "C", "categoryCode": "54", "address": "BOX 48, GRP.5 RR1", "city": "EAST SELKIRK", "province": "MB", "country": "CA", "postalCode": "R0E0M0", "twitter": "None", "instagram": "None", "facebook": "None", "youtube": "None", "website": "None", "summary": "None", "logo": "None", "latitude": 50.582348999999994, "longitude": -96.58096875000001}, "119210417RR0001": {"name": "TERRA CENTRE FOR TEEN PARENTS", "designationCode": "C", "categoryCode": "09", "address": "9930 106TH ST.NW", "city": "EDMONTON", "province": "AB", "country": "CA", "postalCode": "T5K1C7", "twitter": "None", "instagram": "None", "facebook": "None", "youtube": "None", "website": "None", "summary": "None", "logo": "None", "latitude": 53.538093, "longitude": -113.50299626925936}, "119210474RR0001": {"name": "TERRACE & DISTRICT CHRISTIAN COUNCIL FOR SOCIAL RESOURCES", "designationCode": "C", "categoryCode": "09", "address": "4734 PARK AVE", "city": "TERRACE", "province": "BC", "country": "CA", "postalCode": "V8G1W1", "twitter": "None", "instagram": "None", "facebook": "None", "youtube": "None", "website": "None", "summary": "None", "logo": "None", "latitude": 54.518715489901105, "longitude": -128.59740152983437}, "108068727RR0001": {"name": "TERRACE & DISTRICT COMMUNITY SERVICES SOCIETY", "designationCode": "C", "categoryCode": "09", "address": "#100 3219 EBY ST", "city": "TERRACE", "province": "BC", "country": "CA", "postalCode": "V8G4R3", "twitter": "None", "instagram": "None", "facebook": "None", "youtube": "None", "website": "None", "summary": "None", "logo": "None", "latitude": 54.51815800582838, "longitude": -128.59905721565008}, "108068644RR0001": {"name": "TERRACE BAY COMMUNITY CHURCH", "designationCode": "C", "categoryCode": "44", "address": "PO BOX 387", "city": "TERRACE BAY", "province": "ON", "country": "CA", "postalCode": "P0T2W0", "twitter": "None", "instagram": "None", "facebook": "None", "youtube": "None", "website": "None", "summary": "None", "logo": "None", "latitude": 48.78484787609647, "longitude": -87.09353960951205}, "108068651RR0001": {"name": "TERRACE BAY GOSPEL ASSEMBLY", "designationCode": "C", "categoryCode": "36", "address": "BOX 298", "city": "TERRACE BAY", "province": "ON", "country": "CA", "postalCode": "P0T2W0", "twitter": "None", "instagram": "None", "facebook": "None", "youtube": "None", "website": "None", "summary": "None", "logo": "None", "latitude": 48.78334000000007, "longitude": -87.09789999999998}, "119210441RR0001": {"name": "TERRACE CALVIN CHRISTIAN SCHOOL SOCIETY,", "designationCode": "C", "categoryCode": "20", "address": "3608 SPARKS STREET", "city": "TERRACE", "province": "BC", "country": "CA", "postalCode": "V8G2V6", "twitter": "None", "instagram": "None", "facebook": "None", "youtube": "None", "website": "None", "summary": "None", "logo": "None", "latitude": 54.5249979298676, "longitude": -128.59246249264345}, "119210458RR0001": {"name": "TERRACE CHILD DEVELOPMENT CENTRE SOCIETY", "designationCode": "C", "categoryCode": "11", "address": "2510 S EBY STR.", "city": "TERRACE", "province": "BC", "country": "CA", "postalCode": "V8G2X3", "twitter": "None", "instagram": "None", "facebook": "None", "youtube": "None", "website": "None", "summary": "None", "logo": "None", "latitude": 54.50686113044608, "longitude": -128.59934280873128}, "119210466RR0001": {"name": "TERRACE CHRISTIAN REFORMED CHURCH,", "designationCode": "C", "categoryCode": "39", "address": "3602 SPARKS ST", "city": "TERRACE", "province": "BC", "country": "CA", "postalCode": "V8G2V6", "twitter": "None", "instagram": "None", "facebook": "None", "youtube": "None", "website": "None", "summary": "None", "logo": "None", "latitude": 54.52465438190316, "longitude": -128.59248572649972}, "824487128RR0001": {"name": "TERRACE CHURCH OF GOD", "designationCode": "C", "categoryCode": "39", "address": "3341 RIVER DRIVE", "city": "TERRACE", "province": "BC", "country": "CA", "postalCode": "V8G3P2", "twitter": "None", "instagram": "None", "facebook": "None", "youtube": "None", "website": "None", "summary": "None", "logo": "None", "latitude": 54.51837652885385, "longitude": -128.5397535182808}, "119288918RR0764": {"name": "TERRACE CONGREGATION OF JEHOVAH'S WITNESSES, BRITISH COLUMBIA", "designationCode": "C", "categoryCode": "61", "address": "4521 GRAHAM AVENUE", "city": "TERRACE", "province": "BC", "country": "CA", "postalCode": "V8G1A2", "twitter": "None", "instagram": "None", "facebook": "None", "youtube": "None", "website": "None", "summary": "None", "logo": "None", "latitude": 54.50585452510254, "longitude": -128.5839324834385}, "132254129RR0001": {"name": "TERRACE EVANGELICAL FREE CHURCH", "designationCode": "C", "categoryCode": "39", "address": "4640 PARK AVE", "city": "TERRACE", "province": "BC", "country": "CA", "postalCode": "V8G1V7", "twitter": "None", "instagram": "None", "facebook": "None", "youtube": "None", "website": "None", "summary": "None", "logo": "None", "latitude": 54.51843347994645, "longitude": -128.59152343724415}, "890949399RR0001": {"name": "TERRACE HOSPICE SOCIETY", "designationCode": "C", "categoryCode": "11", "address": "207 - 4650 LAZELLE AVE", "city": "TERRACE", "province": "BC", "country": "CA", "postalCode": "V8G1S6", "twitter": "None", "instagram": "None", "facebook": "None", "youtube": "None", "website": "None", "summary": "None", "logo": "None", "latitude": 54.5176792965351, "longitude": -128.59087839818292}, "119210524RR0001": {"name": "TERRACE LITTLE THEATRE SOCIETY", "designationCode": "C", "categoryCode": "22", "address": "3625 KALUM", "city": "TERRACE", "province": "BC", "country": "CA", "postalCode": "V8G2P4", "twitter": "None", "instagram": "None", "facebook": "None", "youtube": "None", "website": "None", "summary": "None", "logo": "None", "latitude": 54.52542970191587, "longitude": -128.58639023397194}, "119210532RR0001": {"name": "TERRACE LODGE AUXILIARY", "designationCode": "C", "categoryCode": "01", "address": "475 TALBOT STREET EAST", "city": "AYLMER", "province": "ON", "country": "CA", "postalCode": "N5H3A5", "twitter": "None", "instagram": "None", "facebook": "None", "youtube": "None", "website": "None", "summary": "None", "logo": "None", "latitude": 42.77192339198457, "longitude": -80.97149069195974}, "131585697RR0001": {"name": "TERRACE OLD AGE PENSIONERS ASSOCIATION BRANCH #73", "designationCode": "C", "categoryCode": "56", "address": "3226 KALUM ST", "city": "TERRACE", "province": "BC", "country": "CA", "postalCode": "V8G2N1", "twitter": "None", "instagram": "None", "facebook": "None", "youtube": "None", "website": "None", "summary": "None", "logo": "None", "latitude": 54.51695080099833, "longitude": -128.58656621264993}, "871632543RR0001": {"name": "TERRACE PENTECOSTAL ASSEMBLY", "designationCode": "C", "categoryCode": "36", "address": "3511 EBY STREET", "city": "TERRACE", "province": "BC", "country": "CA", "postalCode": "V8G2Y9", "twitter": "None", "instagram": "None", "facebook": "None", "youtube": "None", "website": "None", "summary": "None", "logo": "None", "latitude": 54.52290950291419, "longitude": -128.59890736886143}, "108068909RR0001": {"name": "TERRACE PUBLIC LIBRARY ASSOCIATION", "designationCode": "C", "categoryCode": "50", "address": "4610 PARK AVE", "city": "TERRACE", "province": "BC", "country": "CA", "postalCode": "V8G1V6", "twitter": "None", "instagram": "None", "facebook": "None", "youtube": "None", "website": "None", "summary": "None", "logo": "None", "latitude": 54.51817745772946, "longitude": -128.58718855285946}, "119210581RR0001": {"name": "TERRACE REGIONAL HISTORICAL SOCIETY", "designationCode": "C", "categoryCode": "50", "address": "PO BOX 778", "city": "TERRACE", "province": "BC", "country": "CA", "postalCode": "V8G4R1", "twitter": "None", "instagram": "None", "facebook": "None", "youtube": "None", "website": "None", "summary": "None", "logo": "None", "latitude": 54.51590400000006, "longitude": -128.60321299999993}, "119210599RR0001": {"name": "TERRACE SALMONID ENHANCEMENT SOCIETY", "designationCode": "C", "categoryCode": "52", "address": "4734 PARK AVE", "city": "TERRACE", "province": "BC", "country": "CA", "postalCode": "V8G1W1", "twitter": "None", "instagram": "None", "facebook": "None", "youtube": "None", "website": "None", "summary": "None", "logo": "None", "latitude": 54.518715489901105, "longitude": -128.59740152983437}, "118818491RR0032": {"name": "TERRACE SEVENTH-DAY ADVENTIST CHURCH", "designationCode": "C", "categoryCode": "41", "address": "PO 1000", "city": "ABBOTSFORD", "province": "BC", "country": "CA", "postalCode": "V2S4P5", "twitter": "None", "instagram": "None", "facebook": "None", "youtube": "None", "website": "None", "summary": "None", "logo": "None", "latitude": 49.03851300000005, "longitude": -122.29441549999993}, "871770566RR0001": {"name": "TERRACE SYMPHONY ORCHESTRA SOCIETY", "designationCode": "C", "categoryCode": "22", "address": "5306 MCCONNELL AVENUE         ATTN: BONNIE J. JUNIPER, PRES", "city": "TERRACE", "province": "BC", "country": "CA", "postalCode": "V8G4X3", "twitter": "None", "instagram": "None", "facebook": "None", "youtube": "None", "website": "None", "summary": "None", "logo": "None", "latitude": 54.52867616039037, "longitude": -128.63137220167403}, "119210623RR0001": {"name": "TERRACE WOMEN'S RESOURCE CENTRE SOCIETY", "designationCode": "C", "categoryCode": "09", "address": "4553 PARK AVENUE", "city": "TERRACE", "province": "BC", "country": "CA", "postalCode": "V8G1V3", "twitter": "None", "instagram": "None", "facebook": "None", "youtube": "None", "website": "None", "summary": "None", "logo": "None", "latitude": 54.517975554532896, "longitude": -128.58483652859363}, "130141377RR0001": {"name": "TERRACE 747 AIR CADET SOCIETY", "designationCode": "C", "categoryCode": "29", "address": "P.O. BOX 274", "city": "TERRACE", "province": "BC", "country": "CA", "postalCode": "V8G4A6", "twitter": "None", "instagram": "None", "facebook": "None", "youtube": "None", "website": "None", "summary": "None", "logo": "None", "latitude": 54.51590400000006, "longitude": -128.60321299999993}, "890584303RR0001": {"name": "TERRAVIE - FONDS FONCIER COMMUNAUTAIRE", "designationCode": "C", "categoryCode": "52", "address": "200 CHEMIN DUNCAN SUD", "city": "MONTCALM", "province": "QC", "country": "CA", "postalCode": "J0T2V0", "twitter": "None", "instagram": "None", "facebook": "None", "youtube": "None", "website": "None", "summary": "None", "logo": "None", "latitude": 45.95929271492894, "longitude": -74.54921456893096}, "803239144RR0001": {"name": "TERRE SACREE/ SACRED EARTH", "designationCode": "C", "categoryCode": "20", "address": "10950 BOUL. PERRAS EST", "city": "MONTREAL", "province": "QC", "country": "CA", "postalCode": "H1C1B3", "twitter": "None", "instagram": "None", "facebook": "None", "youtube": "None", "website": "None", "summary": "None", "logo": "None", "latitude": 45.669151917621605, "longitude": -73.54679558895856}, "130594492RR0001": {"name": "TERRE SANS FRONTIERES", "designationCode": "C", "categoryCode": "03", "address": "399, RUE DES CONSEILLERS,     BUREAU 23", "city": "LA PRAIRIE", "province": "QC", "country": "CA", "postalCode": "J5R4H6", "twitter": "None", "instagram": "None", "facebook": "None", "youtube": "None", "website": "None", "summary": "None", "logo": "None", "latitude": 45.412476590888154, "longitude": -73.4853683100007}, "836336073RR0001": {"name": "TERRENCE R. ALI MEMORIAL SCHOLARSHIP FOUNDATION", "designationCode": "B", "categoryCode": "21", "address": "P.O. BOX 55536                629 MARKHAM ROAD", "city": "TORONTO", "province": "ON", "country": "CA", "postalCode": "M1H3G7", "twitter": "None", "instagram": "None", "facebook": "None", "youtube": "None", "website": "None", "summary": "None", "logo": "None", "latitude": 43.7604403748056, "longitude": -79.22549703623059}, "876525676RR0001": {"name": "TERRES EN VUES, SOCIETE POUR LA DIFFUSION DE LA CULTURE AUTOCHTONE", "designationCode": "C", "categoryCode": "22", "address": "508 - 5445 AV DE GASPE", "city": "MONTREAL", "province": "QC", "country": "CA", "postalCode": "H2T3B2", "twitter": "None", "instagram": "None", "facebook": "None", "youtube": "None", "website": "None", "summary": "None", "logo": "None", "latitude": 45.52683526146908, "longitude": -73.59551934136431}, "119210656RR0001": {"name": "TERRITORIAL DRIVE ALLIANCE CHURCH", "designationCode": "C", "categoryCode": "39", "address": "BOX 1336", "city": "NORTH BATTLEFORD", "province": "SK", "country": "CA", "postalCode": "S9A3L8", "twitter": "None", "instagram": "None", "facebook": "None", "youtube": "None", "website": "None", "summary": "None", "logo": "None", "latitude": 52.77640200000006, "longitude": -108.29903299999994}, "132238833RR0001": {"name": "TERRY FOX HUMANITARIAN AWARDS INC/PRIX HUMANITAIRES TERRY FOX INC", "designationCode": "C", "categoryCode": "21", "address": "8888 UNIVERSITY DRIVE", "city": "BURNABY", "province": "BC", "country": "CA", "postalCode": "V5A1S6", "twitter": "None", "instagram": "None", "facebook": "None", "youtube": "None", "website": "None", "summary": "None", "logo": "None", "latitude": 49.28072896582346, "longitude": -122.90935295443904}, "887634350RR0001": {"name": "TERRY MCKERROW CAT SCAN OPERATING FUND INC.", "designationCode": "C", "categoryCode": "19", "address": "P O BOX 2500", "city": "NORTH BAY", "province": "ON", "country": "CA", "postalCode": "P1B5A4", "twitter": "None", "instagram": "None", "facebook": "None", "youtube": "None", "website": "None", "summary": "None", "logo": "None", "latitude": 46.30661700000006, "longitude": -79.45993249999994}, "872777008RR0001": {"name": "TERWILLEGAR COMMUNITY CHURCH", "designationCode": "C", "categoryCode": "31", "address": "1751 TOWNE CENTRE BLVD NW", "city": "EDMONTON", "province": "AB", "country": "CA", "postalCode": "T6R3N9", "twitter": "None", "instagram": "None", "facebook": "None", "youtube": "None", "website": "None", "summary": "None", "logo": "None", "latitude": 53.44597522200165, "longitude": -113.57769145229716}, "839475878RR0001": {"name": "TESARI CHARITABLE FOUNDATION", "designationCode": "B", "categoryCode": "03", "address": "233 ELLIS AVE.", "city": "TORONTO", "province": "ON", "country": "CA", "postalCode": "M6S2Z4", "twitter": "None", "instagram": "None", "facebook": "None", "youtube": "None", "website": "None", "summary": "None", "logo": "None", "latitude": 43.644433253130536, "longitude": -79.47181001370558}, "891070245RR0001": {"name": "TESL CANADIAN EDUCATIONAL FOUNDATION", "designationCode": "C", "categoryCode": "21", "address": "2811 W. 32ND AVE.", "city": "VANCOUVER", "province": "BC", "country": "CA", "postalCode": "V6L2B5", "twitter": "None", "instagram": "None", "facebook": "None", "youtube": "None", "website": "None", "summary": "None", "logo": "None", "latitude": 49.24328548600596, "longitude": -123.16825341618096}, "119210680RR0001": {"name": "TESS-IMAGINAIRE", "designationCode": "C", "categoryCode": "22", "address": "3893 ST-CATHERINE EST", "city": "MONTREAL", "province": "QC", "country": "CA", "postalCode": "H1W2G5", "twitter": "None", "instagram": "None", "facebook": "None", "youtube": "None", "website": "None", "summary": "None", "logo": "None", "latitude": 45.546407360263096, "longitude": -73.5367022317789}, "866409576RR0001": {"name": "TESTAMENTS OF HONOUR HISTORICAL ARCHIVE", "designationCode": "B", "categoryCode": "50", "address": "134 LAWTON BLVD., SUITE 206", "city": "TORONTO", "province": "ON", "country": "CA", "postalCode": "M4V2A4", "twitter": "None", "instagram": "None", "facebook": "None", "youtube": "None", "website": "None", "summary": "None", "logo": "None", "latitude": 43.69451575102441, "longitude": -79.3976282082925}, "119288918RR0359": {"name": "TETAGOUCHE CONGREGATION OF JEHOVAH'S WITNESSES, BATHURST, NEW BRUNSWICK", "designationCode": "C", "categoryCode": "61", "address": "285 ALLISON CRES.AIN", "city": "BATHURSTWN", "province": "NB", "country": "CA", "postalCode": "E2A3B4", "twitter": "None", "instagram": "None", "facebook": "None", "youtube": "None", "website": "None", "summary": "None", "logo": "None", "latitude": 47.633001451324134, "longitude": -65.66958404564703}, "890839947RR0001": {"name": "TETE JAUNE COMMUNITY CLUB", "designationCode": "C", "categoryCode": "56", "address": "BOX  84", "city": "VALEMOUNT", "province": "BC", "country": "CA", "postalCode": "V0C2Z0", "twitter": "None", "instagram": "None", "facebook": "None", "youtube": "None", "website": "None", "summary": "None", "logo": "None", "latitude": 52.82816000000008, "longitude": -119.27765}, "855970133RR0001": {"name": "TETRA ASSISTIVE DEVICES SOCIETY OF CALGARY", "designationCode": "C", "categoryCode": "09", "address": "65 LYNNWOOD DRIVE S.E", "city": "CALGARY", "province": "AB", "country": "CA", "postalCode": "T2C0S5", "twitter": "None", "instagram": "None", "facebook": "None", "youtube": "None", "website": "None", "summary": "None", "logo": "None", "latitude": 50.99265911573089, "longitude": -114.00674975673722}, "140435108RR0001": {"name": "TETRA SOCIETY OF NORTH AMERICA", "designationCode": "C", "categoryCode": "59", "address": "318-425 CARRALL ST", "city": "VANCOUVER", "province": "BC", "country": "CA", "postalCode": "V6B6E3", "twitter": "None", "instagram": "None", "facebook": "None", "youtube": "None", "website": "None", "summary": "None", "logo": "None", "latitude": 49.28107458090486, "longitude": -123.10442464770009}, "885530162RR0001": {"name": "TEULON & AREA ADVOCATES FOR ACTIVE LIVING INC.", "designationCode": "C", "categoryCode": "01", "address": "BOX 134", "city": "TEULON", "province": "MB", "country": "CA", "postalCode": "R0C3B0", "twitter": "None", "instagram": "None", "facebook": "None", "youtube": "None", "website": "None", "summary": "None", "logo": "None", "latitude": 50.38882296172802, "longitude": -97.07887338068231}, "132478181RR0001": {"name": "TEULON & DISTRICT HANDI-VAN SERVICE", "designationCode": "C", "categoryCode": "09", "address": "BOX 89", "city": "TEULON", "province": "MB", "country": "CA", "postalCode": "R0C3B0", "twitter": "None", "instagram": "None", "facebook": "None", "youtube": "None", "website": "None", "summary": "None", "logo": "None", "latitude": 50.38882296172802, "longitude": -97.07887338068231}, "897880464RR0001": {"name": "TEULON & DISTRICT SENIORS RESOURCE COUNCIL INC.", "designationCode": "C", "categoryCode": "09", "address": "BOX 418", "city": "TEULON", "province": "MB", "country": "CA", "postalCode": "R0C3B0", "twitter": "None", "instagram": "None", "facebook": "None", "youtube": "None", "website": "None", "summary": "None", "logo": "None", "latitude": 50.38882296172802, "longitude": -97.07887338068231}, "886019728RR0001": {"name": "TEULON AND DISTRICT FOOD BANK AND SERVICES INC", "designationCode": "C", "categoryCode": "09", "address": "PO BOX 13", "city": "TEULON", "province": "MB", "country": "CA", "postalCode": "R0C3B0", "twitter": "None", "instagram": "None", "facebook": "None", "youtube": "None", "website": "None", "summary": "None", "logo": "None", "latitude": 50.38882296172802, "longitude": -97.07887338068231}, "119210714RR0001": {"name": "TEULON AND DISTRICT MUSEUM AND HISTORICAL SOCIETY INC", "designationCode": "C", "categoryCode": "50", "address": "PO BOX 44", "city": "TEULON", "province": "MB", "country": "CA", "postalCode": "R0C3B0", "twitter": "None", "instagram": "None", "facebook": "None", "youtube": "None", "website": "None", "summary": "None", "logo": "None", "latitude": 50.38882296172802, "longitude": -97.07887338068231}, "889357372RR0001": {"name": "TEULON CHRISTMAS CHEER BOARD", "designationCode": "C", "categoryCode": "09", "address": "69-1ST AVE SE BOX 37", "city": "TEULON", "province": "MB", "country": "CA", "postalCode": "R0C3B0", "twitter": "None", "instagram": "None", "facebook": "None", "youtube": "None", "website": "None", "summary": "None", "logo": "None", "latitude": 50.3878812805666, "longitude": -97.25968545223226}, "105186605RR0001": {"name": "TEULON DAY CARE INC.", "designationCode": "C", "categoryCode": "01", "address": "BOX 335", "city": "TEULON", "province": "MB", "country": "CA", "postalCode": "R0C3B0", "twitter": "None", "instagram": "None", "facebook": "None", "youtube": "None", "website": "None", "summary": "None", "logo": "None", "latitude": 50.38882296172802, "longitude": -97.07887338068231}, "108069972RR0001": {"name": "TEULON UNITED CHURCH", "designationCode": "C", "categoryCode": "44", "address": "BOX 83", "city": "TEULON", "province": "MB", "country": "CA", "postalCode": "R0C3B0", "twitter": "None", "instagram": "None", "facebook": "None", "youtube": "None", "website": "None", "summary": "None", "logo": "None", "latitude": 50.38882296172802, "longitude": -97.07887338068231}, "890090046RR0001": {"name": "TEULON-HUNTER MEMORIAL HEALTH-DISTRICT FOUNDATION INC", "designationCode": "A", "categoryCode": "13", "address": "PO BOX 312", "city": "TEULON", "province": "MB", "country": "CA", "postalCode": "R0C3B0", "twitter": "None", "instagram": "None", "facebook": "None", "youtube": "None", "website": "None", "summary": "None", "logo": "None", "latitude": 50.38882296172802, "longitude": -97.07887338068231}, "861724466RR0001": {"name": "TEXADA HEALTH SERVICES SOCIETY", "designationCode": "C", "categoryCode": "19", "address": "BOX 84", "city": "GILLIES BAY", "province": "BC", "country": "CA", "postalCode": "V0N1W0", "twitter": "None", "instagram": "None", "facebook": "None", "youtube": "None", "website": "None", "summary": "None", "logo": "None", "latitude": 49.68166914392608, "longitude": -124.48563385442345}, "119210789RR0001": {"name": "TEXADA ISLAND HERITAGE SOCIETY", "designationCode": "C", "categoryCode": "50", "address": "PRESIDENT                     BOX 53", "city": "VAN ANDA", "province": "BC", "country": "CA", "postalCode": "V0N3K0", "twitter": "None", "instagram": "None", "facebook": "None", "youtube": "None", "website": "None", "summary": "None", "logo": "None", "latitude": 49.75615538730041, "longitude": -124.55427948373095}, "119210797RR0001": {"name": "TEXADA ISLAND PASTORAL CHARGE,", "designationCode": "C", "categoryCode": "44", "address": "PO BOX 23", "city": "GILLIES BAY", "province": "BC", "country": "CA", "postalCode": "V0N1W0", "twitter": "None", "instagram": "None", "facebook": "None", "youtube": "None", "website": "None", "summary": "None", "logo": "None", "latitude": 49.68166914392608, "longitude": -124.48563385442345}, "893972497RR0001": {"name": "TEXADA ISLAND PRESCHOOL SOCIETY", "designationCode": "C", "categoryCode": "20", "address": "P.O. BOX 183", "city": "GILLIES BAY", "province": "BC", "country": "CA", "postalCode": "V0N1W0", "twitter": "None", "instagram": "None", "facebook": "None", "youtube": "None", "website": "None", "summary": "None", "logo": "None", "latitude": 49.68166914392608, "longitude": -124.48563385442345}, "869250993RR0001": {"name": "TFHQ SAFE SHELTER INCORPORATED", "designationCode": "C", "categoryCode": "01", "address": "PO BOX 1512", "city": "REGINA", "province": "SK", "country": "CA", "postalCode": "S4P3C2", "twitter": "None", "instagram": "None", "facebook": "None", "youtube": "None", "website": "None", "summary": "None", "logo": "None", "latitude": 50.448246000000054, "longitude": -104.59517299999993}, "135529949RR0001": {"name": "TH\u00c9\u00c2TRE CAPITOL THEATRE INC.", "designationCode": "C", "categoryCode": "22", "address": "811 MAIN ST", "city": "MONCTON", "province": "NB", "country": "CA", "postalCode": "E1C1G1", "twitter": "None", "instagram": "None", "facebook": "None", "youtube": "None", "website": "None", "summary": "None", "logo": "None", "latitude": 46.08819718405534, "longitude": -64.77927662366541}, "119214443RR0001": {"name": "TH\u00c9\u00c2TRE ST-BRUNO PLAYERS", "designationCode": "C", "categoryCode": "22", "address": "1585 RUE MONTARVILLE", "city": "SAINT-BRUNO", "province": "QC", "country": "CA", "postalCode": "J3V3T8", "twitter": "None", "instagram": "None", "facebook": "None", "youtube": "None", "website": "None", "summary": "None", "logo": "None", "latitude": 45.52618107242206, "longitude": -73.3403901406023}, "105194872RR0001": {"name": "TH\u00c9\u00c2TRE UBU INC.", "designationCode": "C", "categoryCode": "22", "address": "4375 AVE. CHRISTOPHE-COLOMB", "city": "MONTREAL", "province": "QC", "country": "CA", "postalCode": "H2J3G5", "twitter": "None", "instagram": "None", "facebook": "None", "youtube": "None", "website": "None", "summary": "None", "logo": "None", "latitude": 45.527216184863406, "longitude": -73.57736855715864}, "895649820RR0001": {"name": "THAI BUDDHIST SOCIETY OF CANADA", "designationCode": "C", "categoryCode": "35", "address": "8-688 EDGAR AVENUE", "city": "COQUITLAM", "province": "BC", "country": "CA", "postalCode": "V3K0A5", "twitter": "None", "instagram": "None", "facebook": "None", "youtube": "None", "website": "None", "summary": "None", "logo": "None", "latitude": 49.24249140867986, "longitude": -122.88137212857211}, "890234198RR0001": {"name": "THAKORE CHARITABLE FOUNDATION", "designationCode": "B", "categoryCode": "03", "address": "2620 CHELSEA COURT", "city": "WEST VANCOUVER", "province": "BC", "country": "CA", "postalCode": "V7S3E9", "twitter": "None", "instagram": "None", "facebook": "None", "youtube": "None", "website": "None", "summary": "None", "logo": "None", "latitude": 49.3486929441977, "longitude": -123.1868692080327}, "119068492RR0001": {"name": "THALASSEMIA FOUNDATION OF CANADA", "designationCode": "C", "categoryCode": "11", "address": "340 FALSTAFF AVENUE           SUITE 204", "city": "NORTH YORK", "province": "ON", "country": "CA", "postalCode": "M6L3E8", "twitter": "None", "instagram": "None", "facebook": "None", "youtube": "None", "website": "None", "summary": "None", "logo": "None", "latitude": 43.72020201973551, "longitude": -79.4821083043452}, "843268608RR0001": {"name": "THAMES CHRISTIAN FELLOWSHIP", "designationCode": "C", "categoryCode": "39", "address": "400 PARK AVE E                STE B", "city": "CHATHAM", "province": "ON", "country": "CA", "postalCode": "N7M5Y5", "twitter": "None", "instagram": "None", "facebook": "None", "youtube": "None", "website": "None", "summary": "None", "logo": "None", "latitude": 42.40496279014963, "longitude": -82.16523234967418}, "130005721RR0001": {"name": "THAMES REGION ECOLOGICAL ASSOCIATION", "designationCode": "C", "categoryCode": "52", "address": "1017 WESTERN ROAD", "city": "LONDON", "province": "ON", "country": "CA", "postalCode": "N6G1G5", "twitter": "None", "instagram": "None", "facebook": "None", "youtube": "None", "website": "None", "summary": "None", "logo": "None", "latitude": 42.9963403568056, "longitude": -81.27279434492367}, "867457475RR0001": {"name": "THAMES TALBOT LAND TRUST", "designationCode": "C", "categoryCode": "52", "address": "PO BOX 25054                  395 WELLINGTON ROAD", "city": "LONDON", "province": "ON", "country": "CA", "postalCode": "N6C6A8", "twitter": "None", "instagram": "None", "facebook": "None", "youtube": "None", "website": "None", "summary": "None", "logo": "None", "latitude": 42.960208754943174, "longitude": -81.23073267248625}, "119210888RR0001": {"name": "THAMES VALLEY CHILDREN'S CENTRE", "designationCode": "C", "categoryCode": "10", "address": "779 BASE LINE RD E", "city": "LONDON", "province": "ON", "country": "CA", "postalCode": "N6C5Y6", "twitter": "None", "instagram": "None", "facebook": "None", "youtube": "None", "website": "None", "summary": "None", "logo": "None", "latitude": 42.96214055253835, "longitude": -81.22532881289798}, "119210896RR0001": {"name": "THAMES VALLEY CHILDREN'S CENTRE WOMEN'S AUXILIARY", "designationCode": "C", "categoryCode": "19", "address": "779 BASE LINE RD. EAST", "city": "LONDON", "province": "ON", "country": "CA", "postalCode": "N6C5Y6", "twitter": "None", "instagram": "None", "facebook": "None", "youtube": "None", "website": "None", "summary": "None", "logo": "None", "latitude": 42.96214055253835, "longitude": -81.22532881289798}, "841529274RR0001": {"name": "THAMES VALLEY COMPANION ANIMAL NETWORK", "designationCode": "C", "categoryCode": "54", "address": "60 LOOKOUT CRT", "city": "LONDON", "province": "ON", "country": "CA", "postalCode": "N6K3L5", "twitter": "None", "instagram": "None", "facebook": "None", "youtube": "None", "website": "None", "summary": "None", "logo": "None", "latitude": 42.945193214553576, "longitude": -81.32230167542835}, "119288918RR0850": {"name": "THAMES VALLEY CONGREGATION OF JEHOVAH'S WITNESSES, LONDON,ONT", "designationCode": "C", "categoryCode": "61", "address": "5 EDNA STREET", "city": "LONDON", "province": "ON", "country": "CA", "postalCode": "N5Z2X8", "twitter": "None", "instagram": "None", "facebook": "None", "youtube": "None", "website": "None", "summary": "None", "logo": "None", "latitude": 42.97135594419769, "longitude": -81.22577559310986}, "870182839RR0001": {"name": "THAMES VALLEY DISTRICT SCHOOL BOARD", "designationCode": "C", "categoryCode": "20", "address": "PO BOX 5888 STN B", "city": "LONDON", "province": "ON", "country": "CA", "postalCode": "N6A5L1", "twitter": "None", "instagram": "None", "facebook": "None", "youtube": "None", "website": "None", "summary": "None", "logo": "None", "latitude": 42.98689500000006, "longitude": -81.24624349999993}, "872481361RR0001": {"name": "THAMES VALLEY EDUCATION FOUNDATION", "designationCode": "C", "categoryCode": "21", "address": "1250 DUNDAS STREET            P. O BOX 5888", "city": "LONDON", "province": "ON", "country": "CA", "postalCode": "N6A5L1", "twitter": "None", "instagram": "None", "facebook": "None", "youtube": "None", "website": "None", "summary": "None", "logo": "None", "latitude": 42.983658592021904, "longitude": -81.24988531932539}, "891019192RR0001": {"name": "THAMES VALLEY TRAIL ASSOCIATION INC", "designationCode": "C", "categoryCode": "56", "address": "1017 WESTERN ROAD", "city": "LONDON", "province": "ON", "country": "CA", "postalCode": "N6G1G5", "twitter": "None", "instagram": "None", "facebook": "None", "youtube": "None", "website": "None", "summary": "None", "logo": "None", "latitude": 42.9963403568056, "longitude": -81.27279434492367}, "884152612RR0001": {"name": "THAMES VALLEY VINEYARD CHRISTIAN FELLOWSHIP OF LONDON", "designationCode": "C", "categoryCode": "39", "address": "1366 LANGMUIR AVENUE", "city": "LONDON", "province": "ON", "country": "CA", "postalCode": "N5W2G6", "twitter": "None", "instagram": "None", "facebook": "None", "youtube": "None", "website": "None", "summary": "None", "logo": "None", "latitude": 42.991274869842385, "longitude": -81.19633033181367}, "119210904RR0001": {"name": "THAMESVIEW UNITED CHURCH", "designationCode": "C", "categoryCode": "44", "address": "3178 RD 163 R.R.#1", "city": "FULLARTON", "province": "ON", "country": "CA", "postalCode": "N0K1H0", "twitter": "None", "instagram": "None", "facebook": "None", "youtube": "None", "website": "None", "summary": "None", "logo": "None", "latitude": 43.38896547146702, "longitude": -81.2217895670901}, "119210938RR0001": {"name": "THAMESVILLE & DISTRICT CEMETERY BOARD", "designationCode": "C", "categoryCode": "59", "address": "89 GRAHAM ST.                 PO BOX 354", "city": "THAMESVILLE", "province": "ON", "country": "CA", "postalCode": "N0P2K0", "twitter": "None", "instagram": "None", "facebook": "None", "youtube": "None", "website": "None", "summary": "None", "logo": "None", "latitude": 42.557533282532226, "longitude": -81.9779398415372}, "865899645RR0001": {"name": "THAMESVILLE AND DISTRICT HISTORICAL SOCIETY", "designationCode": "C", "categoryCode": "50", "address": "BOX 244", "city": "THAMESVILLE", "province": "ON", "country": "CA", "postalCode": "N0P2K0", "twitter": "None", "instagram": "None", "facebook": "None", "youtube": "None", "website": "None", "summary": "None", "logo": "None", "latitude": 42.551870000000065, "longitude": -81.97652999999997}, "119210920RR0001": {"name": "THAMESVILLE BAPTIST CHURCH,", "designationCode": "C", "categoryCode": "31", "address": "122 LONDON ROAD", "city": "THAMESVILLE", "province": "ON", "country": "CA", "postalCode": "N0P2K0", "twitter": "None", "instagram": "None", "facebook": "None", "youtube": "None", "website": "None", "summary": "None", "logo": "None", "latitude": 42.55164451485942, "longitude": -81.97920160796927}, "131556136RR0001": {"name": "THAMESVILLE PASTORAL CHARGE,", "designationCode": "C", "categoryCode": "44", "address": "BOX 36                        29338 JANE ROAD", "city": "THAMESVILLE", "province": "ON", "country": "CA", "postalCode": "N0P2K0", "twitter": "None", "instagram": "None", "facebook": "None", "youtube": "None", "website": "None", "summary": "None", "logo": "None", "latitude": 42.58395292339433, "longitude": -81.96271885501163}, "841306160RR0001": {"name": "THAMIL ISAI KALAAMANRAM OF ONTARIO", "designationCode": "C", "categoryCode": "22", "address": "3 - 1120 TAPSCOTT RD", "city": "SCARBOROUGH", "province": "ON", "country": "CA", "postalCode": "M1X1E8", "twitter": "None", "instagram": "None", "facebook": "None", "youtube": "None", "website": "None", "summary": "None", "logo": "None", "latitude": 43.82775167747716, "longitude": -79.24394308179888}, "874034887RR0001": {"name": "THANK A VET LUNCHEON", "designationCode": "C", "categoryCode": "59", "address": "P.O. BOX 28104                NORTH PARK PLAZA", "city": "BRANTFORD", "province": "ON", "country": "CA", "postalCode": "N3R7X5", "twitter": "None", "instagram": "None", "facebook": "None", "youtube": "None", "website": "None", "summary": "None", "logo": "None", "latitude": 43.164344813079865, "longitude": -80.2649226702642}, "863490165RR0001": {"name": "THANKFUL HEARTS FOUNDATION", "designationCode": "A", "categoryCode": "03", "address": "275 WYCHWOOD AVENUE", "city": "TORONTO", "province": "ON", "country": "CA", "postalCode": "M6C2T6", "twitter": "None", "instagram": "None", "facebook": "None", "youtube": "None", "website": "None", "summary": "None", "logo": "None", "latitude": 43.68638286095559, "longitude": -79.42484692405816}, "881540967RR0001": {"name": "THE 'CROSS OF CHRIST' FELLOWSHIP", "designationCode": "C", "categoryCode": "45", "address": "904 MARKHAM ROAD", "city": "SCARBOROUGH", "province": "ON", "country": "CA", "postalCode": "M1H2Y2", "twitter": "None", "instagram": "None", "facebook": "None", "youtube": "None", "website": "None", "summary": "None", "logo": "None", "latitude": 43.768772927549264, "longitude": -79.22882348548636}, "837770742RR0001": {"name": "THE \"ALICE\" NORMAN CLEMENTS FOUNDATION", "designationCode": "B", "categoryCode": "03", "address": "10800 CONCESSION 5            R.R. 1", "city": "UXBRIDGE", "province": "ON", "country": "CA", "postalCode": "L9P1R1", "twitter": "None", "instagram": "None", "facebook": "None", "youtube": "None", "website": "None", "summary": "None", "logo": "None", "latitude": 44.170631207055266, "longitude": -79.20038439879514}, "886508191RR0001": {"name": "THE \"KIDS\" SAFETY AWARENESS SOCIETY", "designationCode": "C", "categoryCode": "59", "address": "108 PORTAGE AVENUE", "city": "RICHMOND HILL", "province": "ON", "country": "CA", "postalCode": "L4E4P7", "twitter": "None", "instagram": "None", "facebook": "None", "youtube": "None", "website": "None", "summary": "None", "logo": "None", "latitude": 43.944740223440384, "longitude": -79.47780545643137}, "119211043RR0001": {"name": "THE A & B FOGEL FOUNDATION", "designationCode": "B", "categoryCode": "15", "address": "1220 SHEPPARD AVENUE EAST     SUITE 416", "city": "TORONTO", "province": "ON", "country": "CA", "postalCode": "M2K2S5", "twitter": "None", "instagram": "None", "facebook": "None", "youtube": "None", "website": "None", "summary": "None", "logo": "None", "latitude": 43.77120017903258, "longitude": -79.36755633188012}, "131543886RR0001": {"name": "THE A.I.A. ARTS IN ACTION SOCIETY", "designationCode": "C", "categoryCode": "22", "address": "5570 BLENHEIM ST", "city": "VANCOUVER", "province": "BC", "country": "CA", "postalCode": "V6N1P5", "twitter": "None", "instagram": "None", "facebook": "None", "youtube": "None", "website": "None", "summary": "None", "logo": "None", "latitude": 49.23598511518264, "longitude": -123.17865941058372}, "108073156RR0001": {"name": "THE Advent Christian Church of Bear Point, Nova Scotia", "designationCode": "C", "categoryCode": "39", "address": "77 BEAR POINT ROAD", "city": "BEAR POINT", "province": "NS", "country": "CA", "postalCode": "B0W3B0", "twitter": "None", "instagram": "None", "facebook": "None", "youtube": "None", "website": "None", "summary": "None", "logo": "None", "latitude": 43.49991367306242, "longitude": -65.66100764689295}, "892949793RR0001": {"name": "THE ABBEYFIELD HERITAGE HOUSING SOCIETY", "designationCode": "C", "categoryCode": "01", "address": "2045 CADBORO BAY RD", "city": "VICTORIA", "province": "BC", "country": "CA", "postalCode": "V8R5G4", "twitter": "None", "instagram": "None", "facebook": "None", "youtube": "None", "website": "None", "summary": "None", "logo": "None", "latitude": 48.432300713316394, "longitude": -123.32117766686196}, "869854372RR0001": {"name": "THE ABBEYFIELD HOUSES ALBERNI VALLEY SOCIETY", "designationCode": "C", "categoryCode": "09", "address": "3839 8TH AVENUE", "city": "PORT ALBERNI", "province": "BC", "country": "CA", "postalCode": "V9Y8J6", "twitter": "None", "instagram": "None", "facebook": "None", "youtube": "None", "website": "None", "summary": "None", "logo": "None", "latitude": 49.246644643009994, "longitude": -124.8006383242601}, "119211027RR0001": {"name": "THE ABE AND ELSIE POSLUNS FAMILY FOUNDATION", "designationCode": "B", "categoryCode": "03", "address": "412 - 8 YORK ST", "city": "TORONTO", "province": "ON", "country": "CA", "postalCode": "M5J2Y2", "twitter": "None", "instagram": "None", "facebook": "None", "youtube": "None", "website": "None", "summary": "None", "logo": "None", "latitude": 43.64053963835194, "longitude": -79.38055338830847}, "132308719RR0001": {"name": "THE ABE SIMKIN FAMILY CHARITABLE FOUNDATION INC", "designationCode": "B", "categoryCode": "03", "address": "750-330 ST MARY AVE", "city": "WINNIPEG", "province": "MB", "country": "CA", "postalCode": "R3C3Z5", "twitter": "None", "instagram": "None", "facebook": "None", "youtube": "None", "website": "None", "summary": "None", "logo": "None", "latitude": 49.88988781775004, "longitude": -97.14513647574606}, "888810579RR0001": {"name": "THE ABELARD CENTRE FOR EDUCATION", "designationCode": "C", "categoryCode": "20", "address": "400 - 557 CHURCH ST", "city": "TORONTO", "province": "ON", "country": "CA", "postalCode": "M4Y2E2", "twitter": "None", "instagram": "None", "facebook": "None", "youtube": "None", "website": "None", "summary": "None", "logo": "None", "latitude": 43.667160589791635, "longitude": -79.38150747082943}, "850587874RR0001": {"name": "THE ABERCROMBIE FOUNDATION", "designationCode": "B", "categoryCode": "05", "address": "418 - 650 GEORGIA ST W", "city": "VANCOUVER", "province": "BC", "country": "CA", "postalCode": "V6B4N9", "twitter": "None", "instagram": "None", "facebook": "None", "youtube": "None", "website": "None", "summary": "None", "logo": "None", "latitude": 49.282095217179936, "longitude": -123.11767129779695}, "119211035RR0001": {"name": "THE ABERCROMBIE VOLUNTEER FIRE DEPARTMENT", "designationCode": "C", "categoryCode": "59", "address": "PO BOX 634", "city": "NEW GLASGOW", "province": "NS", "country": "CA", "postalCode": "B2H5E7", "twitter": "None", "instagram": "None", "facebook": "None", "youtube": "None", "website": "None", "summary": "None", "logo": "None", "latitude": 45.591837000000055, "longitude": -62.643414499999935}, "119211050RR0001": {"name": "THE ABIEZER PENTECOSTAL CHURCH (TORONTO)", "designationCode": "C", "categoryCode": "39", "address": "94 MILVAN DR", "city": "NORTH YORK", "province": "ON", "country": "CA", "postalCode": "M9L1Z6", "twitter": "None", "instagram": "None", "facebook": "None", "youtube": "None", "website": "None", "summary": "None", "logo": "None", "latitude": 43.75551424144512, "longitude": -79.5586733205896}, "119211100RR0001": {"name": "THE ABRAHAM KUYPER CHIRSTIAN CITIZEN FOUNDATION", "designationCode": "C", "categoryCode": "49", "address": "P. O. BOX 777", "city": "JORDAN STATION", "province": "ON", "country": "CA", "postalCode": "L0R1S0", "twitter": "None", "instagram": "None", "facebook": "None", "youtube": "None", "website": "None", "summary": "None", "logo": "None", "latitude": 43.1561250316656, "longitude": -79.35975663896875}, "130295074RR0001": {"name": "THE ABUNDANT LIFE CENTER OF NIAGRA", "designationCode": "C", "categoryCode": "39", "address": "60 ST PAUL ST WEST", "city": "ST CATHARINES", "province": "ON", "country": "CA", "postalCode": "L2S2C5", "twitter": "None", "instagram": "None", "facebook": "None", "youtube": "None", "website": "None", "summary": "None", "logo": "None", "latitude": 43.148779918979585, "longitude": -79.25056312450212}, "890290398RR0001": {"name": "THE ACADEMY CONCERT SERIES", "designationCode": "C", "categoryCode": "22", "address": "220 ROSELAWN AVENUE", "city": "TORONTO", "province": "ON", "country": "CA", "postalCode": "M4R1E9", "twitter": "None", "instagram": "None", "facebook": "None", "youtube": "None", "website": "None", "summary": "None", "logo": "None", "latitude": 43.70952619790514, "longitude": -79.40594932015692}, "887129815RR0001": {"name": "THE ACADEMY FOR LEARNING ISLAM", "designationCode": "C", "categoryCode": "20", "address": "25-71 PUCCINI DRIVE", "city": "RICHMOND HILL", "province": "ON", "country": "CA", "postalCode": "L4E4X8", "twitter": "None", "instagram": "None", "facebook": "None", "youtube": "None", "website": "None", "summary": "None", "logo": "None", "latitude": 43.941557725489176, "longitude": -79.48138687593055}}