{"141012716RR0001": {"name": "LA PASSERELLE, GROUPE D'AIDE ET D'ENTRAIDE POUR PERSONNES VIVANT AVEC UN PROBLEME DE SANTE MENTALE", "designationCode": "C", "categoryCode": "09", "address": "3288, AV. DES EGLISES", "city": "LEVIS", "province": "QC", "country": "CA", "postalCode": "G6X1W3", "twitter": "None", "instagram": "None", "facebook": "None", "youtube": "None", "website": "None", "summary": "None", "logo": "None", "latitude": 46.712533473224035, "longitude": -71.2727939952968}, "873938849RR0001": {"name": "LA PENA DE HOREB", "designationCode": "C", "categoryCode": "36", "address": "603-43 THORNCLIFFE PARK DRIVE", "city": "TORONTO", "province": "ON", "country": "CA", "postalCode": "M4H1J4", "twitter": "None", "instagram": "None", "facebook": "None", "youtube": "None", "website": "None", "summary": "None", "logo": "None", "latitude": 43.70173757328838, "longitude": -79.34398594592844}, "131226433RR0001": {"name": "LA PETITE ACADEMIE DU BOISE INC", "designationCode": "C", "categoryCode": "29", "address": "1090 AVENUE LEON PRATTE", "city": "ST-HYACINTHE", "province": "QC", "country": "CA", "postalCode": "J2S4B6", "twitter": "None", "instagram": "None", "facebook": "None", "youtube": "None", "website": "None", "summary": "None", "logo": "None", "latitude": 45.63409200000005, "longitude": -72.94597549999993}, "101945079RR0001": {"name": "LA PETITE ARDOISE DE ROSEMERE", "designationCode": "C", "categoryCode": "01", "address": "10 CROISSANT DES BERNACHES", "city": "ROSEM\u00c8RE", "province": "QC", "country": "CA", "postalCode": "J7A4Z3", "twitter": "None", "instagram": "None", "facebook": "None", "youtube": "None", "website": "None", "summary": "None", "logo": "None", "latitude": 45.65017094728479, "longitude": -73.7752928339198}, "107840365RR0001": {"name": "LA PETITE BIBLIOTHEQUE VERTE INC THE LITTLE GREEN LIBRARY INC.", "designationCode": "C", "categoryCode": "50", "address": "103-4 LORNE", "city": "HUNTINGDON", "province": "QC", "country": "CA", "postalCode": "J0S1H0", "twitter": "None", "instagram": "None", "facebook": "None", "youtube": "None", "website": "None", "summary": "None", "logo": "None", "latitude": 45.08188916844611, "longitude": -74.1743294827164}, "867377319RR0001": {"name": "LA PETITE FERME DE L'AUBERGE", "designationCode": "C", "categoryCode": "09", "address": "728, CHEMIN BACHAND", "city": "ROXTON FALLS", "province": "QC", "country": "CA", "postalCode": "J0H1E0", "twitter": "None", "instagram": "None", "facebook": "None", "youtube": "None", "website": "None", "summary": "None", "logo": "None", "latitude": 45.549368119626045, "longitude": -72.51529097873436}, "107597262RR0001": {"name": "LA PETITE MAISON DE LA MISERICORDE", "designationCode": "C", "categoryCode": "09", "address": "4401, RUE SAINT-HUBERT", "city": "MONTR\u00c9AL", "province": "QC", "country": "CA", "postalCode": "H2J2X1", "twitter": "None", "instagram": "None", "facebook": "None", "youtube": "None", "website": "None", "summary": "None", "logo": "None", "latitude": 45.525025370823336, "longitude": -73.57983920938901}, "892522038RR0001": {"name": "LA PETITE MAISON DE POINTE-CALUMET", "designationCode": "C", "categoryCode": "09", "address": "861, DE LA CHAPELLE", "city": "POINTE-CALUMET", "province": "QC", "country": "CA", "postalCode": "J0N1G1", "twitter": "None", "instagram": "None", "facebook": "None", "youtube": "None", "website": "None", "summary": "None", "logo": "None"}, "892932443RR0001": {"name": "LA PETITE MAISON DES ENFANTS SOLEIL", "designationCode": "C", "categoryCode": "09", "address": "1915 RUE VISITATION #1", "city": "MONTREAL", "province": "QC", "country": "CA", "postalCode": "H2L4Y4", "twitter": "None", "instagram": "None", "facebook": "None", "youtube": "None", "website": "None", "summary": "None", "logo": "None", "latitude": 45.521945046078784, "longitude": -73.56111755813957}, "119006609RR0001": {"name": "LA PIAULE DE VAL D'OR INC.", "designationCode": "C", "categoryCode": "01", "address": "1179 CHEMIN SULLIVAN", "city": "VAL D'OR", "province": "QC", "country": "CA", "postalCode": "J9P1L6", "twitter": "None", "instagram": "None", "facebook": "None", "youtube": "None", "website": "None", "summary": "None", "logo": "None", "latitude": 48.105199751024415, "longitude": -77.79736820358929}, "138127584RR0001": {"name": "LA PIAULE, LOCAL DES JEUNES", "designationCode": "C", "categoryCode": "09", "address": "6779 BOUL SAINT-LAURENT", "city": "MONTREAL", "province": "QC", "country": "CA", "postalCode": "H2S3C8", "twitter": "None", "instagram": "None", "facebook": "None", "youtube": "None", "website": "None", "summary": "None", "logo": "None", "latitude": 45.5324122758958, "longitude": -73.61324077586713}, "139298392RR0001": {"name": "LA PICASSE, CENTRE COMMUNAUTAIRE CULTUREL", "designationCode": "C", "categoryCode": "21", "address": "3435 ROUTE 206                CP 70", "city": "PETIT-DE-GRAT", "province": "NS", "country": "CA", "postalCode": "B0E2L0", "twitter": "None", "instagram": "None", "facebook": "None", "youtube": "None", "website": "None", "summary": "None", "logo": "None", "latitude": 45.507808538800795, "longitude": -60.95526235001019}, "142835602RR0001": {"name": "LA PIETA AVEC ANGELE DUBEAU", "designationCode": "C", "categoryCode": "22", "address": "201 - 7889 BOUL SAINT-LAURENT", "city": "MONTREAL", "province": "QC", "country": "CA", "postalCode": "H2R1X1", "twitter": "None", "instagram": "None", "facebook": "None", "youtube": "None", "website": "None", "summary": "None", "logo": "None", "latitude": 45.53799091369946, "longitude": -73.62792317539969}, "868927369RR0001": {"name": "LA PLACE DES ENFANTS", "designationCode": "C", "categoryCode": "01", "address": "171 RUE SAINT-ZOTIQUE E", "city": "MONTREAL", "province": "QC", "country": "CA", "postalCode": "H2S1K9", "twitter": "None", "instagram": "None", "facebook": "None", "youtube": "None", "website": "None", "summary": "None", "logo": "None", "latitude": 45.53325887344906, "longitude": -73.6106247324714}, "897960340RR0001": {"name": "LA PLACE DES JEUNES L'INTERVALLE", "designationCode": "C", "categoryCode": "09", "address": "82, RUE SAINT-JEAN-BAPTISTE", "city": "SHERBROOKE", "province": "QC", "country": "CA", "postalCode": "J1C0S9", "twitter": "None", "instagram": "None", "facebook": "None", "youtube": "None", "website": "None", "summary": "None", "logo": "None", "latitude": 45.47325771580577, "longitude": -71.94687484095459}, "119006633RR0001": {"name": "LA POINTE AUX JEUNES INC.", "designationCode": "C", "categoryCode": "09", "address": "448 RUE DE POINTE-GATINEAU", "city": "GATINEAU", "province": "QC", "country": "CA", "postalCode": "J8T2B7", "twitter": "None", "instagram": "None", "facebook": "None", "youtube": "None", "website": "None", "summary": "None", "logo": "None", "latitude": 45.46683251731227, "longitude": -75.69899950276996}, "817236540RR0001": {"name": "LA POPOTE A ROLAND", "designationCode": "C", "categoryCode": "09", "address": "421 BOULEVARD DU CURE-LABELLE", "city": "BLAINVILLE", "province": "QC", "country": "CA", "postalCode": "J7C2H4", "twitter": "None", "instagram": "None", "facebook": "None", "youtube": "None", "website": "None", "summary": "None", "logo": "None", "latitude": 45.652224042414794, "longitude": -73.84719041972939}, "107597411RR0001": {"name": "LA POPOTE DE CHARLESBOURG", "designationCode": "C", "categoryCode": "09", "address": "5 - 7260 BOUL CLOUTIER", "city": "QUEBEC", "province": "QC", "country": "CA", "postalCode": "G1H3E8", "twitter": "None", "instagram": "None", "facebook": "None", "youtube": "None", "website": "None", "summary": "None", "logo": "None", "latitude": 46.85359350207748, "longitude": -71.27384134566348}, "139058275RR0001": {"name": "LA POPOTE DE LA REGION DE BEDFORD", "designationCode": "C", "categoryCode": "01", "address": "52 RUE DU PONT                C. P. 731", "city": "BEDFORD", "province": "QC", "country": "CA", "postalCode": "J0J1A0", "twitter": "None", "instagram": "None", "facebook": "None", "youtube": "None", "website": "None", "summary": "None", "logo": "None", "latitude": 45.12421048819901, "longitude": -72.98848194249466}, "888580669RR0001": {"name": "LA POPOTE ROULANTE D'AMOS INC", "designationCode": "C", "categoryCode": "09", "address": "612 5E AV O", "city": "AMOS", "province": "QC", "country": "CA", "postalCode": "J9T4L3", "twitter": "None", "instagram": "None", "facebook": "None", "youtube": "None", "website": "None", "summary": "None", "logo": "None", "latitude": 48.5762545461657, "longitude": -78.12526041618096}, "852120922RR0001": {"name": "LA POPOTE ROULANTE DE BROSSARD", "designationCode": "C", "categoryCode": "09", "address": "1 - 2210 RUE ANDRE", "city": "BROSSARD", "province": "QC", "country": "CA", "postalCode": "J4Z2Z8", "twitter": "None", "instagram": "None", "facebook": "None", "youtube": "None", "website": "None", "summary": "None", "logo": "None", "latitude": 45.47870145155528, "longitude": -73.46240927021165}, "895193878RR0001": {"name": "LA POPOTE ROULANTE DE SALABERRY-DE-VALLEYFIELD", "designationCode": "C", "categoryCode": "09", "address": "20 ST-PIERRE", "city": "VALLEYFIELD", "province": "QC", "country": "CA", "postalCode": "J6T3R7", "twitter": "None", "instagram": "None", "facebook": "None", "youtube": "None", "website": "None", "summary": "None", "logo": "None", "latitude": 45.253872797103185, "longitude": -74.14054484765403}, "889223806RR0001": {"name": "LA PORTE DES EAUX/THE WATER GATE", "designationCode": "C", "categoryCode": "49", "address": "243 GORDON LAKE RD", "city": "CHELMSFORD", "province": "ON", "country": "CA", "postalCode": "P0M1L0", "twitter": "None", "instagram": "None", "facebook": "None", "youtube": "None", "website": "None", "summary": "None", "logo": "None", "latitude": 46.567286385947, "longitude": -81.3135707733179}, "119006658RR0001": {"name": "LA PORTE DU PASSANT INC.", "designationCode": "C", "categoryCode": "09", "address": "189 RUE DU PRINCE             LOCAL 215", "city": "SOREL-TRACY", "province": "QC", "country": "CA", "postalCode": "J3P4K6", "twitter": "None", "instagram": "None", "facebook": "None", "youtube": "None", "website": "None", "summary": "None", "logo": "None", "latitude": 46.03969422759532, "longitude": -73.11239907046016}, "102971892RR0001": {"name": "LA PORTE OUVERTE (CENTRE D'ALPHAB\u00c9TISATION ET DE FRANCISATION DU HAUT-RICHELIEU)", "designationCode": "C", "categoryCode": "09", "address": "81, RUE FRONTENAC", "city": "ST-JEAN-SUR-RICHELIEU", "province": "QC", "country": "CA", "postalCode": "J3B2Y4", "twitter": "None", "instagram": "None", "facebook": "None", "youtube": "None", "website": "None", "summary": "None", "logo": "None", "latitude": 45.30294550822296, "longitude": -73.25720147155059}, "141534388RR0001": {"name": "LA PORTE OUVERTE MAISON DES JEUNES", "designationCode": "C", "categoryCode": "56", "address": "3825 RUE ADELAIDE", "city": "SAINT-HUBERT", "province": "QC", "country": "CA", "postalCode": "J3Y4X1", "twitter": "None", "instagram": "None", "facebook": "None", "youtube": "None", "website": "None", "summary": "None", "logo": "None", "latitude": 45.4888404590571, "longitude": -73.42442249956731}, "861374221RR0001": {"name": "LA PRE-MATERNELLE FRANCOPHONE TROTTIN-TROTTINETTE", "designationCode": "C", "categoryCode": "01", "address": "380 WEST KINGS ROAD", "city": "NORTH VANCOUVER", "province": "BC", "country": "CA", "postalCode": "V7N2L9", "twitter": "None", "instagram": "None", "facebook": "None", "youtube": "None", "website": "None", "summary": "None", "logo": "None", "latitude": 49.33747446768412, "longitude": -123.0788115}, "892673484RR0001": {"name": "LA PRESENCE, OTTAWA", "designationCode": "C", "categoryCode": "01", "address": "27 BRUYERE ST", "city": "OTTAWA", "province": "ON", "country": "CA", "postalCode": "K1N5C9", "twitter": "None", "instagram": "None", "facebook": "None", "youtube": "None", "website": "None", "summary": "None", "logo": "None", "latitude": 45.431560924964096, "longitude": -75.69739439912266}, "885164186RR0001": {"name": "LA REGIE DU REGIMENT - LES FUSILIERS DU ST-LAURENT", "designationCode": "A", "categoryCode": "52", "address": "77 2E RUE OUEST", "city": "RIMOUSKI", "province": "QC", "country": "CA", "postalCode": "G5L4X3", "twitter": "None", "instagram": "None", "facebook": "None", "youtube": "None", "website": "None", "summary": "None", "logo": "None"}, "133141739RR0001": {"name": "LA RELANCE NICOLET-BECANCOUR INC", "designationCode": "C", "categoryCode": "09", "address": "102- 690 DE-MONSEIGNEUR-PANET", "city": "NICOLET", "province": "QC", "country": "CA", "postalCode": "J3T1W1", "twitter": "None", "instagram": "None", "facebook": "None", "youtube": "None", "website": "None", "summary": "None", "logo": "None", "latitude": 46.22988447988997, "longitude": -72.61078254828931}, "119007011RR0001": {"name": "LA RELANCE OUTAOUAIS INC.", "designationCode": "C", "categoryCode": "99", "address": "270 BOUL DES ALLUMETTI\u00c8RES", "city": "GATINEAU", "province": "QC", "country": "CA", "postalCode": "J8X1N3", "twitter": "None", "instagram": "None", "facebook": "None", "youtube": "None", "website": "None", "summary": "None", "logo": "None", "latitude": 45.43244248600598, "longitude": -75.721203}, "873959795RR0001": {"name": "LA RELANCE-JEUNES ET FAMILLES (RJF) INC.", "designationCode": "C", "categoryCode": "09", "address": "2200,  RUE PARTHENAIS", "city": "MONTREAL", "province": "QC", "country": "CA", "postalCode": "H2K3T4", "twitter": "None", "instagram": "None", "facebook": "None", "youtube": "None", "website": "None", "summary": "None", "logo": "None", "latitude": 45.53049593891757, "longitude": -73.55841289858026}, "890083777RR0001": {"name": "LA RENCONTRE (BISCUM) INC", "designationCode": "C", "categoryCode": "49", "address": "2050, DES CONSTELLATIONS", "city": "BECANCOUR", "province": "QC", "country": "CA", "postalCode": "G9H4J1", "twitter": "None", "instagram": "None", "facebook": "None", "youtube": "None", "website": "None", "summary": "None", "logo": "None", "latitude": 46.397410437705496, "longitude": -72.26583850418359}, "130382534RR0001": {"name": "LA RENCONTRE CHATEAUGUOISE", "designationCode": "C", "categoryCode": "01", "address": "200 BOUL SALABERRY NORD", "city": "CHATEAUGUAY", "province": "QC", "country": "CA", "postalCode": "J6J4L1", "twitter": "None", "instagram": "None", "facebook": "None", "youtube": "None", "website": "None", "summary": "None", "logo": "None", "latitude": 45.379035000000016, "longitude": -73.75079435593526}, "888227451RR0001": {"name": "LA RENCONTRE DE STE-MARGUERITE DU LAC MASSON", "designationCode": "C", "categoryCode": "57", "address": "2 CHEMIN MASSON", "city": "STE-MARGUERITE", "province": "QC", "country": "CA", "postalCode": "J0T1L0", "twitter": "None", "instagram": "None", "facebook": "None", "youtube": "None", "website": "None", "summary": "None", "logo": "None", "latitude": 46.0294058123953, "longitude": -74.05310318870121}, "140822818RR0001": {"name": "LA RENCONTRE, GROUPE D'ENTRAIDE POUR PERSONNES ATTEINTES DE MALADIE MENTALE", "designationCode": "C", "categoryCode": "09", "address": "165 RUE NOTRE-DAME NORD", "city": "SAINTE-MARIE", "province": "QC", "country": "CA", "postalCode": "G6E3Z4", "twitter": "None", "instagram": "None", "facebook": "None", "youtube": "None", "website": "None", "summary": "None", "logo": "None", "latitude": 46.439249438513535, "longitude": -71.02515457397995}, "142638519RR0001": {"name": "LA RESCOUSSE AMICALE", "designationCode": "C", "categoryCode": "09", "address": "3689 RUE ALBERT", "city": "RAWDON", "province": "QC", "country": "CA", "postalCode": "J0K1S0", "twitter": "None", "instagram": "None", "facebook": "None", "youtube": "None", "website": "None", "summary": "None", "logo": "None", "latitude": 46.0424910180334, "longitude": -73.70995850903103}, "107597882RR0001": {"name": "LA RESCOUSSE MONTCALM", "designationCode": "C", "categoryCode": "11", "address": "114 RUE MONTCALM", "city": "ST-ESPRIT", "province": "QC", "country": "CA", "postalCode": "J0K2L0", "twitter": "None", "instagram": "None", "facebook": "None", "youtube": "None", "website": "None", "summary": "None", "logo": "None", "latitude": 45.90033237100733, "longitude": -73.66684298367841}, "896382546RR0001": {"name": "LA RESCOUSSE, REGROUPEMENT DES PARENTS DE PERSONNES HANDICAPEES DU GRAND CHATEAUGUAY", "designationCode": "C", "categoryCode": "09", "address": "104 - 10 RUE LEVESQUE", "city": "SAINT-CONSTANT", "province": "QC", "country": "CA", "postalCode": "J5A0G3", "twitter": "None", "instagram": "None", "facebook": "None", "youtube": "None", "website": "None", "summary": "None", "logo": "None", "latitude": 45.377752683045735, "longitude": -73.56225909342697}, "119007060RR0001": {"name": "LA RESIDENCE \"JOIE DE VIVRE\" INC.", "designationCode": "C", "categoryCode": "01", "address": "5800 DIXON ST                 UNIT 100", "city": "NIAGARA FALLS", "province": "ON", "country": "CA", "postalCode": "L2G2L1", "twitter": "None", "instagram": "None", "facebook": "None", "youtube": "None", "website": "None", "summary": "None", "logo": "None", "latitude": 43.080876527843834, "longitude": -79.08988925422706}, "130782543RR0001": {"name": "LA RESIDENCE CARPE DIEM INC", "designationCode": "C", "categoryCode": "01", "address": "845 LIPPMANN", "city": "LAVAL", "province": "QC", "country": "CA", "postalCode": "H7S1G3", "twitter": "None", "instagram": "None", "facebook": "None", "youtube": "None", "website": "None", "summary": "None", "logo": "None", "latitude": 45.57882460534355, "longitude": -73.72436725702568}, "892485566RR0001": {"name": "LA RESIDENCE DES A\u00ceNES DE ST-ALEXANDRE", "designationCode": "C", "categoryCode": "01", "address": "723, ROUTE 289                C.P. 12", "city": "ST-ALEXANDRE-DE-KAMOURASKA", "province": "QC", "country": "CA", "postalCode": "G0L2G0", "twitter": "None", "instagram": "None", "facebook": "None", "youtube": "None", "website": "None", "summary": "None", "logo": "None", "latitude": 47.682700595939664, "longitude": -69.62398020235555}, "886770882RR0001": {"name": "LA RESIDENCE DU VERGER INC", "designationCode": "C", "categoryCode": "01", "address": "46 AVE DU BOCAGE APP.:1702", "city": "SAINTE-MARIE BEAUCE", "province": "QC", "country": "CA", "postalCode": "G6E0B1", "twitter": "None", "instagram": "None", "facebook": "None", "youtube": "None", "website": "None", "summary": "None", "logo": "None", "latitude": 46.43935632597381, "longitude": -71.01633453812961}, "132452962RR0001": {"name": "LA RESIDENCE FULFORD-FULFORD RESIDENCE", "designationCode": "C", "categoryCode": "01", "address": "1221 GUY STREET", "city": "MONTREAL", "province": "QC", "country": "CA", "postalCode": "H3H2K8", "twitter": "None", "instagram": "None", "facebook": "None", "youtube": "None", "website": "None", "summary": "None", "logo": "None", "latitude": 45.49460617765005, "longitude": -73.57675162265579}, "141640912RR0001": {"name": "LA RESIDENCE MARCELLE-MALLET", "designationCode": "C", "categoryCode": "01", "address": "91, RUE DU MANOIR EST", "city": "CAP-SAINT-IGNACE", "province": "QC", "country": "CA", "postalCode": "G0R1H0", "twitter": "None", "instagram": "None", "facebook": "None", "youtube": "None", "website": "None", "summary": "None", "logo": "None", "latitude": 47.03825130948111, "longitude": -70.45654200600127}, "133348623RR0001": {"name": "LA RESIDENCE ST-JOSEPH (BAIE-COMEAU) INC.", "designationCode": "C", "categoryCode": "57", "address": "239, CHEMIN PRINCIPAL", "city": "POINTE-AUX-OUTARDES", "province": "QC", "country": "CA", "postalCode": "G0H1M0", "twitter": "None", "instagram": "None", "facebook": "None", "youtube": "None", "website": "None", "summary": "None", "logo": "None", "latitude": 49.108467959900146, "longitude": -68.38276477017067}, "895546513RR0001": {"name": "LA RESSOURCE ATP GROUPES DE SOUTIEN POUR PERSONNES ANXIEUSES ET TROUBLE PANIQUE", "designationCode": "C", "categoryCode": "11", "address": "101-485 BOUL. DES LAURENTIDES", "city": "LAVAL", "province": "QC", "country": "CA", "postalCode": "H7G2V2", "twitter": "None", "instagram": "None", "facebook": "None", "youtube": "None", "website": "None", "summary": "None", "logo": "None", "latitude": 45.570103766547646, "longitude": -73.69177247481055}, "140112558RR0001": {"name": "LA RESSOURCERIE DE LAC SAINT-CHARLES", "designationCode": "C", "categoryCode": "09", "address": "1530 AV DU LAC-SAINT-CHARLES", "city": "QUEBEC", "province": "QC", "country": "CA", "postalCode": "G3G2W3", "twitter": "None", "instagram": "None", "facebook": "None", "youtube": "None", "website": "None", "summary": "None", "logo": "None", "latitude": 46.91205049538372, "longitude": -71.37887369464424}, "878182567RR0001": {"name": "LA RESSOURCERIE DE LOTBINIERE", "designationCode": "C", "categoryCode": "09", "address": "108 - 170 BOUL LAURIER", "city": "LAURIER-STATION", "province": "QC", "country": "CA", "postalCode": "G0S1N0", "twitter": "None", "instagram": "None", "facebook": "None", "youtube": "None", "website": "None", "summary": "None", "logo": "None", "latitude": 46.54260338891407, "longitude": -71.62915716737827}, "130870678RR0001": {"name": "LA REVUE DE DROIT DE MCGILL / THE MCGILL LAW JOURNAL", "designationCode": "C", "categoryCode": "21", "address": "3644 PEEL STREET", "city": "MONTREAL", "province": "QC", "country": "CA", "postalCode": "H3A1W9", "twitter": "None", "instagram": "None", "facebook": "None", "youtube": "None", "website": "None", "summary": "None", "logo": "None", "latitude": 45.503635916700574, "longitude": -73.58013472762397}, "119118156RR0001": {"name": "LA REVUE NOTRE-DAME-DU-CAP", "designationCode": "C", "categoryCode": "47", "address": "626 RUE NOTRE-DAME EST", "city": "TROIS-RIVIERES", "province": "QC", "country": "CA", "postalCode": "G8T4G9", "twitter": "None", "instagram": "None", "facebook": "None", "youtube": "None", "website": "None", "summary": "None", "logo": "None", "latitude": 46.370717696087496, "longitude": -72.49794364946044}, "123389207RR0001": {"name": "LA REVUE SEQUENCES", "designationCode": "C", "categoryCode": "22", "address": "3 RUE DE LA VIEILLE UNIVERSIT\u00c9", "city": "QU\u00c9BEC", "province": "QC", "country": "CA", "postalCode": "G1R5K1", "twitter": "None", "instagram": "None", "facebook": "None", "youtube": "None", "website": "None", "summary": "None", "logo": "None", "latitude": 46.81538563113856, "longitude": -71.20470859325408}, "119118495RR0001": {"name": "LA RIBAMBELLE, CENTRE PRESCOLAIRE FRANCOPHONE DE LONDON", "designationCode": "C", "categoryCode": "20", "address": "403 SPRINGBANK DRIVE", "city": "LONDON", "province": "ON", "country": "CA", "postalCode": "N6J1G7", "twitter": "None", "instagram": "None", "facebook": "None", "youtube": "None", "website": "None", "summary": "None", "logo": "None", "latitude": 42.9684559189796, "longitude": -81.28317368278593}, "119121291RR0001": {"name": "LA RIVIERE & COMMUNITY RECREATION ASSOCIATION INC.", "designationCode": "C", "categoryCode": "56", "address": "BOX 29", "city": "LA RIVIERE", "province": "MB", "country": "CA", "postalCode": "R0G1A0", "twitter": "None", "instagram": "None", "facebook": "None", "youtube": "None", "website": "None", "summary": "None", "logo": "None", "latitude": 49.20544052720715, "longitude": -98.90196424638646}, "889067567RR0001": {"name": "LA RIVIERE DE DIEU", "designationCode": "C", "categoryCode": "47", "address": "991 BOWEN SUD", "city": "SHERBROOKE", "province": "QC", "country": "CA", "postalCode": "J1G2G5", "twitter": "None", "instagram": "None", "facebook": "None", "youtube": "None", "website": "None", "summary": "None", "logo": "None", "latitude": 45.39205530806748, "longitude": -71.87437328908176}, "119007086RR0001": {"name": "LA RIVIERE LODGE INC", "designationCode": "C", "categoryCode": "09", "address": "416 CHRISTIE STREET           P.O. BOX 13", "city": "LA RIVIERE", "province": "MB", "country": "CA", "postalCode": "R0G1A0", "twitter": "None", "instagram": "None", "facebook": "None", "youtube": "None", "website": "None", "summary": "None", "logo": "None", "latitude": 49.237141123408286, "longitude": -98.67893673162453}, "894211879RR0001": {"name": "LA RONGE & AREA MUSIC FESTIVAL INC.", "designationCode": "C", "categoryCode": "22", "address": "P.O. BOX 1258", "city": "LA RONGE", "province": "SK", "country": "CA", "postalCode": "S0J1L0", "twitter": "None", "instagram": "None", "facebook": "None", "youtube": "None", "website": "None", "summary": "None", "logo": "None", "latitude": 55.104968852218384, "longitude": -105.2789552305204}, "107598302RR0001": {"name": "LA RONGE CHILD CARE CO-OPERATIVE", "designationCode": "C", "categoryCode": "01", "address": "P O BOX 167", "city": "LA RONGE", "province": "SK", "country": "CA", "postalCode": "S0J1L0", "twitter": "None", "instagram": "None", "facebook": "None", "youtube": "None", "website": "None", "summary": "None", "logo": "None", "latitude": 55.104968852218384, "longitude": -105.2789552305204}, "119007201RR0001": {"name": "LA RONGE LUTHERAN FELLOWSHIP", "designationCode": "C", "categoryCode": "32", "address": "BOX 207", "city": "LA RONGE", "province": "SK", "country": "CA", "postalCode": "S0J1L0", "twitter": "None", "instagram": "None", "facebook": "None", "youtube": "None", "website": "None", "summary": "None", "logo": "None", "latitude": 55.104968852218384, "longitude": -105.2789552305204}, "123747941RR0001": {"name": "LA RONGE NATIVE WOMENS COUNCIL INC", "designationCode": "C", "categoryCode": "01", "address": "PO BOX 888", "city": "LA RONGE", "province": "SK", "country": "CA", "postalCode": "S0J1L0", "twitter": "None", "instagram": "None", "facebook": "None", "youtube": "None", "website": "None", "summary": "None", "logo": "None", "latitude": 55.104968852218384, "longitude": -105.2789552305204}, "107598393RR0001": {"name": "LA RONGE PASTORAL CHARGE", "designationCode": "C", "categoryCode": "44", "address": "BOX 85", "city": "LA RONGE", "province": "SK", "country": "CA", "postalCode": "S0J1L0", "twitter": "None", "instagram": "None", "facebook": "None", "youtube": "None", "website": "None", "summary": "None", "logo": "None", "latitude": 55.104968852218384, "longitude": -105.2789552305204}, "890089741RR0001": {"name": "LA RONGE PUBLIC LIBRARY BOARD", "designationCode": "C", "categoryCode": "50", "address": "BOX 5680", "city": "LA RONGE", "province": "SK", "country": "CA", "postalCode": "S0J1L0", "twitter": "None", "instagram": "None", "facebook": "None", "youtube": "None", "website": "None", "summary": "None", "logo": "None", "latitude": 55.104968852218384, "longitude": -105.2789552305204}, "809304140RR0001": {"name": "LA RONGE SENIOR CITIZEN'S CLUB INC.", "designationCode": "C", "categoryCode": "56", "address": "1516 LA RONGE AVE             BOX 688", "city": "LA RONGE", "province": "SK", "country": "CA", "postalCode": "S0J1L0", "twitter": "None", "instagram": "None", "facebook": "None", "youtube": "None", "website": "None", "summary": "None", "logo": "None", "latitude": 55.106024311962614, "longitude": -105.27653818373823}, "106733264RR0001": {"name": "LA ROSE BLEUE: ASSOCIATION DES PERSONNES HANDICAPEES DES MOULINS", "designationCode": "C", "categoryCode": "11", "address": "2904 RUE DUPRAS", "city": "MASCOUCHE", "province": "QC", "country": "CA", "postalCode": "J7K1T2", "twitter": "None", "instagram": "None", "facebook": "None", "youtube": "None", "website": "None", "summary": "None", "logo": "None", "latitude": 45.74731011904912, "longitude": -73.60437940412018}, "119123420RR0001": {"name": "LA ROSE DES VENTS DE DRUMMOND INC.", "designationCode": "C", "categoryCode": "01", "address": "C.P. 396", "city": "DRUMMONDVILLE", "province": "QC", "country": "CA", "postalCode": "J2B6W3", "twitter": "None", "instagram": "None", "facebook": "None", "youtube": "None", "website": "None", "summary": "None", "logo": "None", "latitude": 45.88082700000005, "longitude": -72.48417199999993}, "836175166RR0001": {"name": "LA ROSELIERE", "designationCode": "C", "categoryCode": "09", "address": "955 AVENUE DE BIENVILLE", "city": "QUEBEC", "province": "QC", "country": "CA", "postalCode": "G1S3C1", "twitter": "None", "instagram": "None", "facebook": "None", "youtube": "None", "website": "None", "summary": "None", "logo": "None", "latitude": 46.79880299999999, "longitude": -71.237601}, "896772126RR0001": {"name": "LA ROUTE DE L'ESPOIR / THE ROAD TO HOPE", "designationCode": "C", "categoryCode": "10", "address": "1665 RUE SAINTE-CATHERINE O", "city": "MONTREAL", "province": "QC", "country": "CA", "postalCode": "H3H1L9", "twitter": "None", "instagram": "None", "facebook": "None", "youtube": "None", "website": "None", "summary": "None", "logo": "None", "latitude": 45.494052630330515, "longitude": -73.57903145729675}, "120601794RR0001": {"name": "LA RUCHE AIRE OUVERTE INC", "designationCode": "C", "categoryCode": "09", "address": "690 RUE DE MONSEIGNEUR-PANET  BUREAU 107", "city": "NICOLET", "province": "QC", "country": "CA", "postalCode": "J3T1W1", "twitter": "None", "instagram": "None", "facebook": "None", "youtube": "None", "website": "None", "summary": "None", "logo": "None", "latitude": 46.22988447988997, "longitude": -72.61078254828931}, "107598948RR0001": {"name": "LA RUCHE DE ST-ROMUALD INC.", "designationCode": "C", "categoryCode": "09", "address": "1683 RUE LAVOISIER", "city": "LEVIS", "province": "QC", "country": "CA", "postalCode": "G6W2H9", "twitter": "None", "instagram": "None", "facebook": "None", "youtube": "None", "website": "None", "summary": "None", "logo": "None", "latitude": 46.7457664856602, "longitude": -71.2509233876733}, "878572569RR0001": {"name": "LA RUCHE ST-DAMIEN", "designationCode": "C", "categoryCode": "09", "address": "7221 CH. BEAULIEU", "city": "SAINT-DAMIEN DE BRANDON", "province": "QC", "country": "CA", "postalCode": "J0K2E0", "twitter": "None", "instagram": "None", "facebook": "None", "youtube": "None", "website": "None", "summary": "None", "logo": "None", "latitude": 46.33772095977827, "longitude": -73.48645999440276}, "107598963RR0001": {"name": "LA RUCHE VANIER INC.", "designationCode": "C", "categoryCode": "59", "address": "261 CHANOINE COTE", "city": "VANIER", "province": "QC", "country": "CA", "postalCode": "G1M3J1", "twitter": "None", "instagram": "None", "facebook": "None", "youtube": "None", "website": "None", "summary": "None", "logo": "None", "latitude": 46.815894272548924, "longitude": -71.25703517943906}, "141242180RR0001": {"name": "LA RUE DES FEMMES DE MONTREAL", "designationCode": "C", "categoryCode": "09", "address": "HERSTREET                     1050 RUE JEANNE-MANCE", "city": "MONTREAL", "province": "QC", "country": "CA", "postalCode": "H2Z1L7", "twitter": "None", "instagram": "None", "facebook": "None", "youtube": "None", "website": "None", "summary": "None", "logo": "None", "latitude": 45.50533295392121, "longitude": -73.5622461350337}, "835520529RR0001": {"name": "LA SAINTE-FAMILLE", "designationCode": "C", "categoryCode": "09", "address": "3 - 1519 RUE BELLEVUE", "city": "GREENFIELD PARK", "province": "QC", "country": "CA", "postalCode": "J4V3L5", "twitter": "None", "instagram": "None", "facebook": "None", "youtube": "None", "website": "None", "summary": "None", "logo": "None", "latitude": 45.48477014184304, "longitude": -73.44806172900894}, "880255229RR0001": {"name": "LA SALLE COMMUNITY FELLOWSHIP", "designationCode": "C", "categoryCode": "34", "address": "BOX 750", "city": "LA SALLE", "province": "MB", "country": "CA", "postalCode": "R0G1B0", "twitter": "None", "instagram": "None", "facebook": "None", "youtube": "None", "website": "None", "summary": "None", "logo": "None", "latitude": 49.69361400000005, "longitude": -97.26465049999993}, "104695630RR0001": {"name": "LA SALLE D'ASSEMBLEE DES TEMOINS DE JEHOVAH DE MONTREAL INC.MONTREAL ASSEMBLY HALL OF JEHOVAH'S WITNESSES INC.", "designationCode": "C", "categoryCode": "61", "address": "12700 BOUL METROPOLITAIN EST", "city": "MONTREAL", "province": "QC", "country": "CA", "postalCode": "H1A4A7", "twitter": "None", "instagram": "None", "facebook": "None", "youtube": "None", "website": "None", "summary": "None", "logo": "None", "latitude": 45.65575326121796, "longitude": -73.52099767361118}, "895207637RR0001": {"name": "LA SALLE MANOR", "designationCode": "C", "categoryCode": "01", "address": "101 MASON BLVD", "city": "NORTH YORK", "province": "ON", "country": "CA", "postalCode": "M5M3E2", "twitter": "None", "instagram": "None", "facebook": "None", "youtube": "None", "website": "None", "summary": "None", "logo": "None", "latitude": 43.74092769917456, "longitude": -79.41138910886426}, "863346284RR0001": {"name": "LA SALLE REDBOINE CONSERVATION DISTRICT", "designationCode": "C", "categoryCode": "52", "address": "109 BROADWAY STREET           P. O. BOX 220", "city": "HOLLAND", "province": "MB", "country": "CA", "postalCode": "R0G0X0", "twitter": "None", "instagram": "None", "facebook": "None", "youtube": "None", "website": "None", "summary": "None", "logo": "None", "latitude": 49.594758435138985, "longitude": -98.87811097949802}, "884388844RR0001": {"name": "LA SALLE SCHOOL PARENT ADVISORY COUNCIL", "designationCode": "C", "categoryCode": "21", "address": "38 MEDINAH DRIVE", "city": "LA SALLE", "province": "MB", "country": "CA", "postalCode": "R0G0A1", "twitter": "None", "instagram": "None", "facebook": "None", "youtube": "None", "website": "None", "summary": "None", "logo": "None", "latitude": 49.6815070462201, "longitude": -97.30174083590214}, "856106737RR0001": {"name": "LA SAMARITAINE DE MONT-TREMBLANT", "designationCode": "C", "categoryCode": "09", "address": "120 CHEMIN DE BREBEUF         C.P.4438", "city": "MONT-TREMBLANT", "province": "QC", "country": "CA", "postalCode": "J8E1A1", "twitter": "None", "instagram": "None", "facebook": "None", "youtube": "None", "website": "None", "summary": "None", "logo": "None", "latitude": 46.10939372690283, "longitude": -74.60849166475253}, "141996579RR0001": {"name": "LA SCENE MUSICALE", "designationCode": "C", "categoryCode": "22", "address": "5409 WAVERLY", "city": "MONTREAL", "province": "QC", "country": "CA", "postalCode": "H2T2X8", "twitter": "None", "instagram": "None", "facebook": "None", "youtube": "None", "website": "None", "summary": "None", "logo": "None", "latitude": 45.523723232038726, "longitude": -73.59970987800803}, "119007334RR0002": {"name": "LA SCIE PASTORAL CHARGE", "designationCode": "C", "categoryCode": "44", "address": "BOX 155", "city": "LASCIE", "province": "NL", "country": "CA", "postalCode": "A0K3M0", "twitter": "None", "instagram": "None", "facebook": "None", "youtube": "None", "website": "None", "summary": "None", "logo": "None"}, "132398876RR0001": {"name": "LA SCIENCE DE LA SPIRITUALITE SKRM INC / SCIENCE OF SPIRITUALITY SKRM INC", "designationCode": "C", "categoryCode": "49", "address": "1 - 175 ADVANCE BLVD", "city": "BRAMPTON", "province": "ON", "country": "CA", "postalCode": "L6T4J1", "twitter": "None", "instagram": "None", "facebook": "None", "youtube": "None", "website": "None", "summary": "None", "logo": "None", "latitude": 43.69288723339502, "longitude": -79.69344062499306}, "897313508RR0001": {"name": "LA SECURITE ALIMENTAIRE", "designationCode": "C", "categoryCode": "09", "address": "59, RUE MONFETTE              LOCAL 007", "city": "VICTORIAVILLE", "province": "QC", "country": "CA", "postalCode": "G6P1J8", "twitter": "None", "instagram": "None", "facebook": "None", "youtube": "None", "website": "None", "summary": "None", "logo": "None", "latitude": 46.06164779188039, "longitude": -71.9668892342031}, "107599151RR0001": {"name": "LA SEJOURNELLE (MAISON D'AIDE ET D'HEBERGEMENT POUR FEMMES VICTIMES DE VIOLENCE CONJUGALE, AVEC OU SANS ENFANTS)", "designationCode": "C", "categoryCode": "01", "address": "C.P. 92", "city": "SHAWINIGAN", "province": "QC", "country": "CA", "postalCode": "G9N6T8", "twitter": "None", "instagram": "None", "facebook": "None", "youtube": "None", "website": "None", "summary": "None", "logo": "None", "latitude": 46.58631198082979, "longitude": -72.70454260064984}, "853668945RR0001": {"name": "LA SEMENCE DE VIE", "designationCode": "C", "categoryCode": "39", "address": "27 YELLOWKNIFE RD", "city": "BRAMPTON", "province": "ON", "country": "CA", "postalCode": "L6R3X3", "twitter": "None", "instagram": "None", "facebook": "None", "youtube": "None", "website": "None", "summary": "None", "logo": "None", "latitude": 43.760889535374304, "longitude": -79.7847165905997}, "890264864RR0001": {"name": "LA SENDA DEL AMOR REFORMED CHURCH", "designationCode": "C", "categoryCode": "49", "address": "176 MAPLE LEAF DRIVE", "city": "TORONTO", "province": "ON", "country": "CA", "postalCode": "M6L1N8", "twitter": "None", "instagram": "None", "facebook": "None", "youtube": "None", "website": "None", "summary": "None", "logo": "None", "latitude": 43.71091713240797, "longitude": -79.49744989967677}, "818582025RR0001": {"name": "LA SERRE arts vivants", "designationCode": "C", "categoryCode": "22", "address": "1182, BOUL. SAINT-LAURENT", "city": "MONTREAL", "province": "QC", "country": "CA", "postalCode": "H2X2S5", "twitter": "None", "instagram": "None", "facebook": "None", "youtube": "None", "website": "None", "summary": "None", "logo": "None", "latitude": 45.509117847885186, "longitude": -73.56225593562802}, "888936473RR0001": {"name": "LA SINFONIA INC. (ORCHESTRE DE CHAMBRE)", "designationCode": "C", "categoryCode": "22", "address": "1248 RUE ALBERT-LOZEAU", "city": "QUEBEC", "province": "QC", "country": "CA", "postalCode": "G1T1H4", "twitter": "None", "instagram": "None", "facebook": "None", "youtube": "None", "website": "None", "summary": "None", "logo": "None", "latitude": 46.773587201483174, "longitude": -71.27004952717999}, "119184802RR0001": {"name": "LA SOCI\u00c9T\u00c9 CHORALE DE ST-LAMBERT INC. / ST-LAMBERT CHORAL SOCIETY INC.", "designationCode": "C", "categoryCode": "22", "address": "C.P. 36546", "city": "SAINT-LAMBERT", "province": "QC", "country": "CA", "postalCode": "J4P3S8", "twitter": "None", "instagram": "None", "facebook": "None", "youtube": "None", "website": "None", "summary": "None", "logo": "None", "latitude": 45.506400000000056, "longitude": -73.50532099999994}, "107397317RR0001": {"name": "LA SOCI\u00c9T\u00c9 D'HABITATION DE ROGERSVILLE INC.", "designationCode": "C", "categoryCode": "01", "address": "62 RUE L'ASSUMPTION", "city": "ROGERSVILLE", "province": "NB", "country": "CA", "postalCode": "E4Y1S5", "twitter": "None", "instagram": "None", "facebook": "None", "youtube": "None", "website": "None", "summary": "None", "logo": "None", "latitude": 46.73473422550693, "longitude": -65.42605127449308}, "119007854RR0001": {"name": "LA SOCI\u00c9T\u00c9 D'HISTOIRE DE CHARLESBOURG", "designationCode": "C", "categoryCode": "52", "address": "7655 CH SAMUEL", "city": "QUEBEC", "province": "QC", "country": "CA", "postalCode": "G1H7H4", "twitter": "None", "instagram": "None", "facebook": "None", "youtube": "None", "website": "None", "summary": "None", "logo": "None", "latitude": 46.860574471579255, "longitude": -71.26716805384041}, "107599599RR0001": {"name": "LA SOCI\u00c9T\u00c9 D'HISTOIRE ET D'ARCH\u00c9OLOGIE DU T\u00c9MISCOUATA INC.", "designationCode": "C", "categoryCode": "52", "address": "81 RUE CALDWELL               RR 1", "city": "CABANO", "province": "QC", "country": "CA", "postalCode": "G0L1E0", "twitter": "None", "instagram": "None", "facebook": "None", "youtube": "None", "website": "None", "summary": "None", "logo": "None", "latitude": 47.69171866936711, "longitude": -68.90269952506392}, "886191782RR0001": {"name": "LA SOCI\u00c9T\u00c9 DE SAINT-VINCENT DE PAUL D'AYLMER (CONSEIL PARTICULIER)", "designationCode": "C", "categoryCode": "09", "address": "CP 110 PDF AYLMER", "city": "GATINEAU", "province": "QC", "country": "CA", "postalCode": "J9H5E4", "twitter": "None", "instagram": "None", "facebook": "None", "youtube": "None", "website": "None", "summary": "None", "logo": "None", "latitude": 45.403180979312346, "longitude": -75.79808429804527}, "107599573RR0001": {"name": "LA SOCI\u00c9T\u00c9 DE SAINT-VINCENT DE PAUL DE MONTR\u00c9AL", "designationCode": "C", "categoryCode": "09", "address": "1930 RUE DE CHAMPLAIN", "city": "MONTREAL", "province": "QC", "country": "CA", "postalCode": "H2L2S8", "twitter": "None", "instagram": "None", "facebook": "None", "youtube": "None", "website": "None", "summary": "None", "logo": "None", "latitude": 45.52464187342041, "longitude": -73.5591233802584}, "897830873RR0001": {"name": "LA SOCI\u00c9T\u00c9 DES PARCS DE SCIENCES NATURELLES DU QU\u00c9BEC", "designationCode": "C", "categoryCode": "50", "address": "1300-2640 BOUL LAURIER", "city": "QU\u00c9BEC", "province": "QC", "country": "CA", "postalCode": "G1V5C2", "twitter": "None", "instagram": "None", "facebook": "None", "youtube": "None", "website": "None", "summary": "None", "logo": "None", "latitude": 46.77047587215123, "longitude": -71.28238051072985}, "888934197RR0001": {"name": "LA SOCI\u00c9T\u00c9 DES SAL\u00c9SIENS DU CANADA / THE SOCIETY OF THE SALESIANS OF CANADA", "designationCode": "C", "categoryCode": "38", "address": "11991 AVE PIERRE BAILLARGEON", "city": "MONTREAL", "province": "QC", "country": "CA", "postalCode": "H1E2E5", "twitter": "None", "instagram": "None", "facebook": "None", "youtube": "None", "website": "None", "summary": "None", "logo": "None", "latitude": 45.64103650265439, "longitude": -73.57619208364615}, "119222008RR0001": {"name": "LA SOCI\u00c9T\u00c9 HISTORIQUE DE LA VALL\u00c9E DE CHATEAUGUAY / THE CHATEAUGUAY VALLEY HISTORICAL SOCIETY", "designationCode": "C", "categoryCode": "52", "address": "PO BOX 61", "city": "HOWICK", "province": "QC", "country": "CA", "postalCode": "J0S1G0", "twitter": "None", "instagram": "None", "facebook": "None", "youtube": "None", "website": "None", "summary": "None", "logo": "None", "latitude": 45.18623000000008, "longitude": -73.84894999999995}, "119219954RR0001": {"name": "LA SOCI\u00c9T\u00c9 POUR LA PR\u00c9VENTION DE LA CRUAUT\u00c9 ENVERS LES ANIMAUX (CANADIENNE)/THE CANADIAN SOCIETY FOR THE PREVENTION OF CRUELTY TO ANIMALS", "designationCode": "C", "categoryCode": "54", "address": "5215 RUE JEAN-TALON OUEST", "city": "MONTREAL", "province": "QC", "country": "CA", "postalCode": "H4P1X4", "twitter": "None", "instagram": "None", "facebook": "None", "youtube": "None", "website": "None", "summary": "None", "logo": "None", "latitude": 45.49561214435322, "longitude": -73.65165134600926}, "131830549RR0001": {"name": "LA SOCIETE ACCUEIL-JEUNESSE LANAUDIERE INC", "designationCode": "C", "categoryCode": "01", "address": "1094 MANSEAU", "city": "JOLIETTE", "province": "QC", "country": "CA", "postalCode": "J6E3G8", "twitter": "None", "instagram": "None", "facebook": "None", "youtube": "None", "website": "None", "summary": "None", "logo": "None", "latitude": 46.01769773440465, "longitude": -73.45047872733551}, "885747691RR0001": {"name": "LA SOCIETE ALZHEIMER CHAUDIERE-APPALACHES", "designationCode": "C", "categoryCode": "11", "address": "C.P. 1", "city": "STE-MARIE", "province": "QC", "country": "CA", "postalCode": "G6E3B4", "twitter": "None", "instagram": "None", "facebook": "None", "youtube": "None", "website": "None", "summary": "None", "logo": "None", "latitude": 46.46906700000005, "longitude": -71.03760199999994}}