{"839857232RR0001": {"name": "Klassen Foundation", "designationCode": "B", "categoryCode": "03", "address": "POST OFFICE BOX               8000 - 544", "city": "ABBOTSFORD", "province": "BC", "country": "CA", "postalCode": "V2S6H1", "twitter": "None", "instagram": "None", "facebook": "None", "youtube": "None", "website": "None", "summary": "None", "logo": "None", "latitude": 49.03851300000005, "longitude": -122.29441549999993}, "825075385RR0001": {"name": "Kleos Microfinance Group Ltd.", "designationCode": "C", "categoryCode": "09", "address": "1400 - 350 7 AVE SW", "city": "CALGARY", "province": "AB", "country": "CA", "postalCode": "T2P3N9", "twitter": "None", "instagram": "None", "facebook": "None", "youtube": "None", "website": "None", "summary": "None", "logo": "None", "latitude": 51.04682342625144, "longitude": -114.07570373231476}, "854847332RR0001": {"name": "Klondike Trail Search and Rescue Association", "designationCode": "C", "categoryCode": "59", "address": "P.O. BOX 4854", "city": "BARRHEAD", "province": "AB", "country": "CA", "postalCode": "T7N1A6", "twitter": "None", "instagram": "None", "facebook": "None", "youtube": "None", "website": "None", "summary": "None", "logo": "None", "latitude": 54.12098400000005, "longitude": -114.40600999999992}, "812666410RR0001": {"name": "Kneehill Area Wellness Centre", "designationCode": "C", "categoryCode": "11", "address": "PO BOX 2847", "city": "THREE HILLS", "province": "AB", "country": "CA", "postalCode": "T0M2A0", "twitter": "None", "instagram": "None", "facebook": "None", "youtube": "None", "website": "None", "summary": "None", "logo": "None", "latitude": 52.38329400000001, "longitude": -114.606927}, "805319704RR0001": {"name": "Knelson Family Foundation", "designationCode": "B", "categoryCode": "03", "address": "SUITE 444                     505-8840 210 STREET", "city": "LANGLEY", "province": "BC", "country": "CA", "postalCode": "V1M2Y2", "twitter": "None", "instagram": "None", "facebook": "None", "youtube": "None", "website": "None", "summary": "None", "logo": "None", "latitude": 49.16302383374691, "longitude": -122.63764805816916}, "808417042RR0001": {"name": "Knight's Cabin Medical Retreat", "designationCode": "C", "categoryCode": "01", "address": "PO BOX 8524 STN MAIN", "city": "CANMORE", "province": "AB", "country": "CA", "postalCode": "T1W2V2", "twitter": "None", "instagram": "None", "facebook": "None", "youtube": "None", "website": "None", "summary": "None", "logo": "None", "latitude": 51.08922900000002, "longitude": -115.35869075104875}, "854266129RR0001": {"name": "Knights and Ladies of Kaleva Inc.", "designationCode": "C", "categoryCode": "21", "address": "P.O. BOX 652 STN B", "city": "SUDBURY", "province": "ON", "country": "CA", "postalCode": "P3E4P8", "twitter": "None", "instagram": "None", "facebook": "None", "youtube": "None", "website": "None", "summary": "None", "logo": "None", "latitude": 46.48958700000006, "longitude": -80.99011249999994}, "136828480RR0001": {"name": "Know Thyself As Soul Foundation", "designationCode": "C", "categoryCode": "39", "address": "PO BOX 1058 STN MAIN", "city": "OWEN SOUND", "province": "ON", "country": "CA", "postalCode": "N4K6K6", "twitter": "None", "instagram": "None", "facebook": "None", "youtube": "None", "website": "None", "summary": "None", "logo": "None", "latitude": 44.56423500000005, "longitude": -80.94243049999993}, "823852793RR0001": {"name": "Knowledge Empowering Youth Canada", "designationCode": "B", "categoryCode": "21", "address": "3740-77 KING STREET WEST", "city": "TORONTO", "province": "ON", "country": "CA", "postalCode": "M5K1G8", "twitter": "None", "instagram": "None", "facebook": "None", "youtube": "None", "website": "None", "summary": "None", "logo": "None", "latitude": 43.65297695366795, "longitude": -79.36278576296198}, "121532816RR0001": {"name": "Knowledge Network Corporation", "designationCode": "C", "categoryCode": "20", "address": "4355 MATHISSI PLACE", "city": "BURNABY", "province": "BC", "country": "CA", "postalCode": "V5G4S8", "twitter": "None", "instagram": "None", "facebook": "None", "youtube": "None", "website": "None", "summary": "None", "logo": "None", "latitude": 49.24579846849217, "longitude": -123.00522488455756}, "106951098RR0001": {"name": "Knox Christian Reformed Church", "designationCode": "C", "categoryCode": "39", "address": "BOX 518", "city": "COCHRANE", "province": "ON", "country": "CA", "postalCode": "P0L1C0", "twitter": "None", "instagram": "None", "facebook": "None", "youtube": "None", "website": "None", "summary": "None", "logo": "None", "latitude": 49.07076000000005, "longitude": -81.00274849999994}, "118984681RR0001": {"name": "Knox Christian School Society", "designationCode": "C", "categoryCode": "20", "address": "410 NORTH SCUGOG COURT", "city": "BOWMANVILLE", "province": "ON", "country": "CA", "postalCode": "L1C3K2", "twitter": "None", "instagram": "None", "facebook": "None", "youtube": "None", "website": "None", "summary": "None", "logo": "None", "latitude": 43.93066981398275, "longitude": -78.708282564862}, "118985977RR0001": {"name": "Knox Presbyterian Church - Bassano", "designationCode": "C", "categoryCode": "37", "address": "PO BOX 566", "city": "BASSANO", "province": "AB", "country": "CA", "postalCode": "T0J0B0", "twitter": "None", "instagram": "None", "facebook": "None", "youtube": "None", "website": "None", "summary": "None", "logo": "None", "latitude": 50.783420000000035, "longitude": -112.46853999999996}, "131000887RR0001": {"name": "Knox Price House Incorporated", "designationCode": "C", "categoryCode": "09", "address": "PO BOX 606                    135 BAYFIELD ST", "city": "BARRIE", "province": "ON", "country": "CA", "postalCode": "L4M4V1", "twitter": "None", "instagram": "None", "facebook": "None", "youtube": "None", "website": "None", "summary": "None", "logo": "None", "latitude": 44.39320704968547, "longitude": -79.69345670009818}, "846394922RR0001": {"name": "Kocihta", "designationCode": "C", "categoryCode": "29", "address": "2 - 2510 JASPER AVE", "city": "SASKATOON", "province": "SK", "country": "CA", "postalCode": "S7J2K2", "twitter": "None", "instagram": "None", "facebook": "None", "youtube": "None", "website": "None", "summary": "None", "logo": "None", "latitude": 52.09693545931691, "longitude": -106.6680681542496}, "118986686RR0001": {"name": "Kodaly Society of Canada / Soci\u00e9t\u00e9 Kodaly du Canada", "designationCode": "C", "categoryCode": "22", "address": "48 RED FERN TERRACE", "city": "HALIFAX", "province": "NS", "country": "CA", "postalCode": "B3S1K8", "twitter": "None", "instagram": "None", "facebook": "None", "youtube": "None", "website": "None", "summary": "None", "logo": "None", "latitude": 44.67106349321933, "longitude": -63.672411525535225}, "807188933RR0001": {"name": "Koffischildren Organization Inc.", "designationCode": "C", "categoryCode": "01", "address": "L178-1485 PORTAGE AVE         P.O.BOX 33028", "city": "WINNIPEG", "province": "MB", "country": "CA", "postalCode": "R3G0W4", "twitter": "None", "instagram": "None", "facebook": "None", "youtube": "None", "website": "None", "summary": "None", "logo": "None", "latitude": 49.880997812268006, "longitude": -97.19821292599467}, "842837817RR0001": {"name": "Koffler Centre of the Arts", "designationCode": "C", "categoryCode": "22", "address": "104 - 180 SHAW ST", "city": "TORONTO", "province": "ON", "country": "CA", "postalCode": "M6J2W5", "twitter": "None", "instagram": "None", "facebook": "None", "youtube": "None", "website": "None", "summary": "None", "logo": "None", "latitude": 43.64695199694158, "longitude": -79.41723599933617}, "856517057RR0001": {"name": "Koffler Centre of the Arts Foundation", "designationCode": "A", "categoryCode": "03", "address": "3845 BATHURST ST.             SUITE 402", "city": "TORONTO", "province": "ON", "country": "CA", "postalCode": "M3H3N2", "twitter": "None", "instagram": "None", "facebook": "None", "youtube": "None", "website": "None", "summary": "None", "logo": "None", "latitude": 43.74050890313924, "longitude": -79.4347439533443}, "779878313RR0001": {"name": "Kohly Family Foundation", "designationCode": "B", "categoryCode": "03", "address": "12 ASTLEY AVENUE", "city": "TORONTO", "province": "ON", "country": "CA", "postalCode": "M4W3B4", "twitter": "None", "instagram": "None", "facebook": "None", "youtube": "None", "website": "None", "summary": "None", "logo": "None", "latitude": 43.68817026810554, "longitude": -79.36938595977826}, "844346882RR0001": {"name": "Kolisnek Charity Group Inc.", "designationCode": "C", "categoryCode": "56", "address": "2 MARINA DRIVE", "city": "CANDLE LAKE", "province": "SK", "country": "CA", "postalCode": "S0J3E0", "twitter": "None", "instagram": "None", "facebook": "None", "youtube": "None", "website": "None", "summary": "None", "logo": "None", "latitude": 53.749036175263285, "longitude": -105.27616243884997}, "809162399RR0001": {"name": "Kollel Daf Yomi Institute", "designationCode": "C", "categoryCode": "49", "address": "527 COLDSTREAM AVE", "city": "NORTH YORK", "province": "ON", "country": "CA", "postalCode": "M6B2K7", "twitter": "None", "instagram": "None", "facebook": "None", "youtube": "None", "website": "None", "summary": "None", "logo": "None", "latitude": 43.7144848859139, "longitude": -79.43111653774024}, "834482135RR0001": {"name": "Kollel Derech Chaim", "designationCode": "C", "categoryCode": "42", "address": "5750 PARKHAVEN", "city": "C\u00d4TE-ST-LUC", "province": "QC", "country": "CA", "postalCode": "H4W1X5", "twitter": "None", "instagram": "None", "facebook": "None", "youtube": "None", "website": "None", "summary": "None", "logo": "None", "latitude": 45.4685605053957, "longitude": -73.6658314668474}, "827267709RR0001": {"name": "Kollel Menachem", "designationCode": "C", "categoryCode": "21", "address": "5210 BOURRET", "city": "MONTREAL", "province": "QC", "country": "CA", "postalCode": "H3W1L7", "twitter": "None", "instagram": "None", "facebook": "None", "youtube": "None", "website": "None", "summary": "None", "logo": "None", "latitude": 45.489120789889846, "longitude": -73.63825655410021}, "840986848RR0001": {"name": "Komera Canada", "designationCode": "C", "categoryCode": "21", "address": "1219 MILLER RD", "city": "BOWEN ISLAND", "province": "BC", "country": "CA", "postalCode": "V0N1G1", "twitter": "None", "instagram": "None", "facebook": "None", "youtube": "None", "website": "None", "summary": "None", "logo": "None", "latitude": 49.38908555235437, "longitude": -123.32750839543512}, "118986892RR0001": {"name": "Kompany Theatre Artists Society", "designationCode": "C", "categoryCode": "22", "address": "152 - 11007 JASPER AVE NW", "city": "EDMONTON", "province": "AB", "country": "CA", "postalCode": "T5K0K6", "twitter": "None", "instagram": "None", "facebook": "None", "youtube": "None", "website": "None", "summary": "None", "logo": "None", "latitude": 53.54088850288552, "longitude": -113.51116269317329}, "800957524RR0001": {"name": "KoogiTV", "designationCode": "C", "categoryCode": "47", "address": "200 - 4 ROBERT SPECK PKY", "city": "MISSISSAUGA", "province": "ON", "country": "CA", "postalCode": "L4Z1S1", "twitter": "None", "instagram": "None", "facebook": "None", "youtube": "None", "website": "None", "summary": "None", "logo": "None", "latitude": 43.5975127457443, "longitude": -79.63656012556999}, "819004607RR0001": {"name": "Koop Family Foundation Inc.", "designationCode": "B", "categoryCode": "03", "address": "2 NATHAN LANE", "city": "WINNIPEG", "province": "MB", "country": "CA", "postalCode": "R2K4J3", "twitter": "None", "instagram": "None", "facebook": "None", "youtube": "None", "website": "None", "summary": "None", "logo": "None", "latitude": 49.92034206688216, "longitude": -97.07844523700172}, "841024656RR0001": {"name": "Kootenay Animal Assistance Program Society", "designationCode": "C", "categoryCode": "54", "address": "3423 RENWICK ROAD", "city": "NELSON", "province": "BC", "country": "CA", "postalCode": "V1L6X7", "twitter": "None", "instagram": "None", "facebook": "None", "youtube": "None", "website": "None", "summary": "None", "logo": "None", "latitude": 49.4835715634197, "longitude": -117.40634455689883}, "818723546RR0001": {"name": "Kootenay Columbia Educational Heritage Society", "designationCode": "C", "categoryCode": "50", "address": "1300 FRANCES MORAN ROAD", "city": "TRAIL", "province": "BC", "country": "CA", "postalCode": "V1R4L9", "twitter": "None", "instagram": "None", "facebook": "None", "youtube": "None", "website": "None", "summary": "None", "logo": "None"}, "814181491RR0001": {"name": "Kootenay Kiltie Pipe Band Society", "designationCode": "C", "categoryCode": "22", "address": "402 VICTORIA STREET", "city": "NELSON", "province": "BC", "country": "CA", "postalCode": "V1L4K5", "twitter": "None", "instagram": "None", "facebook": "None", "youtube": "None", "website": "None", "summary": "None", "logo": "None"}, "805047610RR0001": {"name": "Kootenay Library Federation", "designationCode": "C", "categoryCode": "50", "address": "P.O. BOX 3125", "city": "CASTLEGAR", "province": "BC", "country": "CA", "postalCode": "V1N3H4", "twitter": "None", "instagram": "None", "facebook": "None", "youtube": "None", "website": "None", "summary": "None", "logo": "None", "latitude": 49.296228000000056, "longitude": -117.65424049999993}, "818772196RR0001": {"name": "Kootenay Perinatal Support Society", "designationCode": "C", "categoryCode": "09", "address": "1250-1500 GEORGIA W ST        PO BOX 62", "city": "VANCOUVER", "province": "BC", "country": "CA", "postalCode": "V6G2Z6", "twitter": "None", "instagram": "None", "facebook": "None", "youtube": "None", "website": "None", "summary": "None", "logo": "None", "latitude": 49.29013479542975, "longitude": -123.1300069287031}, "892062530RR0001": {"name": "Kopas Family Foundation", "designationCode": "B", "categoryCode": "23", "address": "1012-2 ST CLAIR AVE W", "city": "TORONTO", "province": "ON", "country": "CA", "postalCode": "M4V1L5", "twitter": "None", "instagram": "None", "facebook": "None", "youtube": "None", "website": "None", "summary": "None", "logo": "None", "latitude": 43.688045209013644, "longitude": -79.39437622621033}, "812229771RR0001": {"name": "Korchinski Family Foundation Inc.", "designationCode": "B", "categoryCode": "03", "address": "439 GARVIE ROAD", "city": "SASKATOON", "province": "SK", "country": "CA", "postalCode": "S7S1A4", "twitter": "None", "instagram": "None", "facebook": "None", "youtube": "None", "website": "None", "summary": "None", "logo": "None", "latitude": 52.15863748600597, "longitude": -106.5919725}, "802852582RR0001": {"name": "Korean Ban Suk Presbyterian Church of Toronto", "designationCode": "C", "categoryCode": "37", "address": "3177 SUNNYHILL DR.", "city": "MISSISSAUGA", "province": "ON", "country": "CA", "postalCode": "L4X2K5", "twitter": "None", "instagram": "None", "facebook": "None", "youtube": "None", "website": "None", "summary": "None", "logo": "None", "latitude": 43.61829026423904, "longitude": -79.58264516429118}, "802181792RR0001": {"name": "Korean Canadian Alzheimer's Society", "designationCode": "C", "categoryCode": "11", "address": "27 - 72 DUSAY PL", "city": "SCARBOROUGH", "province": "ON", "country": "CA", "postalCode": "M1W2N2", "twitter": "None", "instagram": "None", "facebook": "None", "youtube": "None", "website": "None", "summary": "None", "logo": "None", "latitude": 43.79540578074322, "longitude": -79.32984432370534}, "854714961RR0001": {"name": "Korean Canadian Christian Church", "designationCode": "C", "categoryCode": "39", "address": "6428 YONGE ST., PO BOX 37092", "city": "NORTH YORK", "province": "ON", "country": "CA", "postalCode": "M2M3X4", "twitter": "None", "instagram": "None", "facebook": "None", "youtube": "None", "website": "None", "summary": "None", "logo": "None", "latitude": 43.79614838671609, "longitude": -79.41964804593138}, "839744901RR0001": {"name": "Korean Canadian Missionary Association", "designationCode": "C", "categoryCode": "47", "address": "133 GRAND RIVER BLVD,", "city": "SCARBOROUGH", "province": "ON", "country": "CA", "postalCode": "M1B1G4", "twitter": "None", "instagram": "None", "facebook": "None", "youtube": "None", "website": "None", "summary": "None", "logo": "None", "latitude": 43.80409320067512, "longitude": -79.16150922421977}, "824126262RR0001": {"name": "Korean Church of the Resurrection", "designationCode": "C", "categoryCode": "39", "address": "1 TIPPET ROAD", "city": "NORTH YORK", "province": "ON", "country": "CA", "postalCode": "M3H2V1", "twitter": "None", "instagram": "None", "facebook": "None", "youtube": "None", "website": "None", "summary": "None", "logo": "None", "latitude": 43.73196919233656, "longitude": -79.44616917436142}, "119288918RR1505": {"name": "Korean Circuit CA-96B of Jehovah's Witnesses", "designationCode": "C", "categoryCode": "61", "address": "406 - 1633 ONTARIO ST", "city": "VANCOUVER", "province": "BC", "country": "CA", "postalCode": "V5Y0C2", "twitter": "None", "instagram": "None", "facebook": "None", "youtube": "None", "website": "None", "summary": "None", "logo": "None", "latitude": 49.27115639217495, "longitude": -123.10464553892275}, "119288918RR1497": {"name": "Korean Circuit IL-21C of Jehovah's Witnesses", "designationCode": "C", "categoryCode": "61", "address": "154 OVERBROOK PLACE", "city": "NORTH YORK", "province": "ON", "country": "CA", "postalCode": "M3H4P9", "twitter": "None", "instagram": "None", "facebook": "None", "youtube": "None", "website": "None", "summary": "None", "logo": "None", "latitude": 43.762515190691786, "longitude": -79.45841737122736}, "119288918RR1554": {"name": "Korean Congregation of Jehovah's Witnesses, Duncan, British Columbia", "designationCode": "C", "categoryCode": "61", "address": "PO BOX 4100 STN MAIN", "city": "GEORGETOWN", "province": "ON", "country": "CA", "postalCode": "L7G4Y4", "twitter": "None", "instagram": "None", "facebook": "None", "youtube": "None", "website": "None", "summary": "None", "logo": "None", "latitude": 43.676964428204535, "longitude": -79.92917582331788}, "119288918RR1469": {"name": "Korean Congregation of Jehovah's Witnesses, Mississauga, Ontario", "designationCode": "C", "categoryCode": "61", "address": "3049 TURBINE CRES", "city": "MISSISSAUGA", "province": "ON", "country": "CA", "postalCode": "L5M6W1", "twitter": "None", "instagram": "None", "facebook": "None", "youtube": "None", "website": "None", "summary": "None", "logo": "None", "latitude": 43.56117863226376, "longitude": -79.73684791369946}, "810688911RR0001": {"name": "Korean Full Gospel Church Inc.", "designationCode": "C", "categoryCode": "39", "address": "240 HOME STREET", "city": "WINNIPEG", "province": "MB", "country": "CA", "postalCode": "R3G1X3", "twitter": "None", "instagram": "None", "facebook": "None", "youtube": "None", "website": "None", "summary": "None", "logo": "None", "latitude": 49.88397846211552, "longitude": -97.1683938475098}, "772473120RR0001": {"name": "Korean Presbyterian Church of Cranbrook", "designationCode": "C", "categoryCode": "39", "address": "2100 3RD S ST", "city": "CRANBROOK", "province": "BC", "country": "CA", "postalCode": "V1C1G2", "twitter": "None", "instagram": "None", "facebook": "None", "youtube": "None", "website": "None", "summary": "None", "logo": "None", "latitude": 49.50667645715254, "longitude": -115.75190152553522}, "118818491RR0109": {"name": "Korean Seventh-day Adventist Seed-Sowers Church", "designationCode": "C", "categoryCode": "41", "address": "1626 MCCALLUM ROAD            BOX 1000", "city": "ABBOTSFORD", "province": "BC", "country": "CA", "postalCode": "V2S4P5", "twitter": "None", "instagram": "None", "facebook": "None", "youtube": "None", "website": "None", "summary": "None", "logo": "None", "latitude": 49.03168545045878, "longitude": -122.29310866535904}, "820172237RR0001": {"name": "Kosher Way Canada", "designationCode": "C", "categoryCode": "49", "address": "50 STONEDENE BOULEVARD", "city": "TORONTO", "province": "ON", "country": "CA", "postalCode": "M2R3C9", "twitter": "None", "instagram": "None", "facebook": "None", "youtube": "None", "website": "None", "summary": "None", "logo": "None", "latitude": 43.78618963474526, "longitude": -79.44881497282}, "807233572RR0001": {"name": "Krabben Family Foundation", "designationCode": "B", "categoryCode": "03", "address": "SUITE 403                     322 11TH AVE SW", "city": "CALGARY", "province": "AB", "country": "CA", "postalCode": "T2R0C5", "twitter": "None", "instagram": "None", "facebook": "None", "youtube": "None", "website": "None", "summary": "None", "logo": "None", "latitude": 51.042551467684106, "longitude": -114.0685795269202}, "816327241RR0001": {"name": "Kreative Kidz Early Learning Center Inc.", "designationCode": "C", "categoryCode": "01", "address": "PO BOX 339", "city": "GULL LAKE", "province": "SK", "country": "CA", "postalCode": "S0N1A0", "twitter": "None", "instagram": "None", "facebook": "None", "youtube": "None", "website": "None", "summary": "None", "logo": "None", "latitude": 50.09796000000006, "longitude": -108.48363999999998}, "732092093RR0001": {"name": "Kristian Domingo Foundation", "designationCode": "B", "categoryCode": "21", "address": "#1250-1500 WEST GEORGIA STREETPO BOX 62", "city": "VANCOUVER", "province": "BC", "country": "CA", "postalCode": "V6G2Z6", "twitter": "None", "instagram": "None", "facebook": "None", "youtube": "None", "website": "None", "summary": "None", "logo": "None", "latitude": 49.29013479542975, "longitude": -123.1300069287031}, "835490491RR0001": {"name": "Kristus Darzs Latvian Foundation", "designationCode": "A", "categoryCode": "03", "address": "11290 PINE VALLEY DRIVE", "city": "WOODBRIDGE", "province": "ON", "country": "CA", "postalCode": "L4L1A6", "twitter": "None", "instagram": "None", "facebook": "None", "youtube": "None", "website": "None", "summary": "None", "logo": "None", "latitude": 43.8713760294017, "longitude": -79.59369796199901}, "836393181RR0001": {"name": "Kronau Heritage Cemetary Inc.", "designationCode": "C", "categoryCode": "59", "address": "BOX 96", "city": "KRONAU", "province": "SK", "country": "CA", "postalCode": "S0G2T0", "twitter": "None", "instagram": "None", "facebook": "None", "youtube": "None", "website": "None", "summary": "None", "logo": "None", "latitude": 50.30688562344445, "longitude": -104.29520987087477}, "119143212RR0001": {"name": "Kruger Products L.P. Employees Charity Trust", "designationCode": "B", "categoryCode": "75", "address": "P.O. BOX 760", "city": "NEW WESTMINSTER", "province": "BC", "country": "CA", "postalCode": "V3L4Z9", "twitter": "None", "instagram": "None", "facebook": "None", "youtube": "None", "website": "None", "summary": "None", "logo": "None", "latitude": 49.20705600000005, "longitude": -122.90841349999994}, "829437599RR0001": {"name": "Kuamini", "designationCode": "C", "categoryCode": "09", "address": "816 REST ACRES RD", "city": "PARIS", "province": "ON", "country": "CA", "postalCode": "N3L3E3", "twitter": "None", "instagram": "None", "facebook": "None", "youtube": "None", "website": "None", "summary": "None", "logo": "None", "latitude": 43.14273819700627, "longitude": -80.36930137193937}, "810620880RR0001": {"name": "Kudos Foundation", "designationCode": "A", "categoryCode": "03", "address": "3 LAKESHORE DRIVE", "city": "HAMMONDS PLAINS", "province": "NS", "country": "CA", "postalCode": "B4B1S6", "twitter": "None", "instagram": "None", "facebook": "None", "youtube": "None", "website": "None", "summary": "None", "logo": "None", "latitude": 44.702189593917915, "longitude": -63.7408101774485}, "711560698RR0001": {"name": "Kudsia Family Foundation", "designationCode": "B", "categoryCode": "03", "address": "2143 HIDDEN VALLEY CRES", "city": "KITCHENER", "province": "ON", "country": "CA", "postalCode": "N2C2R2", "twitter": "None", "instagram": "None", "facebook": "None", "youtube": "None", "website": "None", "summary": "None", "logo": "None", "latitude": 43.411812539529244, "longitude": -80.42216022300768}, "851375865RR0001": {"name": "Kuenzi Foundation", "designationCode": "C", "categoryCode": "21", "address": "90 SELKIRK DRIVE", "city": "RICHMOND HILL", "province": "ON", "country": "CA", "postalCode": "L4B4S4", "twitter": "None", "instagram": "None", "facebook": "None", "youtube": "None", "website": "None", "summary": "None", "logo": "None", "latitude": 43.84664932889949, "longitude": -79.42337643228113}, "850094822RR0001": {"name": "Kumasi Asafo Charitable Foundation", "designationCode": "C", "categoryCode": "29", "address": "3398 KINGSTON ROAD            UNIT 13", "city": "TORONTO", "province": "ON", "country": "CA", "postalCode": "M1M3W6", "twitter": "None", "instagram": "None", "facebook": "None", "youtube": "None", "website": "None", "summary": "None", "logo": "None", "latitude": 43.73628101806208, "longitude": -79.22001382823565}, "833786684RR0001": {"name": "Kunphen Buddhist Centre", "designationCode": "C", "categoryCode": "35", "address": "40 PRITCHARD AVE", "city": "YORK", "province": "ON", "country": "CA", "postalCode": "M6N1T3", "twitter": "None", "instagram": "None", "facebook": "None", "youtube": "None", "website": "None", "summary": "None", "logo": "None", "latitude": 43.67043714351649, "longitude": -79.48886955718729}, "834623506RR0001": {"name": "Kuppah Canada Inc.", "designationCode": "C", "categoryCode": "03", "address": "532 ARLINGTON AVENUE", "city": "TORONTO", "province": "ON", "country": "CA", "postalCode": "M6C3A5", "twitter": "None", "instagram": "None", "facebook": "None", "youtube": "None", "website": "None", "summary": "None", "logo": "None", "latitude": 43.69382784179701, "longitude": -79.43408409507177}, "833295249RR0001": {"name": "Kurling for Kids / Curling pour enfants", "designationCode": "A", "categoryCode": "03", "address": "3918 DES PERVENCHES", "city": "SAINT-HUBERT", "province": "QC", "country": "CA", "postalCode": "J3Y9A1", "twitter": "None", "instagram": "None", "facebook": "None", "youtube": "None", "website": "None", "summary": "None", "logo": "None", "latitude": 45.47470798557329, "longitude": -73.40338846476992}, "834140097RR0001": {"name": "Kush International Development Services", "designationCode": "C", "categoryCode": "20", "address": "29 HISLOP DR", "city": "MARKHAM", "province": "ON", "country": "CA", "postalCode": "L6B0C6", "twitter": "None", "instagram": "None", "facebook": "None", "youtube": "None", "website": "None", "summary": "None", "logo": "None", "latitude": 43.865568860378666, "longitude": -79.22019695392122}, "802195917RR0001": {"name": "Kutoa", "designationCode": "A", "categoryCode": "03", "address": "112 GUELPH STREET             PO BOX 131", "city": "GEORGETOWN", "province": "ON", "country": "CA", "postalCode": "L7G4T1", "twitter": "None", "instagram": "None", "facebook": "None", "youtube": "None", "website": "None", "summary": "None", "logo": "None", "latitude": 43.65090448788188, "longitude": -79.91656352415023}, "857908719RR0001": {"name": "Kuut Uumanaqtut Tuksiarviit Fellowship", "designationCode": "C", "categoryCode": "49", "address": "PO BOX 758", "city": "IQALUIT", "province": "NU", "country": "CA", "postalCode": "X0A0H0", "twitter": "None", "instagram": "None", "facebook": "None", "youtube": "None", "website": "None", "summary": "None", "logo": "None", "latitude": 62.81090700000006, "longitude": -92.08155949999994}, "813554318RR0001": {"name": "Kuwasha International Development Society", "designationCode": "C", "categoryCode": "09", "address": "27372 GLOUCESTER WAY", "city": "LANGLEY", "province": "BC", "country": "CA", "postalCode": "V4W4A1", "twitter": "None", "instagram": "None", "facebook": "None", "youtube": "None", "website": "None", "summary": "None", "logo": "None", "latitude": 49.09768476004187, "longitude": -122.46754814418334}, "832770184RR0001": {"name": "Kyle Brandon Traves Foundation", "designationCode": "B", "categoryCode": "03", "address": "155 ST CLAIR AVENUE W, STE 310", "city": "TORONTO", "province": "ON", "country": "CA", "postalCode": "M4V0A1", "twitter": "None", "instagram": "None", "facebook": "None", "youtube": "None", "website": "None", "summary": "None", "logo": "None", "latitude": 43.68642271827583, "longitude": -79.40197890146578}, "858789092RR0001": {"name": "Kymar Foundation", "designationCode": "B", "categoryCode": "03", "address": "674 EDMISON ROAD", "city": "SELWYN", "province": "ON", "country": "CA", "postalCode": "K9J6X4", "twitter": "None", "instagram": "None", "facebook": "None", "youtube": "None", "website": "None", "summary": "None", "logo": "None", "latitude": 44.33047321431495, "longitude": -78.37111430371033}, "814913588RR0001": {"name": "Kyzalea Foundation", "designationCode": "B", "categoryCode": "03", "address": "161 BAY STREET                SUITE 4900", "city": "TORONTO", "province": "ON", "country": "CA", "postalCode": "M5J2S1", "twitter": "None", "instagram": "None", "facebook": "None", "youtube": "None", "website": "None", "summary": "None", "logo": "None", "latitude": 43.64640116209816, "longitude": -79.3792674731667}, "875571333RR0001": {"name": "KA KWONG BENEVOLENT SOCIETY", "designationCode": "C", "categoryCode": "39", "address": "294 GOLDHAWK TRAIL", "city": "SCARBOROUGH", "province": "ON", "country": "CA", "postalCode": "M1V4H5", "twitter": "None", "instagram": "None", "facebook": "None", "youtube": "None", "website": "None", "summary": "None", "logo": "None", "latitude": 43.82643446961735, "longitude": -79.28347427404947}, "854941135RR0001": {"name": "KA NI KANICHIHK INC.", "designationCode": "C", "categoryCode": "56", "address": "455 MCDERMOT AVE", "city": "WINNIPEG", "province": "MB", "country": "CA", "postalCode": "R3A0B5", "twitter": "None", "instagram": "None", "facebook": "None", "youtube": "None", "website": "None", "summary": "None", "logo": "None", "latitude": 49.89987295366143, "longitude": -97.14907150484743}, "887196921RR0001": {"name": "KA-NA-CHI-HIH SPECIALIZED SOLVENT ABUSE TREATMENT CENTRE", "designationCode": "C", "categoryCode": "11", "address": "102 - 100 ANEMKI PL", "city": "FORT WILLIAM FIRST NATION", "province": "ON", "country": "CA", "postalCode": "P7J1A5", "twitter": "None", "instagram": "None", "facebook": "None", "youtube": "None", "website": "None", "summary": "None", "logo": "None", "latitude": 48.35373485769501, "longitude": -89.26246118761492}, "140416249RR0001": {"name": "KAATZA FOUNDATION", "designationCode": "B", "categoryCode": "03", "address": "3666 22ND AVE W", "city": "VANCOUVER", "province": "BC", "country": "CA", "postalCode": "V6S1J6", "twitter": "None", "instagram": "None", "facebook": "None", "youtube": "None", "website": "None", "summary": "None", "logo": "None"}, "128722618RR0001": {"name": "KAATZA HISTORICAL SOCIETY", "designationCode": "C", "categoryCode": "50", "address": "BOX 135", "city": "LAKE COWICHAN", "province": "BC", "country": "CA", "postalCode": "V0R2G0", "twitter": "None", "instagram": "None", "facebook": "None", "youtube": "None", "website": "None", "summary": "None", "logo": "None", "latitude": 48.810804726537235, "longitude": -123.97042104319344}, "890221179RR0001": {"name": "KAATZA LAKESIDE PLAYERS SOCIETY", "designationCode": "C", "categoryCode": "22", "address": "P.O. BOX 1356", "city": "LAKE COWICHAN", "province": "BC", "country": "CA", "postalCode": "V0R2G0", "twitter": "None", "instagram": "None", "facebook": "None", "youtube": "None", "website": "None", "summary": "None", "logo": "None", "latitude": 48.810804726537235, "longitude": -123.97042104319344}, "118976653RR0001": {"name": "KABABAYAN COMMUNITY SERVICE CENTRE INC.", "designationCode": "C", "categoryCode": "56", "address": "1313 QUEEN ST W STE 133", "city": "TORONTO", "province": "ON", "country": "CA", "postalCode": "M6K1L8", "twitter": "None", "instagram": "None", "facebook": "None", "youtube": "None", "website": "None", "summary": "None", "logo": "None", "latitude": 43.64124580930822, "longitude": -79.43337456327546}, "860310663RR0001": {"name": "KABALIKAT SA ONTARIO CHRISTIAN FELLOWSHIP", "designationCode": "C", "categoryCode": "49", "address": "3837 BRINWOOD GATE", "city": "MISSISSAUGA", "province": "ON", "country": "CA", "postalCode": "L5M7H3", "twitter": "None", "instagram": "None", "facebook": "None", "youtube": "None", "website": "None", "summary": "None", "logo": "None", "latitude": 43.551698196231726, "longitude": -79.75260143409879}, "118976661RR0001": {"name": "KABIR ASSOCIATION OF CANADA", "designationCode": "C", "categoryCode": "62", "address": "#8-8921 117A STREET", "city": "DELTA", "province": "BC", "country": "CA", "postalCode": "V4C8B9", "twitter": "None", "instagram": "None", "facebook": "None", "youtube": "None", "website": "None", "summary": "None", "logo": "None", "latitude": 49.16528795533487, "longitude": -122.89742246895351}, "868766775RR0001": {"name": "KABUKI SYNDROME NETWORK INC", "designationCode": "C", "categoryCode": "11", "address": "8060 STRUTHERS CR", "city": "REGINA", "province": "SK", "country": "CA", "postalCode": "S4Y1J3", "twitter": "None", "instagram": "None", "facebook": "None", "youtube": "None", "website": "None", "summary": "None", "logo": "None", "latitude": 50.48353417568816, "longitude": -104.69575706128491}, "130652621RR0001": {"name": "KACKAAMIN FAMILY DEVELOPMENT CENTRE ASSOCIATION", "designationCode": "C", "categoryCode": "57", "address": "7830 BEAVER CREEK RD", "city": "PORT ALBERNI", "province": "BC", "country": "CA", "postalCode": "V9Y8N3", "twitter": "None", "instagram": "None", "facebook": "None", "youtube": "None", "website": "None", "summary": "None", "logo": "None", "latitude": 49.325050526690006, "longitude": -124.89395030682671}, "854016235RR0001": {"name": "KADEY FAMILY CHARITABLE CORP.", "designationCode": "B", "categoryCode": "03", "address": "33 CHARLES STREET EAST        SUITE 3604", "city": "TORONTO", "province": "ON", "country": "CA", "postalCode": "M4Y0A2", "twitter": "None", "instagram": "None", "facebook": "None", "youtube": "None", "website": "None", "summary": "None", "logo": "None", "latitude": 43.668944761555984, "longitude": -79.38448619718399}, "854281433RR0001": {"name": "KADEY FAMILY CHARITABLE TRUST", "designationCode": "B", "categoryCode": "05", "address": "33 CHARLES STREET EAST        SUITE 3604", "city": "TORONTO", "province": "ON", "country": "CA", "postalCode": "M4Y0A2", "twitter": "None", "instagram": "None", "facebook": "None", "youtube": "None", "website": "None", "summary": "None", "logo": "None", "latitude": 43.668944761555984, "longitude": -79.38448619718399}, "892133240RR0001": {"name": "KAGYU KUNKHYAB CHULING", "designationCode": "C", "categoryCode": "39", "address": "4939 SIDLEY STREET", "city": "BURNABY", "province": "BC", "country": "CA", "postalCode": "V5J1T6", "twitter": "None", "instagram": "None", "facebook": "None", "youtube": "None", "website": "None", "summary": "None", "logo": "None", "latitude": 49.21738750822297, "longitude": -122.99323274715793}, "826507949RR0001": {"name": "KAHA: WI DANCE THEATRE", "designationCode": "C", "categoryCode": "22", "address": "986 SECOND LINE ROAD          RR 6", "city": "HAGERSVILLE", "province": "ON", "country": "CA", "postalCode": "N0A1H0", "twitter": "None", "instagram": "None", "facebook": "None", "youtube": "None", "website": "None", "summary": "None", "logo": "None", "latitude": 42.96695359955398, "longitude": -79.95284758705435}, "138619911RR0001": {"name": "KAHN FOUNDATION", "designationCode": "B", "categoryCode": "03", "address": "500-1505 2ND AVE W", "city": "VANCOUVER", "province": "BC", "country": "CA", "postalCode": "V6H3Y4", "twitter": "None", "instagram": "None", "facebook": "None", "youtube": "None", "website": "None", "summary": "None", "logo": "None", "latitude": 49.26951764588242, "longitude": -123.13820840088887}, "893766329RR0001": {"name": "KAHNAWAKE PENTECOSTAL CHURCH", "designationCode": "C", "categoryCode": "36", "address": "BOX 577", "city": "KAHNAWAKE", "province": "QC", "country": "CA", "postalCode": "J0L1B0", "twitter": "None", "instagram": "None", "facebook": "None", "youtube": "None", "website": "None", "summary": "None", "logo": "None", "latitude": 45.40894000000003, "longitude": -73.67382999999995}, "851582320RR0001": {"name": "KAHNAWAKE UNITED CHURCH", "designationCode": "C", "categoryCode": "44", "address": "P.O. BOX 8                    1 OLD MALONE HIGHWAY", "city": "KAHNAWAKE", "province": "QC", "country": "CA", "postalCode": "J0L1B0", "twitter": "None", "instagram": "None", "facebook": "None", "youtube": "None", "website": "None", "summary": "None", "logo": "None", "latitude": 45.412166361677464, "longitude": -73.67188531269686}, "866056773RR0001": {"name": "KAHRIZAK FOUNDATION OF CANADA", "designationCode": "C", "categoryCode": "09", "address": "6021 YONGE STREET             SUITE 121", "city": "NORTH YORK", "province": "ON", "country": "CA", "postalCode": "M2M3W2", "twitter": "None", "instagram": "None", "facebook": "None", "youtube": "None", "website": "None", "summary": "None", "logo": "None", "latitude": 43.789263180349835, "longitude": -79.41784183347778}, "118976737RR0001": {"name": "KAINAI CHIEFTAINSHIP", "designationCode": "C", "categoryCode": "03", "address": "231 RED CROW BLVD. W.", "city": "LETHBRIDGE", "province": "AB", "country": "CA", "postalCode": "T1K6N4", "twitter": "None", "instagram": "None", "facebook": "None", "youtube": "None", "website": "None", "summary": "None", "logo": "None", "latitude": 49.68740054319326, "longitude": -112.88978104821452}, "895505907RR0001": {"name": "KAINOS INTERNATIONAL MINISTRIES", "designationCode": "C", "categoryCode": "49", "address": "7777 CHURCHVILLE RD.", "city": "BRAMPTON", "province": "ON", "country": "CA", "postalCode": "L6Y0H3", "twitter": "None", "instagram": "None", "facebook": "None", "youtube": "None", "website": "None", "summary": "None", "logo": "None"}, "118976745RR0001": {"name": "KAIROS COMMUNITY RESOURCE CENTRE", "designationCode": "C", "categoryCode": "59", "address": "PO BOX 28065                  900 ARTHUR ST E", "city": "THUNDER BAY", "province": "ON", "country": "CA", "postalCode": "P7E6R5", "twitter": "None", "instagram": "None", "facebook": "None", "youtube": "None", "website": "None", "summary": "None", "logo": "None", "latitude": 48.38082449956731, "longitude": -89.2499535}, "892535964RR0001": {"name": "KAIROS FOUNDATION", "designationCode": "B", "categoryCode": "03", "address": "943 PURCELL CRT", "city": "KELOWNA", "province": "BC", "country": "CA", "postalCode": "V1V1N7", "twitter": "None", "instagram": "None", "facebook": "None", "youtube": "None", "website": "None", "summary": "None", "logo": "None", "latitude": 49.89774073131757, "longitude": -119.43029048485212}, "132881608RR0001": {"name": "KAIROS NON-PROFIT HOUSING OF PETERBOROUGH", "designationCode": "C", "categoryCode": "09", "address": "185 ROMAINE ST", "city": "PETERBOROUGH", "province": "ON", "country": "CA", "postalCode": "K9J2C3", "twitter": "None", "instagram": "None", "facebook": "None", "youtube": "None", "website": "None", "summary": "None", "logo": "None", "latitude": 44.291648852588395, "longitude": -78.32005369856898}, "869918359RR0001": {"name": "KAIROS PRISON MINISTRIES", "designationCode": "C", "categoryCode": "47", "address": "43 CHURCH ST, SUITE 303", "city": "ST. CATHARINES", "province": "ON", "country": "CA", "postalCode": "L2R7E1", "twitter": "None", "instagram": "None", "facebook": "None", "youtube": "None", "website": "None", "summary": "None", "logo": "None", "latitude": 43.15925156038995, "longitude": -79.24765592330742}, "887260065RR0001": {"name": "KAISER FOUNDATION FOR HIGHER EDUCATION", "designationCode": "B", "categoryCode": "03", "address": "7700 RIVERFRONT GATE", "city": "BURNABY", "province": "BC", "country": "CA", "postalCode": "V5J5M4", "twitter": "None", "instagram": "None", "facebook": "None", "youtube": "None", "website": "None", "summary": "None", "logo": "None", "latitude": 49.18883793278675, "longitude": -122.99043706098423}, "868644576RR0001": {"name": "KAL TIRE CHRISTMAS FUNDRAISING SOCIETY", "designationCode": "C", "categoryCode": "09", "address": "P O BOX 1240", "city": "VERNON", "province": "BC", "country": "CA", "postalCode": "V1T6N6", "twitter": "None", "instagram": "None", "facebook": "None", "youtube": "None", "website": "None", "summary": "None", "logo": "None", "latitude": 50.26567200000005, "longitude": -119.27378149999993}, "135537520RR0001": {"name": "KALA BHARATI FOUNDATION/LA FONDATION KALA BHARATI", "designationCode": "C", "categoryCode": "22", "address": "3410 RUE SHERBROOKE EST", "city": "MONTREAL", "province": "QC", "country": "CA", "postalCode": "H1W1C6", "twitter": "None", "instagram": "None", "facebook": "None", "youtube": "None", "website": "None", "summary": "None", "logo": "None", "latitude": 45.54615076213292, "longitude": -73.55590336493762}, "136720059RR0001": {"name": "KALADAR COMMUNITY CLUB", "designationCode": "C", "categoryCode": "56", "address": "11447 HWY 41", "city": "KALADAR", "province": "ON", "country": "CA", "postalCode": "K0H1Z0", "twitter": "None", "instagram": "None", "facebook": "None", "youtube": "None", "website": "None", "summary": "None", "logo": "None", "latitude": 44.64938537600463, "longitude": -77.12518256400695}, "119288918RR0522": {"name": "KALAMALKA CONGREGATION OF JEHOVAH'S WITNESSES", "designationCode": "C", "categoryCode": "61", "address": "3803-21 AVENUE", "city": "VERNON", "province": "BC", "country": "CA", "postalCode": "V1T6P7", "twitter": "None", "instagram": "None", "facebook": "None", "youtube": "None", "website": "None", "summary": "None", "logo": "None", "latitude": 50.25589628196655, "longitude": -119.28582900244929}, "864639729RR0001": {"name": "KALAMALKA HIGHLANDERS PIPE BAND SOCIETY", "designationCode": "C", "categoryCode": "22", "address": "SUITE 256, 3104-30 AVENUE", "city": "VERNON", "province": "BC", "country": "CA", "postalCode": "V1T9M9", "twitter": "None", "instagram": "None", "facebook": "None", "youtube": "None", "website": "None", "summary": "None", "logo": "None", "latitude": 50.26375854674262, "longitude": -119.2727115}}