{"133771444RR0001": {"name": "THE R C PARISH OF ST ALPHONSE", "designationCode": "C", "categoryCode": "38", "address": "P.O. BOX 3", "city": "ST ALPHONSE", "province": "MB", "country": "CA", "postalCode": "R0K1Z0", "twitter": "None", "instagram": "None", "facebook": "None", "youtube": "None", "website": "None", "summary": "None", "logo": "None", "latitude": 49.44342000000006, "longitude": -98.98868999999996}, "871532040RR0001": {"name": "THE R C PARISH OF ST PAUL", "designationCode": "C", "categoryCode": "38", "address": "PO BOX 38", "city": "STARBUCK", "province": "MB", "country": "CA", "postalCode": "R0G2P0", "twitter": "None", "instagram": "None", "facebook": "None", "youtube": "None", "website": "None", "summary": "None", "logo": "None"}, "131681462RR0001": {"name": "THE R C PARISH OF ST. MARY IN REGINA", "designationCode": "C", "categoryCode": "38", "address": "2026 WINNIPEG ST", "city": "REGINA", "province": "SK", "country": "CA", "postalCode": "S4P1G6", "twitter": "None", "instagram": "None", "facebook": "None", "youtube": "None", "website": "None", "summary": "None", "logo": "None", "latitude": 50.446196664723885, "longitude": -104.59521316074182}, "891432049RR0001": {"name": "THE R C PARISH OF THE SACRED HEART OF JESUS", "designationCode": "C", "categoryCode": "38", "address": "P.O. BOX 130", "city": "HOLLAND", "province": "MB", "country": "CA", "postalCode": "R0G0X0", "twitter": "None", "instagram": "None", "facebook": "None", "youtube": "None", "website": "None", "summary": "None", "logo": "None", "latitude": 49.7686281543147, "longitude": -97.632704369717}, "867995623RR0001": {"name": "THE R O L L AID CENTRE", "designationCode": "C", "categoryCode": "09", "address": "146 HELEN STR.", "city": "SEELEYS BAY", "province": "ON", "country": "CA", "postalCode": "K0H2N0", "twitter": "None", "instagram": "None", "facebook": "None", "youtube": "None", "website": "None", "summary": "None", "logo": "None", "latitude": 44.47748756141583, "longitude": -76.23277108735817}, "887769156RR0001": {"name": "THE R. PIVNICK FAMILY CHARITABLE FOUNDATION", "designationCode": "B", "categoryCode": "03", "address": "88 SHEPPARD AVE WEST          SUITE 100", "city": "TORONTO", "province": "ON", "country": "CA", "postalCode": "M2N1M5", "twitter": "None", "instagram": "None", "facebook": "None", "youtube": "None", "website": "None", "summary": "None", "logo": "None", "latitude": 43.760492139621356, "longitude": -79.4156685133302}, "105243836RR0001": {"name": "THE R.A. BEAMISH FOUNDATION", "designationCode": "B", "categoryCode": "03", "address": "2368 HADDINGTON CRES.", "city": "OTTAWA", "province": "ON", "country": "CA", "postalCode": "K1H8J4", "twitter": "None", "instagram": "None", "facebook": "None", "youtube": "None", "website": "None", "summary": "None", "logo": "None", "latitude": 45.38153277768481, "longitude": -75.64677242244203}, "888706991RR0001": {"name": "THE R.C. CHURCH OF SAINT-PATRICK", "designationCode": "C", "categoryCode": "38", "address": "PO BOX 231", "city": "MANITOU", "province": "MB", "country": "CA", "postalCode": "R0G1G0", "twitter": "None", "instagram": "None", "facebook": "None", "youtube": "None", "website": "None", "summary": "None", "logo": "None", "latitude": 49.23673000000008, "longitude": -98.53495999999996}, "890750797RR0001": {"name": "THE RABBI ERWIN AND LAURA SCHILD FOUNDATION", "designationCode": "B", "categoryCode": "03", "address": "21 PALM DR", "city": "DOWNSVIEW", "province": "ON", "country": "CA", "postalCode": "M3H2B5", "twitter": "None", "instagram": "None", "facebook": "None", "youtube": "None", "website": "None", "summary": "None", "logo": "None", "latitude": 43.74474686759201, "longitude": -79.43735442838599}, "105243828RR0001": {"name": "THE RABBI MORTON GREEN FOUNDATION", "designationCode": "C", "categoryCode": "21", "address": "125 CLINE AVENUE SOUTH", "city": "HAMILTON", "province": "ON", "country": "CA", "postalCode": "L8S1X2", "twitter": "None", "instagram": "None", "facebook": "None", "youtube": "None", "website": "None", "summary": "None", "logo": "None", "latitude": 43.25674722147847, "longitude": -79.9109174250391}, "119108314RR0001": {"name": "THE RABBI PRICE FOUNDATION", "designationCode": "C", "categoryCode": "23", "address": "666 WILSON AVE", "city": "TORONTO", "province": "ON", "country": "CA", "postalCode": "M3K1E1", "twitter": "None", "instagram": "None", "facebook": "None", "youtube": "None", "website": "None", "summary": "None", "logo": "None", "latitude": 43.73188920032467, "longitude": -79.46150452526174}, "857556344RR0001": {"name": "THE RACHEL DAVIS FOUNDATION", "designationCode": "C", "categoryCode": "21", "address": "303 - 932 JOHNSON ST", "city": "VICTORIA", "province": "BC", "country": "CA", "postalCode": "V8V3N4", "twitter": "None", "instagram": "None", "facebook": "None", "youtube": "None", "website": "None", "summary": "None", "logo": "None", "latitude": 48.426429351116504, "longitude": -123.35744049402739}, "868528696RR0001": {"name": "THE RADCLIFFE FOUNDATION", "designationCode": "B", "categoryCode": "03", "address": "38 PRINCE ARTHUR AVENUE", "city": "TORONTO", "province": "ON", "country": "CA", "postalCode": "M5R1A9", "twitter": "None", "instagram": "None", "facebook": "None", "youtube": "None", "website": "None", "summary": "None", "logo": "None", "latitude": 43.66934217236993, "longitude": -79.39748571080266}, "139419576RR0001": {"name": "THE RADEMAKER FOUNDATION INC", "designationCode": "B", "categoryCode": "03", "address": "6 BAYWIND PL", "city": "EAST ST. PAUL", "province": "MB", "country": "CA", "postalCode": "R2E0N2", "twitter": "None", "instagram": "None", "facebook": "None", "youtube": "None", "website": "None", "summary": "None", "logo": "None", "latitude": 49.96963500000005, "longitude": -97.05220999999993}, "868393661RR0001": {"name": "THE RADLETT FOUNDATION", "designationCode": "B", "categoryCode": "03", "address": "912-5418 YONGE STREET", "city": "TORONTO", "province": "ON", "country": "CA", "postalCode": "M2N6X4", "twitter": "None", "instagram": "None", "facebook": "None", "youtube": "None", "website": "None", "summary": "None", "logo": "None", "latitude": 43.775594969184674, "longitude": -79.41454848563059}, "107870644RR0001": {"name": "THE RADWAY AGRICULTURAL SOCIETY", "designationCode": "C", "categoryCode": "56", "address": "BOX 72", "city": "RADWAY", "province": "AB", "country": "CA", "postalCode": "T0A2V0", "twitter": "None", "instagram": "None", "facebook": "None", "youtube": "None", "website": "None", "summary": "None", "logo": "None", "latitude": 54.064550000000054, "longitude": -112.94705999999996}, "891572844RR0001": {"name": "THE RAINBOW FOUNDATION", "designationCode": "B", "categoryCode": "23", "address": "66 WELLINGTON STREET WEST     SUITE 4100", "city": "TORONTO", "province": "ON", "country": "CA", "postalCode": "M5K1B7", "twitter": "None", "instagram": "None", "facebook": "None", "youtube": "None", "website": "None", "summary": "None", "logo": "None", "latitude": 43.647055248975605, "longitude": -79.38109901041601}, "884292517RR0001": {"name": "THE RAINBOW HARMONY PROJECT INC.", "designationCode": "C", "categoryCode": "22", "address": "170 SCOTT ST", "city": "WINNIPEG", "province": "MB", "country": "CA", "postalCode": "R3L0L3", "twitter": "None", "instagram": "None", "facebook": "None", "youtube": "None", "website": "None", "summary": "None", "logo": "None", "latitude": 49.87798810796928, "longitude": -97.14034516720537}, "129988275RR0001": {"name": "THE RAINBOW SOCIETY OF ALBERTA", "designationCode": "C", "categoryCode": "09", "address": "6604-82 AVE", "city": "EDMONTON", "province": "AB", "country": "CA", "postalCode": "T6B0E7", "twitter": "None", "instagram": "None", "facebook": "None", "youtube": "None", "website": "None", "summary": "None", "logo": "None", "latitude": 53.51806450822298, "longitude": -113.430402}, "107303687RR0001": {"name": "THE RAINY RIVER VALLEY AGRICULTURAL SOCIETY", "designationCode": "C", "categoryCode": "56", "address": "PO BOX 506", "city": "EMO", "province": "ON", "country": "CA", "postalCode": "P0W1E0", "twitter": "None", "instagram": "None", "facebook": "None", "youtube": "None", "website": "None", "summary": "None", "logo": "None", "latitude": 48.662577540629606, "longitude": -93.82672263965895}, "107871790RR0001": {"name": "THE RAISIN REGION CONSERVATION AUTHORITY", "designationCode": "C", "categoryCode": "52", "address": "PO BOX 429                    18045 COUNTY ROAD #2", "city": "CORNWALL", "province": "ON", "country": "CA", "postalCode": "K6H5T2", "twitter": "None", "instagram": "None", "facebook": "None", "youtube": "None", "website": "None", "summary": "None", "logo": "None", "latitude": 45.03305610034823, "longitude": -74.66542571983749}, "892348962RR0001": {"name": "THE RALPH & MAUREEN PHILLIPS FAMILY FOUNDATION", "designationCode": "B", "categoryCode": "03", "address": "91 BURWELL CRESCENT", "city": "MARKHAM", "province": "ON", "country": "CA", "postalCode": "L3P6V1", "twitter": "None", "instagram": "None", "facebook": "None", "youtube": "None", "website": "None", "summary": "None", "logo": "None", "latitude": 43.88028793340631, "longitude": -79.26798563171549}, "118950492RR0001": {"name": "THE RALPH AND ROSLYN HALBERT FAMILY FOUNDATION", "designationCode": "B", "categoryCode": "03", "address": "100 SCARDALE ROAD", "city": "DON MILLS", "province": "ON", "country": "CA", "postalCode": "M3B2R8", "twitter": "None", "instagram": "None", "facebook": "None", "youtube": "None", "website": "None", "summary": "None", "logo": "None", "latitude": 43.751611614749955, "longitude": -79.35639310895023}, "869747493RR0001": {"name": "THE RALPH M. BARFORD FOUNDATION", "designationCode": "B", "categoryCode": "53", "address": "PO BOX 2026                   1903-20 EGLINTON AVENUE WEST", "city": "TORONTO", "province": "ON", "country": "CA", "postalCode": "M4R1K8", "twitter": "None", "instagram": "None", "facebook": "None", "youtube": "None", "website": "None", "summary": "None", "logo": "None", "latitude": 43.70661117236991, "longitude": -79.39906987844073}, "896164357RR0001": {"name": "THE RANCH AT FISH CREEK RESTORATION SOCIETY", "designationCode": "C", "categoryCode": "52", "address": "315 DEERCLIFF RD SE", "city": "CALGARY", "province": "AB", "country": "CA", "postalCode": "T2J5K6", "twitter": "None", "instagram": "None", "facebook": "None", "youtube": "None", "website": "None", "summary": "None", "logo": "None", "latitude": 50.92977650346246, "longitude": -114.01495222413287}, "855378683RR0001": {"name": "THE RANDY GILLIES FAMILY FOUNDATION", "designationCode": "B", "categoryCode": "03", "address": "14 ROSS STREET", "city": "TORONTO", "province": "ON", "country": "CA", "postalCode": "M5T1Z9", "twitter": "None", "instagram": "None", "facebook": "None", "youtube": "None", "website": "None", "summary": "None", "logo": "None", "latitude": 43.65748854509784, "longitude": -79.39666612352117}, "119109171RR0001": {"name": "THE RANDY GIRODAY ST. MICHAEL'S COLLEGE SCHOOL SCHOLARSHIP FOUNDATION", "designationCode": "C", "categoryCode": "21", "address": "190 SIXTH STREET", "city": "TORONTO", "province": "ON", "country": "CA", "postalCode": "M8V3A5", "twitter": "None", "instagram": "None", "facebook": "None", "youtube": "None", "website": "None", "summary": "None", "logo": "None", "latitude": 43.60340177417988, "longitude": -79.50515982687766}, "888580396RR0001": {"name": "THE RANGE CEMETERY INC", "designationCode": "C", "categoryCode": "59", "address": "1679 COXPOINT ROAD", "city": "CUMBERLAND BAY", "province": "NB", "country": "CA", "postalCode": "E4A2Z8", "twitter": "None", "instagram": "None", "facebook": "None", "youtube": "None", "website": "None", "summary": "None", "logo": "None", "latitude": 46.04005185651146, "longitude": -65.87244550064594}, "119109213RR0001": {"name": "THE RAOUL WALLENBERG CENTRES", "designationCode": "C", "categoryCode": "09", "address": "1233 DUNDAS STREET EAST", "city": "LONDON", "province": "ON", "country": "CA", "postalCode": "N5W3B1", "twitter": "None", "instagram": "None", "facebook": "None", "youtube": "None", "website": "None", "summary": "None", "logo": "None", "latitude": 42.99565710794062, "longitude": -81.20793326643208}, "119109270RR0001": {"name": "THE RAPPAPORT FAMILY CHARITABLE FOUNDATION", "designationCode": "B", "categoryCode": "03", "address": "27 YORK DOWNS DRIVE", "city": "DOWNSVIEW", "province": "ON", "country": "CA", "postalCode": "M3H1H7", "twitter": "None", "instagram": "None", "facebook": "None", "youtube": "None", "website": "None", "summary": "None", "logo": "None", "latitude": 43.746726202377204, "longitude": -79.43251570869653}, "108093501RR0001": {"name": "THE RASMUSSEN FOUNDATION LIMITED", "designationCode": "C", "categoryCode": "59", "address": "4240-91A STREET", "city": "EDMONTON", "province": "AB", "country": "CA", "postalCode": "T6E5V2", "twitter": "None", "instagram": "None", "facebook": "None", "youtube": "None", "website": "None", "summary": "None", "logo": "None", "latitude": 53.47897090062906, "longitude": -113.46828143112636}, "119122463RR0001": {"name": "THE RATHLYN FOUNDATION", "designationCode": "B", "categoryCode": "23", "address": "130 KING STREET WEST, 20TH FL", "city": "TORONTO", "province": "ON", "country": "CA", "postalCode": "M5X1K1", "twitter": "None", "instagram": "None", "facebook": "None", "youtube": "None", "website": "None", "summary": "None", "logo": "None", "latitude": 43.64798216515656, "longitude": -79.38336717805407}, "889251443RR0001": {"name": "THE RAYMORE & DISTRICT DONOR'S CHOICE", "designationCode": "C", "categoryCode": "05", "address": "BOX 451", "city": "RAYMORE", "province": "SK", "country": "CA", "postalCode": "S0A3J0", "twitter": "None", "instagram": "None", "facebook": "None", "youtube": "None", "website": "None", "summary": "None", "logo": "None", "latitude": 51.409260000000074, "longitude": -104.52537999999998}, "897910188RR0001": {"name": "THE REBMAN CHRISTIAN FOUNDATION", "designationCode": "B", "categoryCode": "43", "address": "436-52304 RANGE RD. 233", "city": "SHERWOOD PARK", "province": "AB", "country": "CA", "postalCode": "T8B1C9", "twitter": "None", "instagram": "None", "facebook": "None", "youtube": "None", "website": "None", "summary": "None", "logo": "None", "latitude": 53.4943864962491, "longitude": -113.32704149999999}, "892320441RR0001": {"name": "THE RECREATION FOUNDATION OF BRITISH COLUMBIA", "designationCode": "C", "categoryCode": "52", "address": "3465 MAVERIC RD", "city": "NANAIMO", "province": "BC", "country": "CA", "postalCode": "V9T0C7", "twitter": "None", "instagram": "None", "facebook": "None", "youtube": "None", "website": "None", "summary": "None", "logo": "None", "latitude": 49.2154532939626, "longitude": -123.99165891393176}, "888954641RR0001": {"name": "THE RED DEER CHRISTMAS BUREAU SOCIETY", "designationCode": "C", "categoryCode": "09", "address": "PO BOX 97 STN POSTAL BOX CTR", "city": "RED DEER", "province": "AB", "country": "CA", "postalCode": "T4N5E7", "twitter": "None", "instagram": "None", "facebook": "None", "youtube": "None", "website": "None", "summary": "None", "logo": "None", "latitude": 52.26852300000006, "longitude": -113.80901299999994}, "890515570RR0001": {"name": "THE RED DEER COLLEGE FOUNDATION", "designationCode": "A", "categoryCode": "23", "address": "56 AVENUE-32ND ST PO BOX 5005", "city": "RED DEER", "province": "AB", "country": "CA", "postalCode": "T4N5H5", "twitter": "None", "instagram": "None", "facebook": "None", "youtube": "None", "website": "None", "summary": "None", "logo": "None", "latitude": 52.251054177296204, "longitude": -113.80872498587634}, "119112449RR0001": {"name": "THE RED DEER LIBRARY BOARD", "designationCode": "C", "categoryCode": "50", "address": "4818-49TH STREET", "city": "RED DEER", "province": "AB", "country": "CA", "postalCode": "T4N1T9", "twitter": "None", "instagram": "None", "facebook": "None", "youtube": "None", "website": "None", "summary": "None", "logo": "None", "latitude": 52.26808553318127, "longitude": -113.81017058381903}, "119252567RR0001": {"name": "THE RED DEER LIVE-IN SOCIETY", "designationCode": "C", "categoryCode": "49", "address": "BOX 20005", "city": "RED DEER", "province": "AB", "country": "CA", "postalCode": "T4N6X5", "twitter": "None", "instagram": "None", "facebook": "None", "youtube": "None", "website": "None", "summary": "None", "logo": "None", "latitude": 52.26852300000006, "longitude": -113.80901299999994}, "119112530RR0001": {"name": "THE RED DEER PUBLIC SCHOOLS SCHOLARSHIP TRUST", "designationCode": "C", "categoryCode": "21", "address": "4747 - 53 STREET", "city": "RED DEER", "province": "AB", "country": "CA", "postalCode": "T4N2E6", "twitter": "None", "instagram": "None", "facebook": "None", "youtube": "None", "website": "None", "summary": "None", "logo": "None", "latitude": 52.27180449567218, "longitude": -113.80766408381903}, "132004250RR0001": {"name": "THE RED DEER SENIOR CITIZEN'S DOWNTOWN HOUSE", "designationCode": "C", "categoryCode": "56", "address": "5414 43RD STREET", "city": "RED DEER", "province": "AB", "country": "CA", "postalCode": "T4N1C9", "twitter": "None", "instagram": "None", "facebook": "None", "youtube": "None", "website": "None", "summary": "None", "logo": "None", "latitude": 52.2623794899011, "longitude": -113.82438052553522}, "107879843RR0001": {"name": "THE RED LAKE MARGARET COCHENOUR MEMORIAL HOSPITAL CORPORATION", "designationCode": "C", "categoryCode": "10", "address": "BOX 5005", "city": "RED LAKE", "province": "ON", "country": "CA", "postalCode": "P0V2M0", "twitter": "None", "instagram": "None", "facebook": "None", "youtube": "None", "website": "None", "summary": "None", "logo": "None", "latitude": 51.017789973887886, "longitude": -93.82652994835257}, "869918862RR0001": {"name": "THE RED RIVER EXHIBITION FOUNDATION INC", "designationCode": "C", "categoryCode": "21", "address": "3977 PORTAGE AVENUE", "city": "WINNIPEG", "province": "MB", "country": "CA", "postalCode": "R3K2E8", "twitter": "None", "instagram": "None", "facebook": "None", "youtube": "None", "website": "None", "summary": "None", "logo": "None", "latitude": 49.88009931344904, "longitude": -97.33076217888649}, "107880031RR0002": {"name": "THE RED RIVER VALLEY SCHOOL DIVISION", "designationCode": "C", "categoryCode": "20", "address": "BOX 400, 233 MAIN ST. NORTH", "city": "MORRIS", "province": "MB", "country": "CA", "postalCode": "R0G1K0", "twitter": "None", "instagram": "None", "facebook": "None", "youtube": "None", "website": "None", "summary": "None", "logo": "None", "latitude": 49.35713404130048, "longitude": -97.36470564289075}, "878778265RR0001": {"name": "THE RED ROAD HEALING SOCIETY", "designationCode": "C", "categoryCode": "53", "address": "BOX 78025", "city": "EDMONTON", "province": "AB", "country": "CA", "postalCode": "T5T6A1", "twitter": "None", "instagram": "None", "facebook": "None", "youtube": "None", "website": "None", "summary": "None", "logo": "None", "latitude": 53.51774100000006, "longitude": -113.66436499999993}, "890045396RR0001": {"name": "THE RED WILLOW CEMETERY COMPANY", "designationCode": "C", "categoryCode": "59", "address": "BOX 8", "city": "RED WILLOW", "province": "AB", "country": "CA", "postalCode": "T0B3V0", "twitter": "None", "instagram": "None", "facebook": "None", "youtube": "None", "website": "None", "summary": "None", "logo": "None", "latitude": 51.13751118477467, "longitude": -113.93432242306179}, "886639103RR0001": {"name": "THE REDEEMED CHRISTIAN CHURCH OF GOD - ALBERTA", "designationCode": "C", "categoryCode": "39", "address": "5516 6 AVE SW", "city": "EDMONTON", "province": "AB", "country": "CA", "postalCode": "T6X1R9", "twitter": "None", "instagram": "None", "facebook": "None", "youtube": "None", "website": "None", "summary": "None", "logo": "None", "latitude": 53.42747946768411, "longitude": -113.4275715}, "889354411RR0001": {"name": "THE REDEEMED CHRISTIAN CHURCH OF GOD INC.", "designationCode": "C", "categoryCode": "39", "address": "2735 ST MARYS ROAD", "city": "WINNIPEG", "province": "MB", "country": "CA", "postalCode": "R2N4A2", "twitter": "None", "instagram": "None", "facebook": "None", "youtube": "None", "website": "None", "summary": "None", "logo": "None", "latitude": 49.78354182734162, "longitude": -97.12260673209695}, "815574348RR0001": {"name": "THE REDEEMED CHRISTIAN CHURCH OF GOD, AIRDRIE", "designationCode": "C", "categoryCode": "39", "address": "2964 KINGSVIEW BLVD SE", "city": "AIRDRIE", "province": "AB", "country": "CA", "postalCode": "T4A0C9", "twitter": "None", "instagram": "None", "facebook": "None", "youtube": "None", "website": "None", "summary": "None", "logo": "None", "latitude": 51.25686261226846, "longitude": -113.99486012816705}, "834278210RR0001": {"name": "THE REDEEMED CHRISTIAN CHURCH OF GOD: OVERCOMERS CHAPEL", "designationCode": "C", "categoryCode": "39", "address": "834 CLEARBROOK DR", "city": "NEPEAN", "province": "ON", "country": "CA", "postalCode": "K2J0A9", "twitter": "None", "instagram": "None", "facebook": "None", "youtube": "None", "website": "None", "summary": "None", "logo": "None", "latitude": 45.2703940202551, "longitude": -75.71915023316389}, "771349693RR0001": {"name": "THE REDEEMED EVANGELICAL MISSION (TREM CHURCH), CALGARY AB", "designationCode": "C", "categoryCode": "39", "address": "20 SHERWOOD CIR NW", "city": "CALGARY", "province": "AB", "country": "CA", "postalCode": "T3R1R2", "twitter": "None", "instagram": "None", "facebook": "None", "youtube": "None", "website": "None", "summary": "None", "logo": "None", "latitude": 51.15917543825373, "longitude": -114.15052339508915}, "888577483RR0001": {"name": "THE REDEMPTION COMING CHURCH OF GOD IN CHRIST INC.", "designationCode": "C", "categoryCode": "39", "address": "46 ROCKROSE DR", "city": "BRAMPTON", "province": "ON", "country": "CA", "postalCode": "L6R2Z7", "twitter": "None", "instagram": "None", "facebook": "None", "youtube": "None", "website": "None", "summary": "None", "logo": "None", "latitude": 43.75433400000006, "longitude": -79.75474099999994}, "891728867RR0001": {"name": "THE REDWOOD...FOR WOMEN AND CHILDREN FLEEING ABUSE", "designationCode": "C", "categoryCode": "01", "address": "PO BOX 16023                  RPO DUNDAS DOVERCRT", "city": "TORONTO", "province": "ON", "country": "CA", "postalCode": "M6J3W2", "twitter": "None", "instagram": "None", "facebook": "None", "youtube": "None", "website": "None", "summary": "None", "logo": "None", "latitude": 43.64973775462044, "longitude": -79.41862834263443}, "854652526RR0001": {"name": "THE REFORM MIKVAH OF GREATER TORONTO", "designationCode": "C", "categoryCode": "39", "address": "3845 BATHURST STREET          SUITE 301", "city": "TORONTO", "province": "ON", "country": "CA", "postalCode": "M3H3N2", "twitter": "None", "instagram": "None", "facebook": "None", "youtube": "None", "website": "None", "summary": "None", "logo": "None", "latitude": 43.74047087039064, "longitude": -79.43473796055765}, "891236747RR0001": {"name": "THE REFORMED CONGREGATION IN NORTH AMERICA", "designationCode": "C", "categoryCode": "49", "address": "BOX 786", "city": "FORT MACLEOD", "province": "AB", "country": "CA", "postalCode": "T0L0Z0", "twitter": "None", "instagram": "None", "facebook": "None", "youtube": "None", "website": "None", "summary": "None", "logo": "None", "latitude": 49.72081000000003, "longitude": -113.42989999999998}, "119113462RR0001": {"name": "THE REFORMED CONGREGATION IN NORTH AMERICA SOCIETY", "designationCode": "C", "categoryCode": "39", "address": "47920 CAMPRIVER RD", "city": "CHILLIWACK", "province": "BC", "country": "CA", "postalCode": "V4Z0B6", "twitter": "None", "instagram": "None", "facebook": "None", "youtube": "None", "website": "None", "summary": "None", "logo": "None", "latitude": 49.19667765551994, "longitude": -121.8976436775058}, "888898277RR0001": {"name": "THE REFORMED EPISCOPAL CHURCH OF CANADA", "designationCode": "C", "categoryCode": "39", "address": "318 MARY ST.", "city": "ORILLIA", "province": "ON", "country": "CA", "postalCode": "L3V1G1", "twitter": "None", "instagram": "None", "facebook": "None", "youtube": "None", "website": "None", "summary": "None", "logo": "None", "latitude": 44.603756007199905, "longitude": -79.4335393473714}, "891678484RR0001": {"name": "THE REFUGE CHURCH OF JESUS CHRIST", "designationCode": "C", "categoryCode": "39", "address": "909 ARMENIAN COURT", "city": "KITCHENER", "province": "ON", "country": "CA", "postalCode": "N2P2Y5", "twitter": "None", "instagram": "None", "facebook": "None", "youtube": "None", "website": "None", "summary": "None", "logo": "None", "latitude": 43.384931550637766, "longitude": -80.4328134775232}, "718027295RR0001": {"name": "THE REFUGE MISSION FOUNDATION", "designationCode": "C", "categoryCode": "01", "address": "147 - 10403 122 ST NW", "city": "EDMONTON", "province": "AB", "country": "CA", "postalCode": "T5N4C1", "twitter": "None", "instagram": "None", "facebook": "None", "youtube": "None", "website": "None", "summary": "None", "logo": "None", "latitude": 53.5470744446304, "longitude": -113.53238726623053}, "847252764RR0001": {"name": "THE REFUGE YOUTH OUTREACH CENTRE", "designationCode": "C", "categoryCode": "09", "address": "300 COURT ST", "city": "OSHAWA", "province": "ON", "country": "CA", "postalCode": "L1H4X3", "twitter": "None", "instagram": "None", "facebook": "None", "youtube": "None", "website": "None", "summary": "None", "logo": "None", "latitude": 43.8904631842865, "longitude": -78.85622298531348}, "874878903RR0001": {"name": "THE REGENT PARK SCHOOL OF MUSIC FOUNDATION", "designationCode": "A", "categoryCode": "21", "address": "220 - 585 DUNDAS ST E", "city": "TORONTO", "province": "ON", "country": "CA", "postalCode": "M5A2B7", "twitter": "None", "instagram": "None", "facebook": "None", "youtube": "None", "website": "None", "summary": "None", "logo": "None", "latitude": 43.66027180930821, "longitude": -79.36201567984308}, "119113678RR0001": {"name": "THE REGENT THEATRE FOUNDATION", "designationCode": "C", "categoryCode": "22", "address": "224 MAIN ST", "city": "PICTON", "province": "ON", "country": "CA", "postalCode": "K0K2T0", "twitter": "None", "instagram": "None", "facebook": "None", "youtube": "None", "website": "None", "summary": "None", "logo": "None", "latitude": 44.192983070697906, "longitude": -77.05303617787588}, "132542952RR0001": {"name": "THE REGINA BELLRINGERS INC.", "designationCode": "C", "categoryCode": "22", "address": "2340 VICTORIA AVE", "city": "REGINA", "province": "SK", "country": "CA", "postalCode": "S4P0S6", "twitter": "None", "instagram": "None", "facebook": "None", "youtube": "None", "website": "None", "summary": "None", "logo": "None", "latitude": 50.447316466259146, "longitude": -104.61429187617797}, "119252583RR0001": {"name": "THE REGINA COMMUNITY ORCHESTRA", "designationCode": "C", "categoryCode": "22", "address": "7054 BLAKENEY DRIVE", "city": "REGINA", "province": "SK", "country": "CA", "postalCode": "S4X2N5", "twitter": "None", "instagram": "None", "facebook": "None", "youtube": "None", "website": "None", "summary": "None", "logo": "None", "latitude": 50.493062617837026, "longitude": -104.68352442489488}, "875980005RR0001": {"name": "THE REGINA INNER CITY FAMILY FOUNDATION INC.", "designationCode": "C", "categoryCode": "09", "address": "600 - 2103 11TH AVE", "city": "REGINA", "province": "SK", "country": "CA", "postalCode": "S4P3Z8", "twitter": "None", "instagram": "None", "facebook": "None", "youtube": "None", "website": "None", "summary": "None", "logo": "None", "latitude": 50.45031929755787, "longitude": -104.61093280642409}, "136565645RR0001": {"name": "THE REGINA JAZZ SOCIETY CORP", "designationCode": "C", "categoryCode": "22", "address": "P.O. BOX 24054                2202 BROAD ST.", "city": "REGINA", "province": "SK", "country": "CA", "postalCode": "S4P4J8", "twitter": "None", "instagram": "None", "facebook": "None", "youtube": "None", "website": "None", "summary": "None", "logo": "None", "latitude": 50.44349700000001, "longitude": -104.6065671574236}, "107882243RR0001": {"name": "THE REGINA LUTHERAN HOUSING CORPORATION", "designationCode": "C", "categoryCode": "01", "address": "1925 5TH AVE N", "city": "REGINA", "province": "SK", "country": "CA", "postalCode": "S4R7W1", "twitter": "None", "instagram": "None", "facebook": "None", "youtube": "None", "website": "None", "summary": "None", "logo": "None", "latitude": 50.47695024716815, "longitude": -104.60832074999999}, "107882433RR0001": {"name": "THE REGINA PLAINS MUSEUM INC.", "designationCode": "C", "categoryCode": "50", "address": "1231 BROAD ST", "city": "REGINA", "province": "SK", "country": "CA", "postalCode": "S4R1Y2", "twitter": "None", "instagram": "None", "facebook": "None", "youtube": "None", "website": "None", "summary": "None", "logo": "None", "latitude": 50.45934597641823, "longitude": -104.6062603447308}, "854984143RR0001": {"name": "THE REGIONAL AUTHORITY OF THE GREATER NORTH CENTRAL FRANCOPHONE EDUCATION REGION #2", "designationCode": "C", "categoryCode": "20", "address": "322-8627 91 ST NW", "city": "EDMONTON", "province": "AB", "country": "CA", "postalCode": "T6C3N1", "twitter": "None", "instagram": "None", "facebook": "None", "youtube": "None", "website": "None", "summary": "None", "logo": "None", "latitude": 53.5223435029142, "longitude": -113.46738528455239}, "139086896RR0001": {"name": "THE REGIONAL AUTHORITY OF THE NORTHWEST FRANCOPHONE EDUCATION", "designationCode": "C", "categoryCode": "20", "address": "CP 1220", "city": "ST ISIDORE", "province": "AB", "country": "CA", "postalCode": "T0H3B0", "twitter": "None", "instagram": "None", "facebook": "None", "youtube": "None", "website": "None", "summary": "None", "logo": "None", "latitude": 56.20010000000008, "longitude": -117.10266999999999}, "119211746RR0001": {"name": "THE REGIONAL COUNCIL OF YOUNG MEN'S CHRISTIAN ASSOCIATIONS OF ALBERTA", "designationCode": "C", "categoryCode": "43", "address": "200 - 10211 105 ST NW", "city": "EDMONTON", "province": "AB", "country": "CA", "postalCode": "T5J1E3", "twitter": "None", "instagram": "None", "facebook": "None", "youtube": "None", "website": "None", "summary": "None", "logo": "None", "latitude": 53.54344800000001, "longitude": -113.50106780345118}, "106836331RR0001": {"name": "THE REGIONAL OCCUPATIONAL CENTRE SOCIETY", "designationCode": "C", "categoryCode": "09", "address": "3 MACQUARRIE DR EXT", "city": "PORT HAWKESBURY", "province": "NS", "country": "CA", "postalCode": "B9A3A3", "twitter": "None", "instagram": "None", "facebook": "None", "youtube": "None", "website": "None", "summary": "None", "logo": "None", "latitude": 45.6190816102779, "longitude": -61.35476210955673}, "899937049RR0001": {"name": "THE REGIONAL SYNOD OF CANADA INC. REFORMED CHURCH IN AMERICA", "designationCode": "C", "categoryCode": "39", "address": "RR 4 STN GALT", "city": "CAMBRIDGE", "province": "ON", "country": "CA", "postalCode": "N1R5S5", "twitter": "None", "instagram": "None", "facebook": "None", "youtube": "None", "website": "None", "summary": "None", "logo": "None", "latitude": 43.37412947066547, "longitude": -80.30553925358247}, "131690067RR0001": {"name": "THE REGIS JESUIT COMMUNITY", "designationCode": "C", "categoryCode": "46", "address": "94 ISABELLA  STREET", "city": "TORONTO", "province": "ON", "country": "CA", "postalCode": "M4Y1N4", "twitter": "None", "instagram": "None", "facebook": "None", "youtube": "None", "website": "None", "summary": "None", "logo": "None", "latitude": 43.668671216227025, "longitude": -79.38050861977025}, "897915567RR0001": {"name": "THE REGISTERED PSYCHIATRIC NURSES' FOUNDATION INC.", "designationCode": "C", "categoryCode": "21", "address": "1854 PORTAGE AVE", "city": "WINNIPEG", "province": "MB", "country": "CA", "postalCode": "R3J0G9", "twitter": "None", "instagram": "None", "facebook": "None", "youtube": "None", "website": "None", "summary": "None", "logo": "None", "latitude": 49.87856551399403, "longitude": -97.21710047155058}, "871433561RR0001": {"name": "THE REHOBOTH CHRISTIAN MINISTRIES FOUNDATION", "designationCode": "C", "categoryCode": "53", "address": "3920 49 AVE", "city": "STONY PLAIN", "province": "AB", "country": "CA", "postalCode": "T7Z2J7", "twitter": "None", "instagram": "None", "facebook": "None", "youtube": "None", "website": "None", "summary": "None", "logo": "None", "latitude": 53.532524520053556, "longitude": -113.98827811252825}, "118964063RR0001": {"name": "THE RELIGIOUS HOSPITALLERS OF ST. JOSEPH OF CORNWALL, ONTARIO", "designationCode": "C", "categoryCode": "10", "address": "14 YORK STREET", "city": "CORNWALL", "province": "ON", "country": "CA", "postalCode": "K6J5T2", "twitter": "None", "instagram": "None", "facebook": "None", "youtube": "None", "website": "None", "summary": "None", "logo": "None", "latitude": 45.01518517011958, "longitude": -74.73180129606399}, "878969971RR0001": {"name": "THE RELIGIOUS HOSPITALLERS OF ST. JOSEPH OF TEH HOTEL DIEU OF ST. CATHARINES", "designationCode": "C", "categoryCode": "10", "address": "541 GLENRIDGE AVE", "city": "ST CATHARINES", "province": "ON", "country": "CA", "postalCode": "L2T4C2", "twitter": "None", "instagram": "None", "facebook": "None", "youtube": "None", "website": "None", "summary": "None", "logo": "None", "latitude": 43.12308514071787, "longitude": -79.2434149134406}, "837778349RR0001": {"name": "THE RENAISSANCE BENEVOLENCE FOUNDATION", "designationCode": "A", "categoryCode": "03", "address": "970 LAWRENCE AVENUE WEST      SUITE 209", "city": "TORONTO", "province": "ON", "country": "CA", "postalCode": "M6A3B6", "twitter": "None", "instagram": "None", "facebook": "None", "youtube": "None", "website": "None", "summary": "None", "logo": "None", "latitude": 43.713688525679444, "longitude": -79.4586771542792}, "132033374RR0001": {"name": "THE RENAISSANCE SENIORS' CENTRE", "designationCode": "C", "categoryCode": "09", "address": "2 VETERANS WAY", "city": "ELLIOT LAKE", "province": "ON", "country": "CA", "postalCode": "P5A1Z6", "twitter": "None", "instagram": "None", "facebook": "None", "youtube": "None", "website": "None", "summary": "None", "logo": "None"}, "119115392RR0001": {"name": "THE RENAISSANCE SINGERS", "designationCode": "C", "categoryCode": "22", "address": "PO BOX 33003                  658 ERB ST W", "city": "WATERLOO", "province": "ON", "country": "CA", "postalCode": "N2T0A2", "twitter": "None", "instagram": "None", "facebook": "None", "youtube": "None", "website": "None", "summary": "None", "logo": "None", "latitude": 43.445616724421335, "longitude": -80.57337989260765}, "842802365RR0001": {"name": "THE RENEWAL EVANGELICAL CHURCH", "designationCode": "C", "categoryCode": "39", "address": "50 DRIFTWOOD AVENUE           SUITE 705", "city": "DOWNSVIEW", "province": "ON", "country": "CA", "postalCode": "M3N2M6", "twitter": "None", "instagram": "None", "facebook": "None", "youtube": "None", "website": "None", "summary": "None", "logo": "None", "latitude": 43.75232020399333, "longitude": -79.51296843608935}, "890946999RR0001": {"name": "THE REORGANIZED CHURCH OF JESUS CHRIST OF LATTER DAY SAINTS INDEPENDENT MISSION (ESSEX COUNTY)", "designationCode": "C", "categoryCode": "39", "address": "RR 4, 5786 FIFTH CONC", "city": "AMHERSTBURG", "province": "ON", "country": "CA", "postalCode": "N9V2Y9", "twitter": "None", "instagram": "None", "facebook": "None", "youtube": "None", "website": "None", "summary": "None", "logo": "None", "latitude": 42.16686076992285, "longitude": -83.03499992804724}, "887612117RR0001": {"name": "THE RESETTLER'S MUSEUM INC", "designationCode": "C", "categoryCode": "50", "address": "P.O. BOX 270", "city": "CENTERVILLE", "province": "NL", "country": "CA", "postalCode": "A0G4P0", "twitter": "None", "instagram": "None", "facebook": "None", "youtube": "None", "website": "None", "summary": "None", "logo": "None", "latitude": 39.78756000000004, "longitude": -121.65292}, "107858581RR0001": {"name": "THE RESIDENTS COUNCIL PRINCE EDWARD HOME", "designationCode": "C", "categoryCode": "09", "address": "75 MAYPOINT RD", "city": "CHARLOTTETOWN", "province": "PE", "country": "CA", "postalCode": "C1E3H1", "twitter": "None", "instagram": "None", "facebook": "None", "youtube": "None", "website": "None", "summary": "None", "logo": "None", "latitude": 46.257929821996605, "longitude": -63.169471355291805}, "848284949RR0001": {"name": "THE REST AND RECUPERATE EQUINE CARE SOCIETY", "designationCode": "C", "categoryCode": "54", "address": "1949 SWAYNE RD                P O BOX 522", "city": "ERRINGTON", "province": "BC", "country": "CA", "postalCode": "V0R1V0", "twitter": "None", "instagram": "None", "facebook": "None", "youtube": "None", "website": "None", "summary": "None", "logo": "None", "latitude": 49.282230541965916, "longitude": -124.39955858352589}, "119117414RR0001": {"name": "THE RESTIGOUCHE AND BAY CHALEUR, SOLDIER'S MEMORIAL HOSPITAL", "designationCode": "C", "categoryCode": "10", "address": "35 ARRAN STREET", "city": "CAMPBELLTON", "province": "NB", "country": "CA", "postalCode": "E3N1K9", "twitter": "None", "instagram": "None", "facebook": "None", "youtube": "None", "website": "None", "summary": "None", "logo": "None", "latitude": 48.00312349656622, "longitude": -66.6674794604994}, "119117463RR0001": {"name": "THE RESTIGOUCHE PASTORAL CHARGE", "designationCode": "C", "categoryCode": "44", "address": "270 RESTIGOUCHE DR", "city": "TIDE HEAD", "province": "NB", "country": "CA", "postalCode": "E3N4K7", "twitter": "None", "instagram": "None", "facebook": "None", "youtube": "None", "website": "None", "summary": "None", "logo": "None", "latitude": 47.98451275823776, "longitude": -66.77304703303703}, "865734917RR0001": {"name": "THE RESTON AND AREA FOUNDATION INC", "designationCode": "A", "categoryCode": "03", "address": "PO BOX 515", "city": "RESTON", "province": "MB", "country": "CA", "postalCode": "R0M1X0", "twitter": "None", "instagram": "None", "facebook": "None", "youtube": "None", "website": "None", "summary": "None", "logo": "None", "latitude": 49.18753799999999, "longitude": -100.49400221363014}, "881383566RR0001": {"name": "THE RESTORATION AND MAINTENANCE OF THE FORMER ST JAMES UNITED CHURCH WILLIAMSBURG", "designationCode": "C", "categoryCode": "49", "address": "1026 ROUTE 105", "city": "DOUGLAS", "province": "NB", "country": "CA", "postalCode": "E3G7J4", "twitter": "None", "instagram": "None", "facebook": "None", "youtube": "None", "website": "None", "summary": "None", "logo": "None", "latitude": 45.97866481770678, "longitude": -66.73795581549146}, "866156987RR0001": {"name": "THE RESTORED CHURCH OF GOD", "designationCode": "C", "categoryCode": "39", "address": "PO BOX 4064", "city": "ST CATHARINES", "province": "ON", "country": "CA", "postalCode": "L2R7S3", "twitter": "None", "instagram": "None", "facebook": "None", "youtube": "None", "website": "None", "summary": "None", "logo": "None", "latitude": 43.15634700000005, "longitude": -79.24869349999993}, "871126413RR0001": {"name": "THE RESURRECTION POWER EVANGELISTIC MINISTRIES INTERNATIONAL", "designationCode": "C", "categoryCode": "47", "address": "1814 - 25 MARTHA EATON WAY", "city": "NORTH YORK", "province": "ON", "country": "CA", "postalCode": "M6M5B7", "twitter": "None", "instagram": "None", "facebook": "None", "youtube": "None", "website": "None", "summary": "None", "logo": "None", "latitude": 43.69697382431698, "longitude": -79.4892666999439}, "891529240RR0001": {"name": "THE RETIRED TEACHERS FOUNDATION", "designationCode": "A", "categoryCode": "03", "address": "3106 JOSEPH HOWE DRIVE", "city": "HALIFAX", "province": "NS", "country": "CA", "postalCode": "B3L4L7", "twitter": "None", "instagram": "None", "facebook": "None", "youtube": "None", "website": "None", "summary": "None", "logo": "None", "latitude": 44.64915111544245, "longitude": -63.63014583559324}, "851594978RR0001": {"name": "THE REUBEN R. SALLOWS ARTS GALLERY INC.", "designationCode": "C", "categoryCode": "50", "address": "52 MONTREAL STREET", "city": "GODERICH", "province": "ON", "country": "CA", "postalCode": "N7A2G4", "twitter": "None", "instagram": "None", "facebook": "None", "youtube": "None", "website": "None", "summary": "None", "logo": "None", "latitude": 43.7417583408447, "longitude": -81.71300008814687}, "888307063RR0001": {"name": "THE REV. MARIAN AND DR. ROMAN CURKOWSKYJ FOUNDATION", "designationCode": "C", "categoryCode": "21", "address": "424 THE KINGSWAY", "city": "TORONTO", "province": "ON", "country": "CA", "postalCode": "M9A3V9", "twitter": "None", "instagram": "None", "facebook": "None", "youtube": "None", "website": "None", "summary": "None", "logo": "None", "latitude": 43.66799804244345, "longitude": -79.53729840550515}, "119252658RR0001": {"name": "THE REVEREND FATHER FRED CAHILL C S B MEMORIAL FOUNDATION", "designationCode": "C", "categoryCode": "21", "address": "PO BOX 30153 RPO CHINOOK      6455 MACLEOD TRAIL", "city": "CALGARY", "province": "AB", "country": "CA", "postalCode": "T2H2V9", "twitter": "None", "instagram": "None", "facebook": "None", "youtube": "None", "website": "None", "summary": "None", "logo": "None", "latitude": 50.995949578139864, "longitude": -114.07175281044103}, "894241462RR0001": {"name": "THE REVEREND TOMMY BEARDY MEMORIAL WEE CHE HE WAYO - GAMIK FAMILY TREATMENT CENTRE", "designationCode": "C", "categoryCode": "59", "address": "315 MAIN ST S", "city": "KENORA", "province": "ON", "country": "CA", "postalCode": "P9N1T4", "twitter": "None", "instagram": "None", "facebook": "None", "youtube": "None", "website": "None", "summary": "None", "logo": "None", "latitude": 49.764938207600025, "longitude": -94.49184388966479}, "888056223RR0001": {"name": "THE REVERIE FOUDNATION/LA FONDATION REVERIE", "designationCode": "B", "categoryCode": "03", "address": "1010 DE LA GAUCHETIER ST WEST SUITE 200", "city": "MONTREAL", "province": "QC", "country": "CA", "postalCode": "H3B2N2", "twitter": "None", "instagram": "None", "facebook": "None", "youtube": "None", "website": "None", "summary": "None", "logo": "None", "latitude": 45.497931329159286, "longitude": -73.56733633345844}, "878898519RR0001": {"name": "THE REVIVAL UNITED MINISTRIES", "designationCode": "C", "categoryCode": "39", "address": "600 ROGERS RD APT 924", "city": "TORONTO", "province": "ON", "country": "CA", "postalCode": "M6M5G2", "twitter": "None", "instagram": "None", "facebook": "None", "youtube": "None", "website": "None", "summary": "None", "logo": "None", "latitude": 43.682177485025925, "longitude": -79.47186367691893}, "849620950RR0001": {"name": "THE RHEMA FOUNDATION - CANADA", "designationCode": "A", "categoryCode": "43", "address": "P.O BOX.30123", "city": "DOWNSVIEW", "province": "ON", "country": "CA", "postalCode": "M3J3L6", "twitter": "None", "instagram": "None", "facebook": "None", "youtube": "None", "website": "None", "summary": "None", "logo": "None", "latitude": 43.716810000000066, "longitude": -79.48290999999995}}