{"134096452RR0001": {"name": "ASSOCIATION DES PERSONNES HANDICAPEES VISUELLES DE L'OUTAOUAIS", "designationCode": "C", "categoryCode": "09", "address": "109 RUE WRIGHT                BUR. 203", "city": "GATINEAU", "province": "QC", "country": "CA", "postalCode": "J8X2G7", "twitter": "None", "instagram": "None", "facebook": "None", "youtube": "None", "website": "None", "summary": "None", "logo": "None", "latitude": 45.42702050432782, "longitude": -75.71872264071786}, "890199482RR0001": {"name": "ASSOCIATION DES PERSONNES HANDICAPEES VISUELLES DE LA GASPESIE ET DES ILES-DE-LA-MADELEINE (GIM)", "designationCode": "C", "categoryCode": "09", "address": "213A, BOUL. PERRON EST", "city": "CAPLAN", "province": "QC", "country": "CA", "postalCode": "G0C1H0", "twitter": "None", "instagram": "None", "facebook": "None", "youtube": "None", "website": "None", "summary": "None", "logo": "None", "latitude": 48.09276588339638, "longitude": -65.64954825815859}, "106727308RR0001": {"name": "ASSOCIATION DES PERSONNES HANDICAPEES VISUELLES DE LA REGION 02 INC.", "designationCode": "C", "categoryCode": "11", "address": "600 RUE SACR\u00c9-COEUR O", "city": "ALMA", "province": "QC", "country": "CA", "postalCode": "G8B1L9", "twitter": "None", "instagram": "None", "facebook": "None", "youtube": "None", "website": "None", "summary": "None", "logo": "None", "latitude": 48.55015523561675, "longitude": -71.65029023079796}, "120598495RR0001": {"name": "ASSOCIATION DES PERSONNES INT\u00c9RESS\u00c9ES \u00c0 L'APHASIE ET \u00c0 L'ACCIDENT VASCULAIRE C\u00c9R\u00c9BRAL (A.P.I.A.-A.V.C.)", "designationCode": "C", "categoryCode": "11", "address": "525 BOUL WILFRID HAMEL        BUREAU A-07", "city": "QUEBEC", "province": "QC", "country": "CA", "postalCode": "G1M2S8", "twitter": "None", "instagram": "None", "facebook": "None", "youtube": "None", "website": "None", "summary": "None", "logo": "None", "latitude": 46.820106819839786, "longitude": -71.2486411447591}, "140109513RR0001": {"name": "ASSOCIATION DES PERSONNES MALENTENDANTES DES BOIS-FRANCS", "designationCode": "C", "categoryCode": "09", "address": "59 RUE MONFETTE LOCAL 229", "city": "VICTORIAVILLE", "province": "QC", "country": "CA", "postalCode": "G6P1J8", "twitter": "None", "instagram": "None", "facebook": "None", "youtube": "None", "website": "None", "summary": "None", "logo": "None", "latitude": 46.06164779188039, "longitude": -71.9668892342031}, "852863778RR0001": {"name": "ASSOCIATION DES PERSONNES MALENTENDANTES DU BAS-DU-FLEUVE", "designationCode": "C", "categoryCode": "09", "address": "164 RUE MONSEIGNEUR-PLESSIS", "city": "RIMOUSKI", "province": "QC", "country": "CA", "postalCode": "G5L5E1", "twitter": "None", "instagram": "None", "facebook": "None", "youtube": "None", "website": "None", "summary": "None", "logo": "None", "latitude": 48.43549492084204, "longitude": -68.51594778750254}, "886664655RR0001": {"name": "ASSOCIATION DES PERSONNES VIVANT AVEC LA DOULEUR CHRONIQUE", "designationCode": "C", "categoryCode": "11", "address": "109 - 115 BOUL SACRE-COEUR", "city": "GATINEAU", "province": "QC", "country": "CA", "postalCode": "J8X1C5", "twitter": "None", "instagram": "None", "facebook": "None", "youtube": "None", "website": "None", "summary": "None", "logo": "None", "latitude": 45.43728742829908, "longitude": -75.71438591341101}, "859635054RR0001": {"name": "ASSOCIATION DES PERSONNES VIVANT AVEC UNE SURDITE DE LAVAL", "designationCode": "C", "categoryCode": "01", "address": "387, BOUL. DES PRAIRIES       BUREAU 211", "city": "LAVAL", "province": "QC", "country": "CA", "postalCode": "H7N2W4", "twitter": "None", "instagram": "None", "facebook": "None", "youtube": "None", "website": "None", "summary": "None", "logo": "None", "latitude": 45.54674685486739, "longitude": -73.70770992148975}, "866532021RR0001": {"name": "ASSOCIATION DES POMPIERS AUXILIAIRES DE LA MONTEREGIE", "designationCode": "C", "categoryCode": "55", "address": "200, RUE JOS\u00c9E", "city": "ROUGEMONT", "province": "QC", "country": "CA", "postalCode": "J0L1M0", "twitter": "None", "instagram": "None", "facebook": "None", "youtube": "None", "website": "None", "summary": "None", "logo": "None", "latitude": 45.43986976158465, "longitude": -73.08272692480797}, "129713319RR0001": {"name": "ASSOCIATION DES PROCHES DE PERSONNES ATTEINTES DE MALADIE MENTALE DE L'ESTRIE", "designationCode": "C", "categoryCode": "19", "address": "574 KING EST", "city": "SHERBROOKE", "province": "QC", "country": "CA", "postalCode": "J1G1B5", "twitter": "None", "instagram": "None", "facebook": "None", "youtube": "None", "website": "None", "summary": "None", "logo": "None", "latitude": 45.40802549956733, "longitude": -71.876142}, "100303387RR0001": {"name": "ASSOCIATION DES RETRAITES D'AHUNTSIC", "designationCode": "C", "categoryCode": "09", "address": "10770, RUE CHAMBORD", "city": "MONTREAL", "province": "QC", "country": "CA", "postalCode": "H2C2R8", "twitter": "None", "instagram": "None", "facebook": "None", "youtube": "None", "website": "None", "summary": "None", "logo": "None", "latitude": 45.56195007908719, "longitude": -73.66547071816024}, "118793520RR0001": {"name": "ASSOCIATION DES SCOUTS DU CANADA CONSEIL NATIONAL", "designationCode": "C", "categoryCode": "29", "address": "7331 RUE ST-DENIS", "city": "MONTREAL", "province": "QC", "country": "CA", "postalCode": "H2R2E5", "twitter": "None", "instagram": "None", "facebook": "None", "youtube": "None", "website": "None", "summary": "None", "logo": "None", "latitude": 45.53926088816424, "longitude": -73.6174749822264}, "118793595RR0001": {"name": "ASSOCIATION DES SCOUTS DU CANADA DISTRICT DE HEARST", "designationCode": "C", "categoryCode": "29", "address": "P. O. BOX 303", "city": "MOONBEAM", "province": "ON", "country": "CA", "postalCode": "P0L1V0", "twitter": "None", "instagram": "None", "facebook": "None", "youtube": "None", "website": "None", "summary": "None", "logo": "None", "latitude": 49.341440000000034, "longitude": -82.15248999999994}, "130164288RR0001": {"name": "ASSOCIATION DES SCOUTS DU CANADA DISTRICT DE QUEBEC GROUPE SCOUT ET GUIDE DE ST SAUVEUR", "designationCode": "C", "categoryCode": "29", "address": "215 DES OBLATS", "city": "QUEBEC", "province": "QC", "country": "CA", "postalCode": "G1K9A4", "twitter": "None", "instagram": "None", "facebook": "None", "youtube": "None", "website": "None", "summary": "None", "logo": "None", "latitude": 46.81156664611354, "longitude": -71.23534685801273}, "118793611RR0001": {"name": "ASSOCIATION DES SCOUTS DU CANADA DISTRICT RIVIERE ROUGE INC. ASSOCIATION DES SCOUTS DU CANADA RED RIVER DISTRICT INC.", "designationCode": "C", "categoryCode": "29", "address": "225-B, RUE DUMOULIN", "city": "WINNIPEG", "province": "MB", "country": "CA", "postalCode": "R2H0E4", "twitter": "None", "instagram": "None", "facebook": "None", "youtube": "None", "website": "None", "summary": "None", "logo": "None", "latitude": 49.893579176265064, "longitude": -97.12052969499095}, "118793579RR0001": {"name": "ASSOCIATION DES SCOUTS DU CANADA,DISTRICT DE LA MAURICIE", "designationCode": "C", "categoryCode": "29", "address": "1295 CH. DES PINS", "city": "TROIS-RIVIERES", "province": "QC", "country": "CA", "postalCode": "G8W2K1", "twitter": "None", "instagram": "None", "facebook": "None", "youtube": "None", "website": "None", "summary": "None", "logo": "None", "latitude": 46.39905374647286, "longitude": -72.61446726194893}, "892263542RR0001": {"name": "ASSOCIATION DES SCULPTEURS DE LAVAL INC.", "designationCode": "C", "categoryCode": "22", "address": "2454 PRUDENTIEL", "city": "LAVAL", "province": "QC", "country": "CA", "postalCode": "H7K2T3", "twitter": "None", "instagram": "None", "facebook": "None", "youtube": "None", "website": "None", "summary": "None", "logo": "None", "latitude": 45.62201004247212, "longitude": -73.7345477811759}, "851384230RR0001": {"name": "ASSOCIATION DES SERVICES D'AIDE EN RESIDENCE DU LAC-SAINT-JEAN-EST", "designationCode": "C", "categoryCode": "09", "address": "297, RUE TURGEON", "city": "HEBERTVILLE", "province": "QC", "country": "CA", "postalCode": "G8N1S5", "twitter": "None", "instagram": "None", "facebook": "None", "youtube": "None", "website": "None", "summary": "None", "logo": "None", "latitude": 48.39319071801602, "longitude": -71.67794497282}, "894385855RR0001": {"name": "ASSOCIATION DES SOURDS DE L'ESTRIE INC.", "designationCode": "C", "categoryCode": "09", "address": "100-359 RUE KING EST", "city": "SHERBROOKE", "province": "QC", "country": "CA", "postalCode": "J1G1B3", "twitter": "None", "instagram": "None", "facebook": "None", "youtube": "None", "website": "None", "summary": "None", "logo": "None", "latitude": 45.40732196753987, "longitude": -71.88132685250146}, "137202768RR0001": {"name": "ASSOCIATION DES SOURDS DE LANAUDIERE INC.", "designationCode": "C", "categoryCode": "09", "address": "312-200 RUE DESALABERRY", "city": "JOLIETTE", "province": "QC", "country": "CA", "postalCode": "J6E4G1", "twitter": "None", "instagram": "None", "facebook": "None", "youtube": "None", "website": "None", "summary": "None", "logo": "None", "latitude": 46.01837400000005, "longitude": -73.43301499999993}, "844249870RR0001": {"name": "ASSOCIATION DES SOURDS DU BAS-ST-LAURENT", "designationCode": "C", "categoryCode": "11", "address": "1034 RUE DU PARC", "city": "RIMOUSKI", "province": "QC", "country": "CA", "postalCode": "G5M1L5", "twitter": "None", "instagram": "None", "facebook": "None", "youtube": "None", "website": "None", "summary": "None", "logo": "None", "latitude": 48.51261404440536, "longitude": -68.46172272026638}, "140777608RR0001": {"name": "ASSOCIATION DES SPORTIFS DE TEMPLETON-OUEST INC", "designationCode": "C", "categoryCode": "56", "address": "524 CH. SAINT-THOMAS", "city": "GATINEAU", "province": "QC", "country": "CA", "postalCode": "J8R3H7", "twitter": "None", "instagram": "None", "facebook": "None", "youtube": "None", "website": "None", "summary": "None", "logo": "None", "latitude": 45.52987154616571, "longitude": -75.66308839771487}, "100303486RR0001": {"name": "ASSOCIATION DES SPORTS POUR AVEUGLES DE MONTREAL INC.", "designationCode": "C", "categoryCode": "01", "address": "428 - 4450 RUE SAINT-HUBERT", "city": "MONTREAL", "province": "QC", "country": "CA", "postalCode": "H2J2W9", "twitter": "None", "instagram": "None", "facebook": "None", "youtube": "None", "website": "None", "summary": "None", "logo": "None", "latitude": 45.52513365803011, "longitude": -73.58025329450612}, "118793660RR0001": {"name": "ASSOCIATION DES STOMISES DE LA MAURICIE", "designationCode": "C", "categoryCode": "11", "address": "CP 1492", "city": "TROIS-RIVIERES", "province": "QC", "country": "CA", "postalCode": "G9A5L6", "twitter": "None", "instagram": "None", "facebook": "None", "youtube": "None", "website": "None", "summary": "None", "logo": "None", "latitude": 46.34016900000006, "longitude": -72.54503449999993}, "118793694RR0001": {"name": "ASSOCIATION DES STOMISES DE RICHELIEU-YAMASKA", "designationCode": "C", "categoryCode": "11", "address": "CP 183", "city": "ST-HYACINTHE", "province": "QC", "country": "CA", "postalCode": "J2S7B4", "twitter": "None", "instagram": "None", "facebook": "None", "youtube": "None", "website": "None", "summary": "None", "logo": "None", "latitude": 45.62664000000005, "longitude": -72.94719049999993}, "135943272RR0001": {"name": "ASSOCIATION DES STOMISES DU GRAND-PORTAGE (A S G P )", "designationCode": "C", "categoryCode": "11", "address": "C.P. 1622", "city": "RIVI\u00c8RE-DU-LOUP", "province": "QC", "country": "CA", "postalCode": "G5R4M2", "twitter": "None", "instagram": "None", "facebook": "None", "youtube": "None", "website": "None", "summary": "None", "logo": "None", "latitude": 47.835060000000055, "longitude": -69.53702299999993}, "118793702RR0001": {"name": "ASSOCIATION DES SUPERIEURS MAJEURS DU DIOCESE DE MONTREAL", "designationCode": "C", "categoryCode": "49", "address": "1340 BOUL. SAINT-JOSEPH EST", "city": "MONTR\u00c9AL", "province": "QC", "country": "CA", "postalCode": "H2J1M3", "twitter": "None", "instagram": "None", "facebook": "None", "youtube": "None", "website": "None", "summary": "None", "logo": "None", "latitude": 45.53273500998332, "longitude": -73.58173038799134}, "141478396RR0001": {"name": "ASSOCIATION DES TCC ET ACV DE LA GASPESIE ET DES ILES-DE-LA-MADELEINE", "designationCode": "C", "categoryCode": "09", "address": "20A RUE DES FAUVETTES", "city": "MARIA", "province": "QC", "country": "CA", "postalCode": "G0C1Y0", "twitter": "None", "instagram": "None", "facebook": "None", "youtube": "None", "website": "None", "summary": "None", "logo": "None", "latitude": 48.172444189452946, "longitude": -65.9855254857221}, "889580767RR0001": {"name": "ASSOCIATION DES TR\u00c9SORI\u00c8RES ET TR\u00c9SORIERS DES INSTITUTS RELIGIEUX (ATTIR)", "designationCode": "C", "categoryCode": "49", "address": "BUREAU 401                    6450 AVENUE CHRISTOPHE-COLOMB", "city": "MONTREAL", "province": "QC", "country": "CA", "postalCode": "H2S2S7", "twitter": "None", "instagram": "None", "facebook": "None", "youtube": "None", "website": "None", "summary": "None", "logo": "None", "latitude": 45.537677855098536, "longitude": -73.6013040960527}, "891012387RR0001": {"name": "ASSOCIATION DES TRAUMATIS\u00c9S CRANIO-C\u00c9R\u00c9BRAUX MAURICIE/CENTRE-DU-QU\u00c9BEC", "designationCode": "C", "categoryCode": "09", "address": "39, RUE BELLERIVE             TROIS-RIVIERES", "city": "SECTEUR CAP-DE-LA-MADELEINE", "province": "QC", "country": "CA", "postalCode": "G8T6J4", "twitter": "None", "instagram": "None", "facebook": "None", "youtube": "None", "website": "None", "summary": "None", "logo": "None", "latitude": 46.360832280599, "longitude": -72.51229795268047}, "899000731RR0001": {"name": "ASSOCIATION DES TRAUMATISES CRANIO-CEREBRAUX DE LA MONTEREGIE", "designationCode": "C", "categoryCode": "11", "address": "308 RUE MONTSABR\u00c9             BUREAU D-131", "city": "BELOEIL", "province": "QC", "country": "CA", "postalCode": "J3G2H5", "twitter": "None", "instagram": "None", "facebook": "None", "youtube": "None", "website": "None", "summary": "None", "logo": "None", "latitude": 45.556986910677225, "longitude": -73.21165285983876}, "886611896RR0001": {"name": "ASSOCIATION DES TRAVAILLEURS ET TRAVAILLEUSES ACCIDENT\u00c9S DU MATAWIN", "designationCode": "C", "categoryCode": "59", "address": "313, SAINT-JACQUES", "city": "SAINT-MICHEL-DES-SAINTS", "province": "QC", "country": "CA", "postalCode": "J0K3B0", "twitter": "None", "instagram": "None", "facebook": "None", "youtube": "None", "website": "None", "summary": "None", "logo": "None", "latitude": 46.67754447071387, "longitude": -73.92247216763806}, "886206259RR0001": {"name": "ASSOCIATION DES TRAVAILLEURS, TRAVAILLEUSES ACCIDENTES DE JOLI-MONT", "designationCode": "C", "categoryCode": "09", "address": "4046, RUE QUEEN               PORTE 207", "city": "RAWDON", "province": "QC", "country": "CA", "postalCode": "J0K1S0", "twitter": "None", "instagram": "None", "facebook": "None", "youtube": "None", "website": "None", "summary": "None", "logo": "None", "latitude": 46.05209822678726, "longitude": -73.72164571533297}, "887377232RR0001": {"name": "ASSOCIATION DETENTE-SANTE DES 3 VILLAGES INC.", "designationCode": "C", "categoryCode": "99", "address": "POSTE 200, 15 RUE \u00c9MARD", "city": "LAC-DU-CERF", "province": "QC", "country": "CA", "postalCode": "J0W1S0", "twitter": "None", "instagram": "None", "facebook": "None", "youtube": "None", "website": "None", "summary": "None", "logo": "None", "latitude": 46.307183782416665, "longitude": -75.5040350393277}, "870604584RR0001": {"name": "ASSOCIATION DIABETE, ROUYN-NORANDA", "designationCode": "C", "categoryCode": "11", "address": "220 RUE 8E", "city": "ROUYN-NORANDA", "province": "QC", "country": "CA", "postalCode": "J9X2S8", "twitter": "None", "instagram": "None", "facebook": "None", "youtube": "None", "website": "None", "summary": "None", "logo": "None", "latitude": 48.249508798776624, "longitude": -79.01739062652229}, "139780209RR0001": {"name": "ASSOCIATION DOJO ZEN DE MONTREAL", "designationCode": "C", "categoryCode": "20", "address": "982 RUE GILFORD", "city": "MONTREAL", "province": "QC", "country": "CA", "postalCode": "H2J1P4", "twitter": "None", "instagram": "None", "facebook": "None", "youtube": "None", "website": "None", "summary": "None", "logo": "None", "latitude": 45.52879317762139, "longitude": -73.58335755992859}, "879550515RR0001": {"name": "ASSOCIATION DU CIMETI\u00c8ME DE RIVERFIELD / RIVERFIELD CEMETERYASSOCIATION", "designationCode": "C", "categoryCode": "59", "address": "P.O.BOX 357", "city": "HOWICK", "province": "QC", "country": "CA", "postalCode": "J0S1G0", "twitter": "None", "instagram": "None", "facebook": "None", "youtube": "None", "website": "None", "summary": "None", "logo": "None", "latitude": 45.18623000000008, "longitude": -73.84894999999995}, "875245409RR0001": {"name": "ASSOCIATION DU CIMETIERE DU CHEMIN DES ECOSSAIS / SCOTCH ROAD CEMETERY ASSOCIATION", "designationCode": "C", "categoryCode": "59", "address": "2168 SHERBROOKE ST WEST APT 16", "city": "MONTREAL", "province": "QC", "country": "CA", "postalCode": "H3H1G7", "twitter": "None", "instagram": "None", "facebook": "None", "youtube": "None", "website": "None", "summary": "None", "logo": "None", "latitude": 45.49241966385849, "longitude": -73.58626537867187}, "889031860RR0001": {"name": "ASSOCIATION DU COMITE DE RESTORATION DE ST ANDREWS/ST ANDREWS RESTORATION COMMITTEE ASSOCIATION", "designationCode": "C", "categoryCode": "52", "address": "15, TUER RD", "city": "BOLTON-OUEST", "province": "QC", "country": "CA", "postalCode": "J0E2T0", "twitter": "None", "instagram": "None", "facebook": "None", "youtube": "None", "website": "None", "summary": "None", "logo": "None", "latitude": 45.194213892030724, "longitude": -72.448986821369}, "100303817RR0001": {"name": "ASSOCIATION DU DIABETE - LAVAL, LAURENTIEDES, M.R.C. DES MOULINS INC.", "designationCode": "C", "categoryCode": "11", "address": "3030 BOUL LE CARREFOUR        BUREAU 1001", "city": "LAVAL", "province": "QC", "country": "CA", "postalCode": "H7T2P5", "twitter": "None", "instagram": "None", "facebook": "None", "youtube": "None", "website": "None", "summary": "None", "logo": "None", "latitude": 45.567772462086864, "longitude": -73.7504257036762}, "133214601RR0001": {"name": "ASSOCIATION DU DIABETE DU QUEBEC INC", "designationCode": "C", "categoryCode": "11", "address": "8550 BLVD. PIE IX             SUITE 300", "city": "MONTREAL", "province": "QC", "country": "CA", "postalCode": "H1Z4G2", "twitter": "None", "instagram": "None", "facebook": "None", "youtube": "None", "website": "None", "summary": "None", "logo": "None", "latitude": 45.57520768746048, "longitude": -73.61121331614619}, "865871214RR0001": {"name": "ASSOCIATION DU DIABETE ITALO-CANADIENNE DU QUEBEC", "designationCode": "C", "categoryCode": "11", "address": "6020 RUE JEAN TALON EAST      SUITE 630", "city": "ST.LEONARD", "province": "QC", "country": "CA", "postalCode": "H1S3B1", "twitter": "None", "instagram": "None", "facebook": "None", "youtube": "None", "website": "None", "summary": "None", "logo": "None", "latitude": 45.58735333859434, "longitude": -73.57867655006083}, "890323850RR0001": {"name": "ASSOCIATION DU PATRIMOINE DE POTTON", "designationCode": "C", "categoryCode": "50", "address": "C.P. 262", "city": "MANSONVILLE", "province": "QC", "country": "CA", "postalCode": "J0E1X0", "twitter": "None", "instagram": "None", "facebook": "None", "youtube": "None", "website": "None", "summary": "None", "logo": "None", "latitude": 45.04505601930315, "longitude": -72.39722322409843}, "859224636RR0001": {"name": "ASSOCIATION DU PROMOTION ET D'EDUCATION EN LOGEMENT", "designationCode": "C", "categoryCode": "09", "address": "3-183, RUE ST-EUSTACHE        2E \u00c9TAGE", "city": "SAINT-EUSTACHE", "province": "QC", "country": "CA", "postalCode": "J7R2L5", "twitter": "None", "instagram": "None", "facebook": "None", "youtube": "None", "website": "None", "summary": "None", "logo": "None", "latitude": 45.558402169051696, "longitude": -73.89411864100632}, "100304005RR0001": {"name": "ASSOCIATION DU QUEBEC POUR ENFANTS AVEC PROBLEMES AUDITIFS", "designationCode": "C", "categoryCode": "11", "address": "3700 RUE BERRI                BUREAU A-446", "city": "MONTREAL", "province": "QC", "country": "CA", "postalCode": "H2L4G9", "twitter": "None", "instagram": "None", "facebook": "None", "youtube": "None", "website": "None", "summary": "None", "logo": "None", "latitude": 45.52020192838599, "longitude": -73.571693767009}, "889951463RR0001": {"name": "ASSOCIATION DU QUEBEC POUR ENFANTS AVEC PROBLEMES AUDITIFS (A Q E P A ) ABITIBI-TEMISCAMINGUE (08) INC", "designationCode": "C", "categoryCode": "11", "address": "3700 BERRI BUREAU A-446", "city": "MONTREAL", "province": "QC", "country": "CA", "postalCode": "H2L4G9", "twitter": "None", "instagram": "None", "facebook": "None", "youtube": "None", "website": "None", "summary": "None", "logo": "None", "latitude": 45.52020192838599, "longitude": -73.571693767009}, "891240541RR0001": {"name": "ASSOCIATION DU QUEBEC POUR ENFANTS AVEC PROBLEMES AUDITIFS (A Q E P A ) BAS ST-LAURENT (01) INC.", "designationCode": "C", "categoryCode": "11", "address": "AQEPA                         3700 RUE BERRI BUREAU A-446", "city": "MONTREAL", "province": "QC", "country": "CA", "postalCode": "H2L4G9", "twitter": "None", "instagram": "None", "facebook": "None", "youtube": "None", "website": "None", "summary": "None", "logo": "None", "latitude": 45.52020192838599, "longitude": -73.571693767009}, "892963760RR0001": {"name": "ASSOCIATION DU QUEBEC POUR ENFANTS AVEC PROBLEMES AUDITIFS (A Q E P A ) COTE-NORD (09) INC", "designationCode": "C", "categoryCode": "11", "address": "3007, RUE BERRY               BUREAU 446", "city": "MONTREAL", "province": "QC", "country": "CA", "postalCode": "H2L4G9", "twitter": "None", "instagram": "None", "facebook": "None", "youtube": "None", "website": "None", "summary": "None", "logo": "None", "latitude": 45.51970200000005, "longitude": -73.57064749999994}, "890750748RR0001": {"name": "ASSOCIATION DU QUEBEC POUR ENFANTS AVEC PROBLEMES AUDITIFS (A Q E P A ) ESTRIE (05) INC", "designationCode": "C", "categoryCode": "11", "address": "207 - 1255 RUE DANIEL", "city": "SHERBROOKE", "province": "QC", "country": "CA", "postalCode": "J1H5X3", "twitter": "None", "instagram": "None", "facebook": "None", "youtube": "None", "website": "None", "summary": "None", "logo": "None", "latitude": 45.38691347547438, "longitude": -71.90707461226845}, "891236341RR0001": {"name": "ASSOCIATION DU QUEBEC POUR ENFANTS AVEC PROBLEMES AUDITIFS (A Q E P A ) GASPESIE RIVE-SUD/ILES DE LA MADELEINE INC", "designationCode": "C", "categoryCode": "11", "address": "3700 RUE BERRI BUREAU A-446", "city": "MONTREAL", "province": "QC", "country": "CA", "postalCode": "H2L4G9", "twitter": "None", "instagram": "None", "facebook": "None", "youtube": "None", "website": "None", "summary": "None", "logo": "None", "latitude": 45.52020192838599, "longitude": -73.571693767009}, "885548123RR0001": {"name": "ASSOCIATION DU QUEBEC POUR ENFANTS AVEC PROBLEMES AUDITIFS (A Q E P A ) MONTREAL REGIONAL (06-13-14-15-16) INC", "designationCode": "C", "categoryCode": "11", "address": "LOCAL A-436-3700 RUE BERRI", "city": "MONTREAL", "province": "QC", "country": "CA", "postalCode": "H2L4G9", "twitter": "None", "instagram": "None", "facebook": "None", "youtube": "None", "website": "None", "summary": "None", "logo": "None", "latitude": 45.52020192838599, "longitude": -73.571693767009}, "891242141RR0001": {"name": "ASSOCIATION DU QUEBEC POUR ENFANTS AVEC PROBLEMES AUDITIFS (A Q E P A ) SAGUENAY (02 OUEST) INC", "designationCode": "C", "categoryCode": "11", "address": "3700 RUE BERRI                BUREAU A-446", "city": "MONTR\u00c9AL", "province": "QC", "country": "CA", "postalCode": "H2L4G9", "twitter": "None", "instagram": "None", "facebook": "None", "youtube": "None", "website": "None", "summary": "None", "logo": "None", "latitude": 45.52020192838599, "longitude": -73.571693767009}, "141369157RR0001": {"name": "ASSOCIATION DU QUEBEC POUR ENFANTS AVEC PROBLEMES AUDITIFS (A.Q.E.P.A.) LAC SAINT-JEAN (02 EST) INC.", "designationCode": "C", "categoryCode": "11", "address": "AQEPA                         3700 RUE BERRI  BUREAU A-446", "city": "MONTREAL", "province": "QC", "country": "CA", "postalCode": "H2L4G9", "twitter": "None", "instagram": "None", "facebook": "None", "youtube": "None", "website": "None", "summary": "None", "logo": "None", "latitude": 45.52020192838599, "longitude": -73.571693767009}, "892968561RR0001": {"name": "ASSOCIATION DU QUEBEC POUR ENFANTS AVEC PROBLEMES AUDITIFS (A.Q.E.P.A.) OUTAOUAIS (07) INC.", "designationCode": "C", "categoryCode": "11", "address": "3700 RUE BERRI BUREAU A-446", "city": "MONTREAL", "province": "QC", "country": "CA", "postalCode": "H2L4G9", "twitter": "None", "instagram": "None", "facebook": "None", "youtube": "None", "website": "None", "summary": "None", "logo": "None", "latitude": 45.52020192838599, "longitude": -73.571693767009}, "899829840RR0001": {"name": "ASSOCIATION DU QUEBEC POUR ENFANTS AVEC PROBLEMES AUDITIFS (A.Q.E.P.A.) QUEBEC METRO (03-12) INC.", "designationCode": "C", "categoryCode": "11", "address": "275 - 157 RUE DES CHENES O", "city": "QUEBEC", "province": "QC", "country": "CA", "postalCode": "G1L1K6", "twitter": "None", "instagram": "None", "facebook": "None", "youtube": "None", "website": "None", "summary": "None", "logo": "None", "latitude": 46.8335744794454, "longitude": -71.2515373530116}, "891104341RR0001": {"name": "ASSOCIATION DU QUEBEC POUR ENFANTS AVEC PROBLEMES AUDITIFS MAURICIE-CENTRE-DU-QUEBEC INC.", "designationCode": "C", "categoryCode": "11", "address": "3700 RUE BERRI                BUREAU A-446", "city": "MONTREAL", "province": "QC", "country": "CA", "postalCode": "H2L4G9", "twitter": "None", "instagram": "None", "facebook": "None", "youtube": "None", "website": "None", "summary": "None", "logo": "None", "latitude": 45.52020192838599, "longitude": -73.571693767009}, "106731698RR0001": {"name": "ASSOCIATION DU QUEBEC POUR L'INTEGRATION SOCIALE", "designationCode": "C", "categoryCode": "11", "address": "3958 RUE DANDURAND", "city": "MONTREAL", "province": "QC", "country": "CA", "postalCode": "H1X1P7", "twitter": "None", "instagram": "None", "facebook": "None", "youtube": "None", "website": "None", "summary": "None", "logo": "None", "latitude": 45.558357684978986, "longitude": -73.57218453661507}, "888751344RR0001": {"name": "ASSOCIATION DU SKI ALPIN ADAPTE EN ABITIBI", "designationCode": "C", "categoryCode": "11", "address": "291 3E AV E", "city": "AMOS", "province": "QC", "country": "CA", "postalCode": "J9T1E8", "twitter": "None", "instagram": "None", "facebook": "None", "youtube": "None", "website": "None", "summary": "None", "logo": "None", "latitude": 48.57410651543635, "longitude": -78.1084035}, "890593734RR0001": {"name": "ASSOCIATION DU SYNDROME DE SJOGREN INC./SJOGREN'S SYNDROME ASSOCIATION INC.", "designationCode": "C", "categoryCode": "11", "address": "3155 RUE HOCHELAGA SUITE 164  BUREAU 001", "city": "MONTREAL", "province": "QC", "country": "CA", "postalCode": "H1W1G4", "twitter": "None", "instagram": "None", "facebook": "None", "youtube": "None", "website": "None", "summary": "None", "logo": "None", "latitude": 45.542420024986974, "longitude": -73.55416159259026}, "884666710RR0001": {"name": "ASSOCIATION DU SYNDROME DE USHER DU QUEBEC", "designationCode": "C", "categoryCode": "11", "address": "213 - 2200 BOUL CREMAZIE E", "city": "MONTREAL", "province": "QC", "country": "CA", "postalCode": "H2E2Z8", "twitter": "None", "instagram": "None", "facebook": "None", "youtube": "None", "website": "None", "summary": "None", "logo": "None", "latitude": 45.55576849428721, "longitude": -73.61802237994127}, "892520164RR0001": {"name": "ASSOCIATION DYSPHASIE +", "designationCode": "C", "categoryCode": "09", "address": "3350 DAGENAIS O", "city": "LAVAL", "province": "QC", "country": "CA", "postalCode": "H7P1V6", "twitter": "None", "instagram": "None", "facebook": "None", "youtube": "None", "website": "None", "summary": "None", "logo": "None", "latitude": 45.57894881652157, "longitude": -73.80487418705644}, "136435831RR0001": {"name": "ASSOCIATION ENTRE TES MAINS", "designationCode": "C", "categoryCode": "09", "address": "4924, RUE WELLINGTON", "city": "VERDUN", "province": "QC", "country": "CA", "postalCode": "H4G1X6", "twitter": "None", "instagram": "None", "facebook": "None", "youtube": "None", "website": "None", "summary": "None", "logo": "None", "latitude": 45.45640617707313, "longitude": -73.56759521285147}, "880244983RR0001": {"name": "ASSOCIATION EPILEPSIE ABITIBI-TEMISCAMINGUE", "designationCode": "C", "categoryCode": "11", "address": "471 RUE DES PINS", "city": "MALARTIC", "province": "QC", "country": "CA", "postalCode": "J0Y1Z0", "twitter": "None", "instagram": "None", "facebook": "None", "youtube": "None", "website": "None", "summary": "None", "logo": "None", "latitude": 48.14483450291419, "longitude": -78.11851884759672}, "125423582RR0001": {"name": "ASSOCIATION EPILEPSIE-ESTRIE INC", "designationCode": "C", "categoryCode": "09", "address": "101 - 1131 RUE DU CONSEIL", "city": "SHERBROOKE", "province": "QC", "country": "CA", "postalCode": "J1G1M6", "twitter": "None", "instagram": "None", "facebook": "None", "youtube": "None", "website": "None", "summary": "None", "logo": "None", "latitude": 45.40384349321932, "longitude": -71.86403233236193}, "846599546RR0001": {"name": "ASSOCIATION ESPERANCE DE VIE - ENFANTS DU MONDE", "designationCode": "C", "categoryCode": "09", "address": "3530 BOULEVARD GOUIN EST", "city": "MONTREAL", "province": "QC", "country": "CA", "postalCode": "H1H1B7", "twitter": "None", "instagram": "None", "facebook": "None", "youtube": "None", "website": "None", "summary": "None", "logo": "None", "latitude": 45.591237086012065, "longitude": -73.64970919366422}, "120281472RR0001": {"name": "ASSOCIATION EVANGELIQUE DU SCOUTISME AU QUEBEC", "designationCode": "C", "categoryCode": "29", "address": "12 ST-RAPHAEL", "city": "GATINEAU", "province": "QC", "country": "CA", "postalCode": "J8T5L9", "twitter": "None", "instagram": "None", "facebook": "None", "youtube": "None", "website": "None", "summary": "None", "logo": "None", "latitude": 45.487323282272435, "longitude": -75.73773498554462}, "886749522RR0001": {"name": "ASSOCIATION FIBROMYALGIE DE DUPLESSIS", "designationCode": "C", "categoryCode": "11", "address": "690 BLVD LAURE                BUREAU 222-E", "city": "SEPT-ILES", "province": "QC", "country": "CA", "postalCode": "G4R4N8", "twitter": "None", "instagram": "None", "facebook": "None", "youtube": "None", "website": "None", "summary": "None", "logo": "None", "latitude": 50.21835356344836, "longitude": -66.38206273100045}, "118793819RR0001": {"name": "ASSOCIATION FOR ACTION ON SMOKING AND HEALTH (A.A.S.H.)", "designationCode": "C", "categoryCode": "59", "address": "3-300-11405 87 AVE", "city": "EDMONTON", "province": "AB", "country": "CA", "postalCode": "T6G1C9", "twitter": "None", "instagram": "None", "facebook": "None", "youtube": "None", "website": "None", "summary": "None", "logo": "None", "latitude": 53.52279459597168, "longitude": -113.52680533974713}, "118777275RR0001": {"name": "ASSOCIATION FOR BRIGHT CHILDREN OF ONTARIO/SOCIETE POUR ENFANTS DOUES ET SURDOUES D'ONTARIO", "designationCode": "C", "categoryCode": "21", "address": "4 SIMPSON RD", "city": "BOLTON", "province": "ON", "country": "CA", "postalCode": "L7E1G9", "twitter": "None", "instagram": "None", "facebook": "None", "youtube": "None", "website": "None", "summary": "None", "logo": "None"}, "898775143RR0001": {"name": "ASSOCIATION FOR CANADIAN JEWISH STUDIES A.C.J.S./ASSOCIATION CANADIENNE POUR LES ETUDES JUIVES A.C.J.S.", "designationCode": "C", "categoryCode": "50", "address": "1455 BOUL DE MAISONNEUVE W", "city": "MONTREAL", "province": "QC", "country": "CA", "postalCode": "H3G1M8", "twitter": "None", "instagram": "None", "facebook": "None", "youtube": "None", "website": "None", "summary": "None", "logo": "None", "latitude": 45.496936779098455, "longitude": -73.57860649056494}, "137417374RR0001": {"name": "ASSOCIATION FOR CHRISTIAN SCHOOLING IN CALGARY SOUTH", "designationCode": "C", "categoryCode": "20", "address": "100-295 MIDPARK WAY SE", "city": "CALGARY", "province": "AB", "country": "CA", "postalCode": "T2X2A8", "twitter": "None", "instagram": "None", "facebook": "None", "youtube": "None", "website": "None", "summary": "None", "logo": "None", "latitude": 50.90926433043842, "longitude": -114.06302796494288}, "106731904RR0001": {"name": "ASSOCIATION FOR COMMUNITY LIVING (INTERLAKE BRANCH) INC.", "designationCode": "C", "categoryCode": "11", "address": "BOX 1222", "city": "STONEWALL", "province": "MB", "country": "CA", "postalCode": "R0C2Z0", "twitter": "None", "instagram": "None", "facebook": "None", "youtube": "None", "website": "None", "summary": "None", "logo": "None", "latitude": 50.36947800000006, "longitude": -96.84479599999993}, "106731987RR0001": {"name": "ASSOCIATION FOR COMMUNITY LIVING - BEAUSEJOUR BRANCH INC.", "designationCode": "C", "categoryCode": "11", "address": "BOX 1015", "city": "BEAUSEJOUR", "province": "MB", "country": "CA", "postalCode": "R0E0C0", "twitter": "None", "instagram": "None", "facebook": "None", "youtube": "None", "website": "None", "summary": "None", "logo": "None", "latitude": 50.061750000000075, "longitude": -96.50519999999995}, "106731862RR0001": {"name": "ASSOCIATION FOR COMMUNITY LIVING - FLIN FLON BRANCH INC.", "designationCode": "C", "categoryCode": "11", "address": "76 CHANNING DR", "city": "FLIN FLON", "province": "MB", "country": "CA", "postalCode": "R8A0S4", "twitter": "None", "instagram": "None", "facebook": "None", "youtube": "None", "website": "None", "summary": "None", "logo": "None", "latitude": 54.76557206050552, "longitude": -101.85580796185573}, "118829266RR0001": {"name": "ASSOCIATION FOR COMMUNITY LIVING - MANITOBA INC.", "designationCode": "C", "categoryCode": "11", "address": "BOX 980", "city": "GIMLI", "province": "MB", "country": "CA", "postalCode": "R0C1B0", "twitter": "None", "instagram": "None", "facebook": "None", "youtube": "None", "website": "None", "summary": "None", "logo": "None", "latitude": 50.30677349294383, "longitude": -96.92898988377391}, "888699998RR0001": {"name": "ASSOCIATION FOR COMMUNITY LIVING - PORTAGE LA PRAIRIE AND DISTRICT BRANCH INC.", "designationCode": "C", "categoryCode": "11", "address": "PO BOX 773", "city": "PORTAGE LA PRAIRIE", "province": "MB", "country": "CA", "postalCode": "R1N3C2", "twitter": "None", "instagram": "None", "facebook": "None", "youtube": "None", "website": "None", "summary": "None", "logo": "None", "latitude": 49.97301900000005, "longitude": -98.29058299999993}, "106731946RR0001": {"name": "ASSOCIATION FOR COMMUNITY LIVING - STEINBACH BRANCH INC.", "designationCode": "C", "categoryCode": "11", "address": "84 BRANDT ST", "city": "STEINBACH", "province": "MB", "country": "CA", "postalCode": "R5G0E1", "twitter": "None", "instagram": "None", "facebook": "None", "youtube": "None", "website": "None", "summary": "None", "logo": "None", "latitude": 49.5247827170808, "longitude": -96.6915302829192}, "122861941RR0001": {"name": "ASSOCIATION FOR COMMUNITY LIVING ROLLING DALE BRANCH INC", "designationCode": "C", "categoryCode": "11", "address": "BOX 327", "city": "RIVERS", "province": "MB", "country": "CA", "postalCode": "R0K1X0", "twitter": "None", "instagram": "None", "facebook": "None", "youtube": "None", "website": "None", "summary": "None", "logo": "None", "latitude": 49.55658299999999, "longitude": -99.0937665}, "118793868RR0001": {"name": "ASSOCIATION FOR COMMUNITY LIVING-ARBORG BRANCH INC.", "designationCode": "C", "categoryCode": "11", "address": "PO BOX 658", "city": "ARBORG", "province": "MB", "country": "CA", "postalCode": "R0C0A0", "twitter": "None", "instagram": "None", "facebook": "None", "youtube": "None", "website": "None", "summary": "None", "logo": "None", "latitude": 50.91022850109325, "longitude": -97.2043884534773}, "118793876RR0001": {"name": "ASSOCIATION FOR COMMUNITY LIVING-BRANDON BRANCH INC.", "designationCode": "C", "categoryCode": "11", "address": "652 12TH ST", "city": "BRANDON", "province": "MB", "country": "CA", "postalCode": "R7A4M9", "twitter": "None", "instagram": "None", "facebook": "None", "youtube": "None", "website": "None", "summary": "None", "logo": "None", "latitude": 49.83940799999999, "longitude": -99.95421260286204}, "130493364RR0001": {"name": "ASSOCIATION FOR COMMUNITY LIVING-MANITOBA INC/ASSOCIATION POUR L'INTEGRATION COMMUN1TAIRE MANITOBA INC", "designationCode": "C", "categoryCode": "11", "address": "6 - 120 MARYLAND ST", "city": "WINNIPEG", "province": "MB", "country": "CA", "postalCode": "R3G1L1", "twitter": "None", "instagram": "None", "facebook": "None", "youtube": "None", "website": "None", "summary": "None", "logo": "None", "latitude": 49.88229750000001, "longitude": -97.16093325}, "106735632RR0001": {"name": "ASSOCIATION FOR COMMUNITY LIVING-RED RIVER BRANCH INC./ASSOCIATION POUR L'INTEGRATION COMMUNAUTAIRE-FILIALE RIVIERE ROUGE INC.", "designationCode": "C", "categoryCode": "11", "address": "BOX 280", "city": "ST MALO", "province": "MB", "country": "CA", "postalCode": "R0A1T0", "twitter": "None", "instagram": "None", "facebook": "None", "youtube": "None", "website": "None", "summary": "None", "logo": "None", "latitude": 49.31380157685065, "longitude": -96.95277278028621}, "118829258RR0001": {"name": "ASSOCIATION FOR COMMUNITY LIVING-SELKIRK AND DISTRICT BRANCH INC.", "designationCode": "C", "categoryCode": "11", "address": "306 JEMIMA ST", "city": "SELKIRK", "province": "MB", "country": "CA", "postalCode": "R1A1X1", "twitter": "None", "instagram": "None", "facebook": "None", "youtube": "None", "website": "None", "summary": "None", "logo": "None", "latitude": 50.14195007361494, "longitude": -96.879683222978}, "118793926RR0001": {"name": "ASSOCIATION FOR COMMUNITY LIVING-SWAN RIVER BRANCH INC.", "designationCode": "C", "categoryCode": "11", "address": "BOX 1282", "city": "SWAN RIVER", "province": "MB", "country": "CA", "postalCode": "R0L1Z0", "twitter": "None", "instagram": "None", "facebook": "None", "youtube": "None", "website": "None", "summary": "None", "logo": "None"}, "118793991RR0001": {"name": "ASSOCIATION FOR ENGLISH GERMAN BILINGUAL EDUCATION OF EDMONTON", "designationCode": "C", "categoryCode": "20", "address": "PO BOX 76039  RPO SOUTHGATE", "city": "EDMONTON", "province": "AB", "country": "CA", "postalCode": "T6H5Y7", "twitter": "None", "instagram": "None", "facebook": "None", "youtube": "None", "website": "None", "summary": "None", "logo": "None", "latitude": 53.48413000000005, "longitude": -113.51408999999995}, "861260461RR0001": {"name": "ASSOCIATION FOR GERMAN EDUCATION IN CALGARY", "designationCode": "C", "categoryCode": "21", "address": "3940 73 ST NW", "city": "CALGARY", "province": "AB", "country": "CA", "postalCode": "T3B2L9", "twitter": "None", "instagram": "None", "facebook": "None", "youtube": "None", "website": "None", "summary": "None", "logo": "None", "latitude": 51.08746558673323, "longitude": -114.19340924978364}, "890374515RR0001": {"name": "ASSOCIATION FOR HIGHER EDUCATION AND DEVELOPMENT", "designationCode": "C", "categoryCode": "59", "address": "13 CANBURY CRES", "city": "OTTAWA", "province": "ON", "country": "CA", "postalCode": "K2G4L3", "twitter": "None", "instagram": "None", "facebook": "None", "youtube": "None", "website": "None", "summary": "None", "logo": "None", "latitude": 45.33712851788917, "longitude": -75.74392751817763}, "140773284RR0001": {"name": "ASSOCIATION FOR MANITOBA ARCHIVES, INC", "designationCode": "C", "categoryCode": "50", "address": "600 SHAFTESBURY BLVD", "city": "WINNIPEG", "province": "MB", "country": "CA", "postalCode": "R3P0M4", "twitter": "None", "instagram": "None", "facebook": "None", "youtube": "None", "website": "None", "summary": "None", "logo": "None", "latitude": 49.85723602553523, "longitude": -97.23061411959645}, "863205316RR0001": {"name": "ASSOCIATION FOR MEDIA AND TECHNOLOGY IN EDUCATION IN CANADA TRUST", "designationCode": "A", "categoryCode": "21", "address": "#204-260 DALHOUSIE", "city": "OTTAWA", "province": "ON", "country": "CA", "postalCode": "K1N7E4", "twitter": "None", "instagram": "None", "facebook": "None", "youtube": "None", "website": "None", "summary": "None", "logo": "None", "latitude": 45.430645002769964, "longitude": -75.69270559368677}, "896056785RR0001": {"name": "ASSOCIATION FOR NEW CANADIANS", "designationCode": "C", "categoryCode": "09", "address": "PO BOX 2031                   STATION C", "city": "ST JOHN'S", "province": "NL", "country": "CA", "postalCode": "A1C5R6", "twitter": "None", "instagram": "None", "facebook": "None", "youtube": "None", "website": "None", "summary": "None", "logo": "None", "latitude": 47.56082100000006, "longitude": -52.71219349999993}, "863453718RR0001": {"name": "ASSOCIATION FOR PERSONS WITH PHYSICAL DISABILITIES OF WINDSOR AND ESSEX COUNTY FOUNDATION", "designationCode": "A", "categoryCode": "03", "address": "3141 SANDWICH STREET", "city": "WINDSOR", "province": "ON", "country": "CA", "postalCode": "N9C1A7", "twitter": "None", "instagram": "None", "facebook": "None", "youtube": "None", "website": "None", "summary": "None", "logo": "None", "latitude": 42.30363642238471, "longitude": -83.0746049682037}, "892047044RR0001": {"name": "ASSOCIATION FOR SAFE ALTERNATIVES IN CHILDBIRTH SOCIETY (ASAC)", "designationCode": "C", "categoryCode": "59", "address": "BOX 1197 MAIN POST OFFICE", "city": "EDMONTON", "province": "AB", "country": "CA", "postalCode": "T5J2M4", "twitter": "None", "instagram": "None", "facebook": "None", "youtube": "None", "website": "None", "summary": "None", "logo": "None", "latitude": 53.54623500000005, "longitude": -113.49037249999994}, "846956944RR0001": {"name": "ASSOCIATION FOR SUPPORTED COMMUNITY CONNECTIONS OF SPRUCE GROVE", "designationCode": "C", "categoryCode": "56", "address": "7 - 100 KING ST", "city": "SPRUCE GROVE", "province": "AB", "country": "CA", "postalCode": "T7X0J6", "twitter": "None", "instagram": "None", "facebook": "None", "youtube": "None", "website": "None", "summary": "None", "logo": "None", "latitude": 53.541925081885786, "longitude": -113.89997782292781}, "887417806RR0001": {"name": "ASSOCIATION FOR THE ADVANCEMENT OF SCHOLARSHIP", "designationCode": "C", "categoryCode": "23", "address": "1250-1500 W. GEORIGA STREET   BOX 62", "city": "VANCOUVER", "province": "BC", "country": "CA", "postalCode": "V6G2Z6", "twitter": "None", "instagram": "None", "facebook": "None", "youtube": "None", "website": "None", "summary": "None", "logo": "None", "latitude": 49.290187500000016, "longitude": -123.130035}, "833091879RR0001": {"name": "ASSOCIATION FOR THE CHILDREN OF MOZAMBIQUE (ASEM CANADA)", "designationCode": "C", "categoryCode": "01", "address": "1 YONGE STREET                SUITE 1801", "city": "TORONTO", "province": "ON", "country": "CA", "postalCode": "M5E1W7", "twitter": "None", "instagram": "None", "facebook": "None", "youtube": "None", "website": "None", "summary": "None", "logo": "None", "latitude": 43.64226473221161, "longitude": -79.37377030547039}, "875248908RR0001": {"name": "ASSOCIATION FOR WORKPLACE TRAGEDY FAMILY SUPPORT", "designationCode": "C", "categoryCode": "59", "address": "PO BOX 9066 1795 ERNEST AVE", "city": "LONDON", "province": "ON", "country": "CA", "postalCode": "N6E2V5", "twitter": "None", "instagram": "None", "facebook": "None", "youtube": "None", "website": "None", "summary": "None", "logo": "None", "latitude": 42.942052572018056, "longitude": -81.23668005695615}, "130752702RR0001": {"name": "ASSOCIATION FORESTI\u00c8RE DES DEUX RIVES", "designationCode": "C", "categoryCode": "52", "address": "103-870 AVE DE SALABERRY", "city": "QU\u00c9BEC", "province": "QC", "country": "CA", "postalCode": "G1R2T9", "twitter": "None", "instagram": "None", "facebook": "None", "youtube": "None", "website": "None", "summary": "None", "logo": "None", "latitude": 46.80589182679337, "longitude": -71.22672208246271}, "118813237RR0001": {"name": "ASSOCIATION FRANCO-ALBERTAINE DE L'UNITHEATRE", "designationCode": "C", "categoryCode": "22", "address": "8627-91 RUE BUREAU 126", "city": "EDMONTON", "province": "AB", "country": "CA", "postalCode": "T6C3N1", "twitter": "None", "instagram": "None", "facebook": "None", "youtube": "None", "website": "None", "summary": "None", "logo": "None", "latitude": 53.5223435029142, "longitude": -113.46738528455239}, "853807477RR0001": {"name": "ASSOCIATION FRANCO-CANADIENNE LUISA PICCARRETA", "designationCode": "C", "categoryCode": "47", "address": "C.P. 226", "city": "EASTMAN", "province": "QC", "country": "CA", "postalCode": "J0E1P0", "twitter": "None", "instagram": "None", "facebook": "None", "youtube": "None", "website": "None", "summary": "None", "logo": "None", "latitude": 45.04749698505707, "longitude": -72.50238632275297}, "887086486RR0001": {"name": "ASSOCIATION FRANCOPHONE DE CAMPBELL RIVER", "designationCode": "C", "categoryCode": "56", "address": "891  13TH  AVENUE", "city": "CAMPBELL RIVER", "province": "BC", "country": "CA", "postalCode": "V9W4G9", "twitter": "None", "instagram": "None", "facebook": "None", "youtube": "None", "website": "None", "summary": "None", "logo": "None", "latitude": 50.02803952784385, "longitude": -125.25371019317329}}