{"817872369RR0001": {"name": "La Fondation du Centre d'Accueil de la Baie", "designationCode": "C", "categoryCode": "11", "address": "108 BOUL.GERARD-D.-LEVESQUES", "city": "NEW CARLISLE", "province": "QC", "country": "CA", "postalCode": "G0C1Z0", "twitter": "None", "instagram": "None", "facebook": "None", "youtube": "None", "website": "None", "summary": "None", "logo": "None", "latitude": 48.0106436663069, "longitude": -65.32102890269452}, "859703555RR0001": {"name": "La Fondation du Centre d'Action B\u00e9n\u00e9vole de la Vall\u00e9e du Richelieu", "designationCode": "A", "categoryCode": "03", "address": "288 A, RADISSON", "city": "MONT-SAINT-HILAIRE", "province": "QC", "country": "CA", "postalCode": "J3H2Z4", "twitter": "None", "instagram": "None", "facebook": "None", "youtube": "None", "website": "None", "summary": "None", "logo": "None", "latitude": 45.56114320038666, "longitude": -73.1874073011139}, "800594392RR0001": {"name": "La Fondation du Plaisir de Mieux Manger", "designationCode": "B", "categoryCode": "03", "address": "11281 BOULEVARD ALBERT-HUDON", "city": "MONTREAL-NORD", "province": "QC", "country": "CA", "postalCode": "H1G3J5", "twitter": "None", "instagram": "None", "facebook": "None", "youtube": "None", "website": "None", "summary": "None", "logo": "None", "latitude": 45.61270048056427, "longitude": -73.60627702408132}, "813350329RR0001": {"name": "La Fondation du Theatre L'Escaouette", "designationCode": "A", "categoryCode": "23", "address": "170 BOTSFORD ST", "city": "MONCTON", "province": "NB", "country": "CA", "postalCode": "E1C4X6", "twitter": "None", "instagram": "None", "facebook": "None", "youtube": "None", "website": "None", "summary": "None", "logo": "None", "latitude": 46.093999610595, "longitude": -64.77808863284066}, "822027553RR0001": {"name": "La Fondation familiale Albert & Jimmy L\u00e9vy / The Albert & Jimmy L\u00e9vy Family Foundation", "designationCode": "B", "categoryCode": "03", "address": "361, RUE LOCKE", "city": "SAINT-LAURENT", "province": "QC", "country": "CA", "postalCode": "H4T1X7", "twitter": "None", "instagram": "None", "facebook": "None", "youtube": "None", "website": "None", "summary": "None", "logo": "None", "latitude": 45.48803726400791, "longitude": -73.69739555335039}, "809432685RR0001": {"name": "La Fondation impact de Montr\u00e9al / Montr\u00e9al Impact Foundation", "designationCode": "A", "categoryCode": "03", "address": "4750 RUE SHERBROOKE EST", "city": "MONTR\u00c9AL", "province": "QC", "country": "CA", "postalCode": "H1V3S8", "twitter": "None", "instagram": "None", "facebook": "None", "youtube": "None", "website": "None", "summary": "None", "logo": "None", "latitude": 45.561902828489885, "longitude": -73.55436673841807}, "822750030RR0001": {"name": "La Fondation le Cha\u00eenon / Le Cha\u00eenon Foundation", "designationCode": "A", "categoryCode": "03", "address": "4373 AVENUE DE L'ESPLANADE", "city": "MONTR\u00c9AL", "province": "QC", "country": "CA", "postalCode": "H2W1T2", "twitter": "None", "instagram": "None", "facebook": "None", "youtube": "None", "website": "None", "summary": "None", "logo": "None", "latitude": 45.5175812287205, "longitude": -73.58617118093962}, "756327326RR0001": {"name": "La Fondation soutenir les victimes", "designationCode": "C", "categoryCode": "09", "address": "2118 RUE FULLUM", "city": "MONTREAL", "province": "QC", "country": "CA", "postalCode": "H2K3N7", "twitter": "None", "instagram": "None", "facebook": "None", "youtube": "None", "website": "None", "summary": "None", "logo": "None"}, "801190836RR0001": {"name": "La Fondation Alexandre Charron Raymond", "designationCode": "B", "categoryCode": "03", "address": "38 ROTHWELL DRIVE", "city": "OTTAWA", "province": "ON", "country": "CA", "postalCode": "K1J7G4", "twitter": "None", "instagram": "None", "facebook": "None", "youtube": "None", "website": "None", "summary": "None", "logo": "None", "latitude": 45.452916594263705, "longitude": -75.61041238170162}, "838598605RR0001": {"name": "La Fondation Amiel / The Amiel Foundation", "designationCode": "B", "categoryCode": "03", "address": "4600 - 1751 RUE RICHARDSON", "city": "MONTREAL", "province": "QC", "country": "CA", "postalCode": "H3K1G6", "twitter": "None", "instagram": "None", "facebook": "None", "youtube": "None", "website": "None", "summary": "None", "logo": "None", "latitude": 45.48405242659698, "longitude": -73.56187541646942}, "877210674RR0002": {"name": "La Fondation Andr\u00e9 Boudreau", "designationCode": "C", "categoryCode": "57", "address": "910, RUE LABELLE", "city": "SAINT-J\u00c9R\u00d4ME", "province": "QC", "country": "CA", "postalCode": "J7Z5M5", "twitter": "None", "instagram": "None", "facebook": "None", "youtube": "None", "website": "None", "summary": "None", "logo": "None", "latitude": 45.789166101563964, "longitude": -74.00605023902094}, "887286607RR0001": {"name": "La Fondation Baptiste \u00c9vang\u00e9lique Barnabas", "designationCode": "C", "categoryCode": "49", "address": "9780 RUE SHERBROOKE E", "city": "MONTREAL", "province": "QC", "country": "CA", "postalCode": "H1L6N6", "twitter": "None", "instagram": "None", "facebook": "None", "youtube": "None", "website": "None", "summary": "None", "logo": "None", "latitude": 45.613468373016374, "longitude": -73.52511019966549}, "806098919RR0001": {"name": "La Fondation Blue Bridge pour l'enfance / The Blue Bridge Foundation for Children", "designationCode": "B", "categoryCode": "03", "address": "2108-1800 MCGILL COLLEGE AVE", "city": "MONTREAL", "province": "QC", "country": "CA", "postalCode": "H3A3J6", "twitter": "None", "instagram": "None", "facebook": "None", "youtube": "None", "website": "None", "summary": "None", "logo": "None", "latitude": 45.502263997201396, "longitude": -73.57198434321064}, "855807384RR0001": {"name": "La Fondation Boulevard/The Boulevard Foundation", "designationCode": "C", "categoryCode": "21", "address": "3100 THE BOULEVARD", "city": "MONTREAL", "province": "QC", "country": "CA", "postalCode": "H3Y1R9", "twitter": "None", "instagram": "None", "facebook": "None", "youtube": "None", "website": "None", "summary": "None", "logo": "None", "latitude": 45.49418593318002, "longitude": -73.5969547549631}, "894537455RR0001": {"name": "La Fondation Camille Lauzi\u00e8re Inc.", "designationCode": "C", "categoryCode": "22", "address": "2025 BOULEVARD ST.JOSEPH      C.P. 452", "city": "DRUMMONDVILLE", "province": "QC", "country": "CA", "postalCode": "J2B6W4", "twitter": "None", "instagram": "None", "facebook": "None", "youtube": "None", "website": "None", "summary": "None", "logo": "None", "latitude": 45.87679964885485, "longitude": -72.48621845718118}, "102934254RR0001": {"name": "La Fondation Chopin P\u00e9ladeau", "designationCode": "B", "categoryCode": "13", "address": "612, RUE ST-JACQUES OUEST     15E \u00c9TAGE", "city": "MONTR\u00c9AL", "province": "QC", "country": "CA", "postalCode": "H3C4M8", "twitter": "None", "instagram": "None", "facebook": "None", "youtube": "None", "website": "None", "summary": "None", "logo": "None", "latitude": 45.50091435192455, "longitude": -73.56066047056963}, "812650802RR0001": {"name": "La Fondation CFP du CRIFA", "designationCode": "C", "categoryCode": "21", "address": "125 RUE MORGAN", "city": "COATICOOK", "province": "QC", "country": "CA", "postalCode": "J1A1V6", "twitter": "None", "instagram": "None", "facebook": "None", "youtube": "None", "website": "None", "summary": "None", "logo": "None", "latitude": 45.13811340244674, "longitude": -71.81984357972233}, "830420634RR0001": {"name": "La Fondation CST / The CST Foundation", "designationCode": "B", "categoryCode": "03", "address": "1155 BOUL RENE-LEVESQUE O     BUREAU 3200", "city": "MONTREAL", "province": "QC", "country": "CA", "postalCode": "H3B0C9", "twitter": "None", "instagram": "None", "facebook": "None", "youtube": "None", "website": "None", "summary": "None", "logo": "None", "latitude": 45.498612132119526, "longitude": -73.5705753094811}, "849804935RR0001": {"name": "La Fondation Emmanuelle Gattuso", "designationCode": "B", "categoryCode": "03", "address": "2000-155 CUMBERLAND ST", "city": "TORONTO", "province": "ON", "country": "CA", "postalCode": "M5R1A2", "twitter": "None", "instagram": "None", "facebook": "None", "youtube": "None", "website": "None", "summary": "None", "logo": "None", "latitude": 43.6698557510244, "longitude": -79.39304606618965}, "884092610RR0001": {"name": "La Fondation Equilibrium pour la schizophr\u00e9nie/The Equilibrium Foundation for Schizophrenia", "designationCode": "B", "categoryCode": "13", "address": "780, RUE SAINT-JEAN", "city": "LONGUEUIL", "province": "QC", "country": "CA", "postalCode": "J4H2H7", "twitter": "None", "instagram": "None", "facebook": "None", "youtube": "None", "website": "None", "summary": "None", "logo": "None", "latitude": 45.53281936329285, "longitude": -73.50012360312185}, "833110828RR0001": {"name": "La Fondation Familiale Alexander / The Alexander Family Foundation (TAFF)", "designationCode": "C", "categoryCode": "15", "address": "101 - 550 CH DU GOLF", "city": "VERDUN", "province": "QC", "country": "CA", "postalCode": "H3E1A8", "twitter": "None", "instagram": "None", "facebook": "None", "youtube": "None", "website": "None", "summary": "None", "logo": "None", "latitude": 45.466135435512435, "longitude": -73.55110718901834}, "134667864RR0001": {"name": "La Fondation Fernando-Girard en \u00c9conomie", "designationCode": "B", "categoryCode": "23", "address": "8925-82IEME AVENUE, BUREAU 200", "city": "EDMONTON", "province": "AB", "country": "CA", "postalCode": "T6C0Z2", "twitter": "None", "instagram": "None", "facebook": "None", "youtube": "None", "website": "None", "summary": "None", "logo": "None", "latitude": 53.51788049956731, "longitude": -113.464872}, "889360772RR0001": {"name": "La Fondation Fransaskoise", "designationCode": "C", "categoryCode": "21", "address": "UNIT 205                      1440 9E AVENUE NORTH", "city": "REGINA", "province": "SK", "country": "CA", "postalCode": "S4R8B1", "twitter": "None", "instagram": "None", "facebook": "None", "youtube": "None", "website": "None", "summary": "None", "logo": "None", "latitude": 50.48439249105495, "longitude": -104.60190141618097}, "841929102RR0001": {"name": "La Fondation J & AC / The J & AC Foundation", "designationCode": "B", "categoryCode": "03", "address": "800-515  LEGGET DRIVE", "city": "OTTAWA", "province": "ON", "country": "CA", "postalCode": "K2K3G4", "twitter": "None", "instagram": "None", "facebook": "None", "youtube": "None", "website": "None", "summary": "None", "logo": "None", "latitude": 45.34599682133942, "longitude": -75.917431922847}, "858222573RR0001": {"name": "La Fondation Jean-Montbourquette", "designationCode": "A", "categoryCode": "03", "address": "185, AVENUE BLOOMFIELD", "city": "OUTREMONT", "province": "QC", "country": "CA", "postalCode": "H2V3R5", "twitter": "None", "instagram": "None", "facebook": "None", "youtube": "None", "website": "None", "summary": "None", "logo": "None", "latitude": 45.51676320318527, "longitude": -73.59931895501772}, "834657066RR0001": {"name": "La Fondation Kanpe /The Kanpe Foundation", "designationCode": "C", "categoryCode": "09", "address": "3737 BOUL CREMAZIE E", "city": "MONTREAL", "province": "QC", "country": "CA", "postalCode": "H1Z2K4", "twitter": "None", "instagram": "None", "facebook": "None", "youtube": "None", "website": "None", "summary": "None", "logo": "None", "latitude": 45.56699295865307, "longitude": -73.60315694881398}, "821873106RR0001": {"name": "La Fondation Kevin Lalande / The Kevin Lalande Foundation", "designationCode": "A", "categoryCode": "03", "address": "974 MORRIS STREET", "city": "ROCKLAND", "province": "ON", "country": "CA", "postalCode": "K4K1N1", "twitter": "None", "instagram": "None", "facebook": "None", "youtube": "None", "website": "None", "summary": "None", "logo": "None", "latitude": 45.5500474582204, "longitude": -75.28006332393647}, "131771701RR0001": {"name": "La Fondation Le Plateau", "designationCode": "C", "categoryCode": "21", "address": "3700 AVENUE CALIXA-LAVALL\u00c9E", "city": "MONTREAL", "province": "QC", "country": "CA", "postalCode": "H2L3A8", "twitter": "None", "instagram": "None", "facebook": "None", "youtube": "None", "website": "None", "summary": "None", "logo": "None", "latitude": 45.52508121549749, "longitude": -73.56610655132124}, "895614006RR0001": {"name": "La Fondation Le Vitrail", "designationCode": "C", "categoryCode": "21", "address": "6814 AV LAMONT", "city": "MONTREAL", "province": "QC", "country": "CA", "postalCode": "H4E2T9", "twitter": "None", "instagram": "None", "facebook": "None", "youtube": "None", "website": "None", "summary": "None", "logo": "None", "latitude": 45.44904444907379, "longitude": -73.60286706131356}, "803067412RR0001": {"name": "La Fondation Martin Bradley", "designationCode": "B", "categoryCode": "13", "address": "CP 2338 SUCC BUREAU-CHEF", "city": "ROUYN-NORANDA", "province": "QC", "country": "CA", "postalCode": "J9X5A9", "twitter": "None", "instagram": "None", "facebook": "None", "youtube": "None", "website": "None", "summary": "None", "logo": "None", "latitude": 48.223561262430344, "longitude": -79.00073971551006}, "832145668RR0001": {"name": "La Fondation Mathis Dumais-Dontigny", "designationCode": "A", "categoryCode": "05", "address": "27 RUE DE BECANCOUR", "city": "GATINEAU", "province": "QC", "country": "CA", "postalCode": "J8P7X5", "twitter": "None", "instagram": "None", "facebook": "None", "youtube": "None", "website": "None", "summary": "None", "logo": "None", "latitude": 45.49948861143174, "longitude": -75.62753962438656}, "119001428RR0001": {"name": "La Fondation Mgr G\u00e9rard-Marie Coderre", "designationCode": "A", "categoryCode": "49", "address": "740, BOUL. STE-FOY", "city": "LONGUEUIL", "province": "QC", "country": "CA", "postalCode": "J4J1Z3", "twitter": "None", "instagram": "None", "facebook": "None", "youtube": "None", "website": "None", "summary": "None", "logo": "None", "latitude": 45.52391010794063, "longitude": -73.49585410600737}, "809860380RR0001": {"name": "La Fondation Momentum Jeunesse", "designationCode": "A", "categoryCode": "23", "address": "118 - 435 DONALD ST", "city": "OTTAWA", "province": "ON", "country": "CA", "postalCode": "K1K4X5", "twitter": "None", "instagram": "None", "facebook": "None", "youtube": "None", "website": "None", "summary": "None", "logo": "None", "latitude": 45.42831747331002, "longitude": -75.64913597558996}, "784998098RR0001": {"name": "La Fondation Naim S. Mahlab / The Naim S. Mahlab Foundation", "designationCode": "B", "categoryCode": "03", "address": "601 - 3001 RUE SHERBROOKE O", "city": "MONTREAL", "province": "QC", "country": "CA", "postalCode": "H3Z2X8", "twitter": "None", "instagram": "None", "facebook": "None", "youtube": "None", "website": "None", "summary": "None", "logo": "None", "latitude": 45.47704505648652, "longitude": -73.60568332254368}, "855211629RR0001": {"name": "La Fondation Place Coco / Coco's Place Foundation", "designationCode": "B", "categoryCode": "20", "address": "166 NORTHVIEW STREET", "city": "MONTREAL WEST", "province": "QC", "country": "CA", "postalCode": "H4X1E2", "twitter": "None", "instagram": "None", "facebook": "None", "youtube": "None", "website": "None", "summary": "None", "logo": "None", "latitude": 45.45499541799864, "longitude": -73.65457191367081}, "774690317RR0001": {"name": "La Fondation Rita Levasseur", "designationCode": "B", "categoryCode": "05", "address": "900 - 2828 BOUL LAURIER", "city": "QUEBEC", "province": "QC", "country": "CA", "postalCode": "G1V0B9", "twitter": "None", "instagram": "None", "facebook": "None", "youtube": "None", "website": "None", "summary": "None", "logo": "None", "latitude": 46.76745081020227, "longitude": -71.28815594454348}, "805144029RR0001": {"name": "La Fondation Robinson Sheppard Shapiro / The Robinson Sheppard Shapiro Foundation", "designationCode": "A", "categoryCode": "03", "address": "800,PLACE VICTORIA            BUREAU 4600", "city": "MONTREAL", "province": "QC", "country": "CA", "postalCode": "H4Z1H6", "twitter": "None", "instagram": "None", "facebook": "None", "youtube": "None", "website": "None", "summary": "None", "logo": "None", "latitude": 45.413617500000015, "longitude": -73.92342149999999}, "825469307RR0001": {"name": "La Fondation Sami Fruits pour les petits / Sami Fruits for Kids Foundation", "designationCode": "A", "categoryCode": "13", "address": "1505 RUE LEGENDRE OUEST", "city": "MONTREAL", "province": "QC", "country": "CA", "postalCode": "H4N1H6", "twitter": "None", "instagram": "None", "facebook": "None", "youtube": "None", "website": "None", "summary": "None", "logo": "None", "latitude": 45.530391959489805, "longitude": -73.65479372416152}, "747135929RR0001": {"name": "La Fondation Servicas", "designationCode": "A", "categoryCode": "03", "address": "D210 - 7900 BOUL TASCHEREAU", "city": "BROSSARD", "province": "QC", "country": "CA", "postalCode": "J4X1C2", "twitter": "None", "instagram": "None", "facebook": "None", "youtube": "None", "website": "None", "summary": "None", "logo": "None", "latitude": 45.4518508434991, "longitude": -73.4671902736445}, "708789128RR0001": {"name": "La Fondation Tchad Tremblay", "designationCode": "B", "categoryCode": "13", "address": "2021 RUE DES DOUVES", "city": "L'ANCIENNE-LORETTE", "province": "QC", "country": "CA", "postalCode": "G2E5V8", "twitter": "None", "instagram": "None", "facebook": "None", "youtube": "None", "website": "None", "summary": "None", "logo": "None", "latitude": 46.815973102429346, "longitude": -71.36526656399661}, "823262506RR0001": {"name": "La Fondation Tristan WilliaMS / The Tristan WilliaMS Foundation", "designationCode": "C", "categoryCode": "11", "address": "931 RUE AGNES", "city": "MONTREAL", "province": "QC", "country": "CA", "postalCode": "H4C2R2", "twitter": "None", "instagram": "None", "facebook": "None", "youtube": "None", "website": "None", "summary": "None", "logo": "None", "latitude": 45.480420082722524, "longitude": -73.58777918913391}, "842447591RR0001": {"name": "La Fondation Yvon Deschamps Centre-Sud", "designationCode": "A", "categoryCode": "03", "address": "2093 RUE DE LA VISITATION", "city": "MONTR\u00c9AL", "province": "QC", "country": "CA", "postalCode": "H2L3C9", "twitter": "None", "instagram": "None", "facebook": "None", "youtube": "None", "website": "None", "summary": "None", "logo": "None", "latitude": 45.5228061848634, "longitude": -73.56293892226914}, "802434100RR0001": {"name": "La Fraternit\u00e9 du Centre de Formation Saint-Jean-Bosco", "designationCode": "C", "categoryCode": "09", "address": "1850 CHEMIN PRINCIPAL", "city": "SHAWINIGAN", "province": "QC", "country": "CA", "postalCode": "G9R1E9", "twitter": "None", "instagram": "None", "facebook": "None", "youtube": "None", "website": "None", "summary": "None", "logo": "None", "latitude": 46.615036879078254, "longitude": -72.8237236531882}, "134058569RR0001": {"name": "La Garderie Touche-\u00e0-Tout de Sudbury", "designationCode": "C", "categoryCode": "01", "address": "935 CHEMIN DU LAC RAMSEY,     UNIVERSITE LAURENTIENNE", "city": "SUDBURY", "province": "ON", "country": "CA", "postalCode": "P3E2C6", "twitter": "None", "instagram": "None", "facebook": "None", "youtube": "None", "website": "None", "summary": "None", "logo": "None", "latitude": 46.470890000000054, "longitude": -80.97224999999997}, "840798565RR0001": {"name": "La Halte de L'Orchidbleue", "designationCode": "C", "categoryCode": "01", "address": "113 BOULEVARD DE LA CONCORDE  OUEST", "city": "LAVAL", "province": "QC", "country": "CA", "postalCode": "H7N1H8", "twitter": "None", "instagram": "None", "facebook": "None", "youtube": "None", "website": "None", "summary": "None", "logo": "None", "latitude": 45.566533528737864, "longitude": -73.69928751569613}, "811673128RR0001": {"name": "La Iglesia Del Camino The Church Of The Way", "designationCode": "C", "categoryCode": "39", "address": "137-425 RATHBURN RD EAST,", "city": "MISSISSAUGA", "province": "ON", "country": "CA", "postalCode": "L4Z1H6", "twitter": "None", "instagram": "None", "facebook": "None", "youtube": "None", "website": "None", "summary": "None", "logo": "None", "latitude": 43.60796626594113, "longitude": -79.63192155805267}, "819797093RR0001": {"name": "La Jeunesse Youth Orchestra Foundation", "designationCode": "A", "categoryCode": "23", "address": "249 BALDWIN ST", "city": "NEWCASTLE", "province": "ON", "country": "CA", "postalCode": "L1B1C1", "twitter": "None", "instagram": "None", "facebook": "None", "youtube": "None", "website": "None", "summary": "None", "logo": "None", "latitude": 43.905291987794996, "longitude": -78.58602992420239}, "123613523RR0082": {"name": "La Ligue des cadets de l'air du Canada (Qu\u00e9bec et Vall\u00e9e de l'Outaouais), Escadron 827 Longueuil", "designationCode": "C", "categoryCode": "29", "address": "1401 CHEMIN CHAMBLY", "city": "LONGUEUIL", "province": "QC", "country": "CA", "postalCode": "J4G2J7", "twitter": "None", "instagram": "None", "facebook": "None", "youtube": "None", "website": "None", "summary": "None", "logo": "None", "latitude": 45.530924003846, "longitude": -73.48516161779698}, "123613523RR0076": {"name": "La Ligue des cadets de l'Air du Canada - Escadron 607, Drummondville", "designationCode": "C", "categoryCode": "29", "address": "250, RUE ST-LOUIS             C.P. 52", "city": "DRUMMONDVILLE", "province": "QC", "country": "CA", "postalCode": "J2B5W8", "twitter": "None", "instagram": "None", "facebook": "None", "youtube": "None", "website": "None", "summary": "None", "logo": "None", "latitude": 45.87224071106246, "longitude": -72.4873336149515}, "801669177RR0001": {"name": "La Maison d'h\u00e9bergement P\u00e8res et Enfants de l'Estrie", "designationCode": "C", "categoryCode": "09", "address": "72 RUE VICTORIA", "city": "SHERBROOKE", "province": "QC", "country": "CA", "postalCode": "J1H3H7", "twitter": "None", "instagram": "None", "facebook": "None", "youtube": "None", "website": "None", "summary": "None", "logo": "None", "latitude": 45.39994146572221, "longitude": -71.90604442864579}, "766303127RR0001": {"name": "La Maison d'H\u00e9l\u00e8ne C", "designationCode": "C", "categoryCode": "11", "address": "350 AVE ST-DAVID", "city": "MONTMAGNY", "province": "QC", "country": "CA", "postalCode": "G5V2K2", "twitter": "None", "instagram": "None", "facebook": "None", "youtube": "None", "website": "None", "summary": "None", "logo": "None", "latitude": 46.9736201409432, "longitude": -70.54722000988606}, "820647543RR0001": {"name": "La Maison de l'\u00c2me", "designationCode": "C", "categoryCode": "49", "address": "70, RUE GAUTHIER              CANTON TREMBLAY", "city": "SAGUENAY", "province": "QC", "country": "CA", "postalCode": "G7H5A8", "twitter": "None", "instagram": "None", "facebook": "None", "youtube": "None", "website": "None", "summary": "None", "logo": "None", "latitude": 48.46404399486842, "longitude": -70.99476516067979}, "138006648RR0001": {"name": "La Maison de la Famille contre Vents et Mar\u00e9es", "designationCode": "C", "categoryCode": "09", "address": "630 RUE DE L'HOTEL-DE-VILLE", "city": "CHANDLER", "province": "QC", "country": "CA", "postalCode": "G0C1K0", "twitter": "None", "instagram": "None", "facebook": "None", "youtube": "None", "website": "None", "summary": "None", "logo": "None", "latitude": 48.352617913382346, "longitude": -64.68017554160579}, "835990433RR0001": {"name": "La Maison de M\u00e9lanie", "designationCode": "C", "categoryCode": "09", "address": "C.P. 1411, SUCC. ST-MARTIN", "city": "LAVAL", "province": "QC", "country": "CA", "postalCode": "H7V3P7", "twitter": "None", "instagram": "None", "facebook": "None", "youtube": "None", "website": "None", "summary": "None", "logo": "None", "latitude": 45.546459000000056, "longitude": -73.73737699999994}, "891463739RR0001": {"name": "La Maison des jeunes de Beaujeu", "designationCode": "C", "categoryCode": "09", "address": "89, RUE DE L'\u00c9GLISE NORD", "city": "LACOLLE", "province": "QC", "country": "CA", "postalCode": "J0J1J0", "twitter": "None", "instagram": "None", "facebook": "None", "youtube": "None", "website": "None", "summary": "None", "logo": "None", "latitude": 45.088596450458766, "longitude": -73.3735498748627}, "830525101RR0001": {"name": "La Maison des Collines", "designationCode": "C", "categoryCode": "11", "address": "3-108 RUE DES COLLINES", "city": "WAKEFIELD", "province": "QC", "country": "CA", "postalCode": "J0X3G0", "twitter": "None", "instagram": "None", "facebook": "None", "youtube": "None", "website": "None", "summary": "None", "logo": "None", "latitude": 45.647890906118064, "longitude": -75.92522175806442}, "102951357RR0001": {"name": "La Maison des Femmes de Sept-\u00celes Inc.", "designationCode": "C", "categoryCode": "01", "address": "CASE POSTALE 278", "city": "SEPT ILES", "province": "QC", "country": "CA", "postalCode": "G4R4K5", "twitter": "None", "instagram": "None", "facebook": "None", "youtube": "None", "website": "None", "summary": "None", "logo": "None", "latitude": 50.209593000000055, "longitude": -66.38952049999993}, "102950425RR0001": {"name": "La Maison des Jeunes de Rivi\u00e8re-des-Prairies", "designationCode": "C", "categoryCode": "09", "address": "12550 48E AVENUE", "city": "MONTREAL", "province": "QC", "country": "CA", "postalCode": "H1E2G4", "twitter": "None", "instagram": "None", "facebook": "None", "youtube": "None", "website": "None", "summary": "None", "logo": "None", "latitude": 45.65231895308449, "longitude": -73.57714203485472}, "833525991RR0001": {"name": "La Maison des Trois Colombes 2014", "designationCode": "C", "categoryCode": "11", "address": "600, 117E RUE", "city": "SHAWINIGAN", "province": "QC", "country": "CA", "postalCode": "G9P3C3", "twitter": "None", "instagram": "None", "facebook": "None", "youtube": "None", "website": "None", "summary": "None", "logo": "None", "latitude": 46.5213618326504, "longitude": -72.74939904858894}, "891940108RR0001": {"name": "La Maison du CLDI de l'\u00c9rable", "designationCode": "C", "categoryCode": "09", "address": "1724 AVE ST-EDOUARD", "city": "PLESSISVILLE", "province": "QC", "country": "CA", "postalCode": "G6L2K7", "twitter": "None", "instagram": "None", "facebook": "None", "youtube": "None", "website": "None", "summary": "None", "logo": "None", "latitude": 46.22069638080666, "longitude": -71.77463203370088}, "825860307RR0001": {"name": "La Maison du Ma\u00eetre", "designationCode": "C", "categoryCode": "39", "address": "4230, BOUL. ST-JEAN           SUITE 231", "city": "DOLLARD-DES-ORMEAUX", "province": "QC", "country": "CA", "postalCode": "H9H3X4", "twitter": "None", "instagram": "None", "facebook": "None", "youtube": "None", "website": "None", "summary": "None", "logo": "None"}, "889028056RR0001": {"name": "La Maison soutien aux Aidants", "designationCode": "C", "categoryCode": "09", "address": "197 RUE PAR\u00c9", "city": "GRANBY", "province": "QC", "country": "CA", "postalCode": "J2G5E2", "twitter": "None", "instagram": "None", "facebook": "None", "youtube": "None", "website": "None", "summary": "None", "logo": "None", "latitude": 45.406973211206704, "longitude": -72.7255379780428}, "843807652RR0001": {"name": "La Maison Adh\u00e9mar-Dion", "designationCode": "C", "categoryCode": "11", "address": "4500 CHEMIN SAINT-CHARLES", "city": "TERREBONNE", "province": "QC", "country": "CA", "postalCode": "J6V1A3", "twitter": "None", "instagram": "None", "facebook": "None", "youtube": "None", "website": "None", "summary": "None", "logo": "None", "latitude": 45.707872830140246, "longitude": -73.51294141173756}, "827720236RR0001": {"name": "La Maison Caracol, CPSC de Pierrefonds-Est", "designationCode": "C", "categoryCode": "11", "address": "4773 BOUL LALANDE", "city": "PIERREFONDS", "province": "QC", "country": "CA", "postalCode": "H8Y3H4", "twitter": "None", "instagram": "None", "facebook": "None", "youtube": "None", "website": "None", "summary": "None", "logo": "None", "latitude": 45.505858200675114, "longitude": -73.78001821980503}, "823762190RR0001": {"name": "La Maison Du Premier Ministre", "designationCode": "C", "categoryCode": "50", "address": "41 AV MANCE", "city": "BAIE-COMEAU", "province": "QC", "country": "CA", "postalCode": "G4Z1M6", "twitter": "None", "instagram": "None", "facebook": "None", "youtube": "None", "website": "None", "summary": "None", "logo": "None", "latitude": 49.217692784667044, "longitude": -68.14737798315002}, "765050695RR0001": {"name": "La Maison 100 Limites", "designationCode": "C", "categoryCode": "09", "address": "1755 RUE TASCHEREAU", "city": "LAVAL", "province": "QC", "country": "CA", "postalCode": "H7G2P1", "twitter": "None", "instagram": "None", "facebook": "None", "youtube": "None", "website": "None", "summary": "None", "logo": "None", "latitude": 45.583850503202655, "longitude": -73.68290504844472}, "102951464RR0001": {"name": "La Maisonn\u00e9e Paulette Guinois", "designationCode": "B", "categoryCode": "57", "address": "2255 RUE BIENVILLE", "city": "LAVAL", "province": "QC", "country": "CA", "postalCode": "H7H3C9", "twitter": "None", "instagram": "None", "facebook": "None", "youtube": "None", "website": "None", "summary": "None", "logo": "None", "latitude": 45.65409746295224, "longitude": -73.74862366524347}, "847175999RR0001": {"name": "La Mie du Partage", "designationCode": "C", "categoryCode": "09", "address": "115 MONTEE LAROCQUE", "city": "VAL-DES-BOIS", "province": "QC", "country": "CA", "postalCode": "J0X3C0", "twitter": "None", "instagram": "None", "facebook": "None", "youtube": "None", "website": "None", "summary": "None", "logo": "None", "latitude": 45.89539052207278, "longitude": -75.60155208090484}, "851763417RR0001": {"name": "La Mission St-Michael / St. Michael's Mission", "designationCode": "C", "categoryCode": "09", "address": "137 AV DU PRESIDENT-KENNEDY", "city": "MONTREAL", "province": "QC", "country": "CA", "postalCode": "H2X3P6", "twitter": "None", "instagram": "None", "facebook": "None", "youtube": "None", "website": "None", "summary": "None", "logo": "None", "latitude": 45.50962481072185, "longitude": -73.56764769458692}, "758843098RR0001": {"name": "La Musique aux Enfants", "designationCode": "C", "categoryCode": "22", "address": "1600 RUE SAINT-URBAIN", "city": "MONTREAL", "province": "QC", "country": "CA", "postalCode": "H2X0S1", "twitter": "None", "instagram": "None", "facebook": "None", "youtube": "None", "website": "None", "summary": "None", "logo": "None"}, "837228105RR0001": {"name": "La P'tite maison de Saint-Pierre", "designationCode": "C", "categoryCode": "09", "address": "1100 RUE NOTRE-DAME", "city": "LACHINE", "province": "QC", "country": "CA", "postalCode": "H8S2C4", "twitter": "None", "instagram": "None", "facebook": "None", "youtube": "None", "website": "None", "summary": "None", "logo": "None", "latitude": 45.43493946768412, "longitude": -73.6737522485429}, "119006245RR0001": {"name": "La Paroisse Catholique Romaine de St-Georges", "designationCode": "C", "categoryCode": "38", "address": "PO BOX 31", "city": "ST. GEORGES", "province": "MB", "country": "CA", "postalCode": "R0E1V0", "twitter": "None", "instagram": "None", "facebook": "None", "youtube": "None", "website": "None", "summary": "None", "logo": "None", "latitude": 50.07544834423843, "longitude": -96.70705212665065}, "898416847RR0001": {"name": "La Passerelle, Association de familles et amis de la Personne atteinte de maladie mentale de B\u00e9cancour-Nicolet-Yamaska", "designationCode": "C", "categoryCode": "09", "address": "112 - 4825 AV BOUVET", "city": "BECANCOUR", "province": "QC", "country": "CA", "postalCode": "G9H1X5", "twitter": "None", "instagram": "None", "facebook": "None", "youtube": "None", "website": "None", "summary": "None", "logo": "None", "latitude": 46.27160140717861, "longitude": -72.50724806073664}, "133977603RR0001": {"name": "La Perle Community League", "designationCode": "C", "categoryCode": "56", "address": "18611-97A AVE NW", "city": "EDMONTON", "province": "AB", "country": "CA", "postalCode": "T5T4C1", "twitter": "None", "instagram": "None", "facebook": "None", "youtube": "None", "website": "None", "summary": "None", "logo": "None", "latitude": 53.533736575019134, "longitude": -113.64400090784243}, "792226698RR0001": {"name": "La Place des Arts du Grand Sudbury", "designationCode": "C", "categoryCode": "22", "address": "14 RUE BEECH,                 CARREFOUR FRANCOPHONE", "city": "SUDBURY", "province": "ON", "country": "CA", "postalCode": "P3C1Z2", "twitter": "None", "instagram": "None", "facebook": "None", "youtube": "None", "website": "None", "summary": "None", "logo": "None", "latitude": 46.494077355863816, "longitude": -80.99527073156959}, "131908881RR0004": {"name": "La Procure des Missions Montfortaines", "designationCode": "C", "categoryCode": "21", "address": "4000 RUE BOSSUET", "city": "MONTREAL", "province": "QC", "country": "CA", "postalCode": "H1M2M2", "twitter": "None", "instagram": "None", "facebook": "None", "youtube": "None", "website": "None", "summary": "None", "logo": "None", "latitude": 45.57656620618638, "longitude": -73.54801174329144}, "866185259RR0001": {"name": "La Rescousse", "designationCode": "C", "categoryCode": "11", "address": "14 - 343 6E RUE O", "city": "AMOS", "province": "QC", "country": "CA", "postalCode": "J9T2V6", "twitter": "None", "instagram": "None", "facebook": "None", "youtube": "None", "website": "None", "summary": "None", "logo": "None", "latitude": 48.56764955254005, "longitude": -78.13104299999999}, "825664907RR0001": {"name": "La Ressource au F\u00e9minin Pluri'Elles", "designationCode": "C", "categoryCode": "09", "address": "CP 278", "city": "SEPT-ILES", "province": "QC", "country": "CA", "postalCode": "G4R4K5", "twitter": "None", "instagram": "None", "facebook": "None", "youtube": "None", "website": "None", "summary": "None", "logo": "None", "latitude": 50.209593000000055, "longitude": -66.38952049999993}, "851546150RR0001": {"name": "La Riviere Cemetery Association", "designationCode": "C", "categoryCode": "59", "address": "PO BOX 53", "city": "LA RIVIERE", "province": "MB", "country": "CA", "postalCode": "R0G1A0", "twitter": "None", "instagram": "None", "facebook": "None", "youtube": "None", "website": "None", "summary": "None", "logo": "None", "latitude": 49.20544052720715, "longitude": -98.90196424638646}, "102980851RR0001": {"name": "La Rubrique Inc.", "designationCode": "C", "categoryCode": "22", "address": "4160, DU VIEUX PONT           C.P. 23, SUCC. A", "city": "JONQUIERE", "province": "QC", "country": "CA", "postalCode": "G7X7V8", "twitter": "None", "instagram": "None", "facebook": "None", "youtube": "None", "website": "None", "summary": "None", "logo": "None", "latitude": 48.40995917993262, "longitude": -71.25786314721081}, "808130405RR0001": {"name": "La Sala de los Suenos Inc.", "designationCode": "C", "categoryCode": "09", "address": "250 MORLEY AVENUE", "city": "WINNIPEG", "province": "MB", "country": "CA", "postalCode": "R3L0Y3", "twitter": "None", "instagram": "None", "facebook": "None", "youtube": "None", "website": "None", "summary": "None", "logo": "None", "latitude": 49.86549005355196, "longitude": -97.13328376060369}, "895338879RR0001": {"name": "La Soci\u00e9t\u00e9 d'histoire de St-F\u00e9licien inc.", "designationCode": "C", "categoryCode": "50", "address": "1231 BOULD DU SACRE-COEUR     CP 5136", "city": "SAINT-FELICIEN", "province": "QC", "country": "CA", "postalCode": "G8K2R1", "twitter": "None", "instagram": "None", "facebook": "None", "youtube": "None", "website": "None", "summary": "None", "logo": "None", "latitude": 48.65364076086354, "longitude": -72.44749005153517}, "875503963RR0001": {"name": "La Soci\u00e9t\u00e9 d'histoire Rosemont-Petite-Patrie", "designationCode": "C", "categoryCode": "50", "address": "5442 6E AVENUE", "city": "MONTREAL", "province": "QC", "country": "CA", "postalCode": "H1Y2P8", "twitter": "None", "instagram": "None", "facebook": "None", "youtube": "None", "website": "None", "summary": "None", "logo": "None", "latitude": 45.54835910462239, "longitude": -73.57577124369547}, "132410671RR0535": {"name": "La Soci\u00e9t\u00e9 de Saint-Vincent de Paul - Conf\u00e9rence Boischatel (Boischatel, Qu\u00e9bec)", "designationCode": "C", "categoryCode": "09", "address": "169 RUE CALIXTA-LABERGE", "city": "BOISCHATEL", "province": "QC", "country": "CA", "postalCode": "G0A1H0", "twitter": "None", "instagram": "None", "facebook": "None", "youtube": "None", "website": "None", "summary": "None", "logo": "None", "latitude": 46.91221799443143, "longitude": -71.16103210369876}, "132410671RR0526": {"name": "La Soci\u00e9t\u00e9 de Saint-Vincent de Paul - Conf\u00e9rence Jean XXIII (Gatineau, Qu\u00e9bec)", "designationCode": "C", "categoryCode": "39", "address": "1194 BOUL.ST.REN\u00c9 OUEST", "city": "GATINEAU", "province": "QC", "country": "CA", "postalCode": "J8T6H3", "twitter": "None", "instagram": "None", "facebook": "None", "youtube": "None", "website": "None", "summary": "None", "logo": "None", "latitude": 45.48833753952925, "longitude": -75.70424897002138}, "132410671RR0583": {"name": "La Soci\u00e9t\u00e9 de Saint-Vincent de Paul - Conf\u00e9rence Notre-Dame de l'Eau Vive, Hull, QC", "designationCode": "C", "categoryCode": "09", "address": "30 RUE SAINT-ONGE", "city": "GATINEAU", "province": "QC", "country": "CA", "postalCode": "J8Y5T6", "twitter": "None", "instagram": "None", "facebook": "None", "youtube": "None", "website": "None", "summary": "None", "logo": "None", "latitude": 45.451796857608706, "longitude": -75.74863729831527}, "132410671RR0502": {"name": "La Soci\u00e9t\u00e9 de Saint-Vincent de Paul - Conf\u00e9rence Notre-Dame de L\u00e9vis, \u00e0 Qu\u00e9bec (Qc)", "designationCode": "C", "categoryCode": "09", "address": "6400 ST-GEORGES", "city": "L\u00c9VIS", "province": "QC", "country": "CA", "postalCode": "G6V4W7", "twitter": "None", "instagram": "None", "facebook": "None", "youtube": "None", "website": "None", "summary": "None", "logo": "None", "latitude": 46.810976753246116, "longitude": -71.17552848511193}, "132410671RR0507": {"name": "La Soci\u00e9t\u00e9 de Saint-Vincent de Paul - Conf\u00e9rence Saint-Sacrement, \u00e0 Qu\u00e9bec (Qc)", "designationCode": "C", "categoryCode": "09", "address": "1330, CHEMIN ST-FOY", "city": "QUEBEC", "province": "QC", "country": "CA", "postalCode": "G1S2N5", "twitter": "None", "instagram": "None", "facebook": "None", "youtube": "None", "website": "None", "summary": "None", "logo": "None", "latitude": 46.79499805329214, "longitude": -71.25376280988513}, "119154441RR0001": {"name": "La Soci\u00e9t\u00e9 de Saint-Vincent de Paul - Conf\u00e9rence Sainte-Elisabeth de Cantley, Cantley, Qu\u00e9bec", "designationCode": "C", "categoryCode": "09", "address": "47 CHEMIN STE-ELISABETH", "city": "CANTLEY", "province": "QC", "country": "CA", "postalCode": "J8V3E8", "twitter": "None", "instagram": "None", "facebook": "None", "youtube": "None", "website": "None", "summary": "None", "logo": "None", "latitude": 45.56467948600596, "longitude": -75.77431542062438}, "132410671RR0500": {"name": "La Soci\u00e9t\u00e9 de Saint-Vincent de Paul - Conf\u00e9rence St-Luc, \u00e0 Qu\u00e9bec (QC)", "designationCode": "C", "categoryCode": "09", "address": "3360 AV SAINT-SAMUEL", "city": "QUEBEC", "province": "QC", "country": "CA", "postalCode": "G1C3T7", "twitter": "None", "instagram": "None", "facebook": "None", "youtube": "None", "website": "None", "summary": "None", "logo": "None", "latitude": 46.859780471839066, "longitude": -71.23761269412557}, "132410671RR0573": {"name": "La Soci\u00e9t\u00e9 de Saint-Vincent de Paul - Conf\u00e9rence Ste-Marguerite-de-Cortone, Trois-Riei\u00e9res QC", "designationCode": "C", "categoryCode": "09", "address": "2580 RUE ROYALE", "city": "TROIS-RIVIERES", "province": "QC", "country": "CA", "postalCode": "G9A4L5", "twitter": "None", "instagram": "None", "facebook": "None", "youtube": "None", "website": "None", "summary": "None", "logo": "None", "latitude": 46.33429938885674, "longitude": -72.54925499365201}, "132410671RR0554": {"name": "La Soci\u00e9t\u00e9 de Saint-Vincent de Paul - Conf\u00e9rence Trinit\u00e9, Ottawa, ON", "designationCode": "C", "categoryCode": "09", "address": "435, CHEMIN MONTREAL", "city": "OTTAWA", "province": "ON", "country": "CA", "postalCode": "K1K0V2", "twitter": "None", "instagram": "None", "facebook": "None", "youtube": "None", "website": "None", "summary": "None", "logo": "None", "latitude": 45.439526845460996, "longitude": -75.65174067115782}, "132410671RR0539": {"name": "La Soci\u00e9t\u00e9 de Saint-Vincent de Paul - Conseil particulier de Jonqui\u00e8re-K\u00e9nogami, Jonqui\u00e8re, Qu\u00e9bec", "designationCode": "C", "categoryCode": "09", "address": "2481 DU PERCHE", "city": "JONQUIERE", "province": "QC", "country": "CA", "postalCode": "G7X8X1", "twitter": "None", "instagram": "None", "facebook": "None", "youtube": "None", "website": "None", "summary": "None", "logo": "None", "latitude": 48.401587110739236, "longitude": -71.24052295279604}, "132410671RR0432": {"name": "La Soci\u00e9t\u00e9 de Saint-Vincent de Paul - St. Sauveur, Qu\u00e9bec, QC", "designationCode": "C", "categoryCode": "09", "address": "215 RUE DES OBLATS", "city": "QU\u00c9BEC", "province": "QC", "country": "CA", "postalCode": "G1J1A9", "twitter": "None", "instagram": "None", "facebook": "None", "youtube": "None", "website": "None", "summary": "None", "logo": "None", "latitude": 49.915918747339354, "longitude": -74.37312566055677}, "132410671RR0560": {"name": "La Soci\u00e9t\u00e9 de Saint-Vincent de Paul- Conseil particulier St-Charles de Gatineau, QC", "designationCode": "C", "categoryCode": "09", "address": "165, AVENUE DE GATINEAU", "city": "GATINEAU", "province": "QC", "country": "CA", "postalCode": "J8T4J7", "twitter": "None", "instagram": "None", "facebook": "None", "youtube": "None", "website": "None", "summary": "None", "logo": "None", "latitude": 45.486258390241716, "longitude": -75.71687773261563}, "132410671RR0399": {"name": "La Soci\u00e9t\u00e9 de Saint-Vincent de Paul, Conf\u00e9rence P\u00e8re Fr\u00e9d\u00e9ric Janssoone, Trois-Rivi\u00e8res", "designationCode": "C", "categoryCode": "09", "address": "2580 RUE ROYALE", "city": "TROIS-RIVIERES", "province": "QC", "country": "CA", "postalCode": "G9A4L5", "twitter": "None", "instagram": "None", "facebook": "None", "youtube": "None", "website": "None", "summary": "None", "logo": "None", "latitude": 46.33429938885674, "longitude": -72.54925499365201}, "132410671RR0518": {"name": "La Soci\u00e9t\u00e9 de Saint-Vincent.de.Paul-Conf\u00e9rence de Saint-Tite-des-Caps, \u00e0 Saint-Tite-des-Caps (QC)", "designationCode": "C", "categoryCode": "09", "address": "102-267 AVENUE ROYALE", "city": "SAINT-TITE-DES-CAPS", "province": "QC", "country": "CA", "postalCode": "G0A4J0", "twitter": "None", "instagram": "None", "facebook": "None", "youtube": "None", "website": "None", "summary": "None", "logo": "None", "latitude": 47.14049483207347, "longitude": -70.77356473131756}, "130289150RR0001": {"name": "La Soci\u00e9t\u00e9 des arts visuels de Laval", "designationCode": "C", "categoryCode": "22", "address": "412-397 BOUL. DES PRAIRIES", "city": "LAVAL", "province": "QC", "country": "CA", "postalCode": "H7N2W6", "twitter": "None", "instagram": "None", "facebook": "None", "youtube": "None", "website": "None", "summary": "None", "logo": "None", "latitude": 45.545539135754865, "longitude": -73.7095698612727}, "107989360RR0001": {"name": "La Soci\u00e9t\u00e9 historique de la C\u00f4te-Nord", "designationCode": "C", "categoryCode": "50", "address": "2 PLACE LASALLE", "city": "BAIE-COMEAU", "province": "QC", "country": "CA", "postalCode": "G4Z1K3", "twitter": "None", "instagram": "None", "facebook": "None", "youtube": "None", "website": "None", "summary": "None", "logo": "None", "latitude": 49.22105697694629, "longitude": -68.15053445960537}, "893300764RR0001": {"name": "La Soci\u00e9t\u00e9 historique de Lourdes inc.", "designationCode": "C", "categoryCode": "50", "address": "BOX 186", "city": "NOTRE DAME DE LOURDES", "province": "MB", "country": "CA", "postalCode": "R0G1M0", "twitter": "None", "instagram": "None", "facebook": "None", "youtube": "None", "website": "None", "summary": "None", "logo": "None", "latitude": 49.53271200000006, "longitude": -98.55750049999993}}