{"118875368RR0001": {"name": "COOK'S MILLS UNITED CHURCH", "designationCode": "C", "categoryCode": "44", "address": "228 WILLSON RD", "city": "WELLAND", "province": "ON", "country": "CA", "postalCode": "L3C2T8", "twitter": "None", "instagram": "None", "facebook": "None", "youtube": "None", "website": "None", "summary": "None", "logo": "None", "latitude": 43.00009166472387, "longitude": -79.27003593349322}, "106972342RR0001": {"name": "COOK'S SCHOOL DAY CARE INC.", "designationCode": "C", "categoryCode": "01", "address": "172 QUEEN ST", "city": "COBOURG", "province": "ON", "country": "CA", "postalCode": "K9A5P6", "twitter": "None", "instagram": "None", "facebook": "None", "youtube": "None", "website": "None", "summary": "None", "logo": "None", "latitude": 43.96042112519462, "longitude": -78.15838023203871}, "118875343RR0001": {"name": "COOKE'S PRESBYTERIAN CHURCH", "designationCode": "C", "categoryCode": "37", "address": "45825 WELLINGTON AVE", "city": "CHILLIWACK", "province": "BC", "country": "CA", "postalCode": "V2P2E1", "twitter": "None", "instagram": "None", "facebook": "None", "youtube": "None", "website": "None", "summary": "None", "logo": "None", "latitude": 49.17246885541566, "longitude": -121.9568828742571}, "106972250RR0001": {"name": "COOKE'S-PORTSMOUTH PASTORAL CHARGE", "designationCode": "C", "categoryCode": "44", "address": "200 NORMAN ROGERS DR", "city": "KINGSTON", "province": "ON", "country": "CA", "postalCode": "K7M2R4", "twitter": "None", "instagram": "None", "facebook": "None", "youtube": "None", "website": "None", "summary": "None", "logo": "None", "latitude": 44.23296914348783, "longitude": -76.52281826674918}, "118875335RR0001": {"name": "COOKES PRESBYTERIAN CHURCH", "designationCode": "C", "categoryCode": "37", "address": "RR1 425209 IRISH LAKE ROAD", "city": "MARKDALE", "province": "ON", "country": "CA", "postalCode": "N0C1H0", "twitter": "None", "instagram": "None", "facebook": "None", "youtube": "None", "website": "None", "summary": "None", "logo": "None", "latitude": 44.26125733181997, "longitude": -80.62740016026744}, "106972292RR0001": {"name": "COOKIE JAR NURSERY ASSOCIATION", "designationCode": "C", "categoryCode": "20", "address": "4604-49 AVE", "city": "ROCKY MOUNTAIN HOUSE", "province": "AB", "country": "CA", "postalCode": "T0M1T1", "twitter": "None", "instagram": "None", "facebook": "None", "youtube": "None", "website": "None", "summary": "None", "logo": "None", "latitude": 52.37287547821568, "longitude": -114.91420016472387}, "130694706RR0001": {"name": "COOKS CREEK CONSERVATION DISTRICT NO 5", "designationCode": "C", "categoryCode": "52", "address": "66 156 PINERIDGE ROAD         BOX 11, GRP 561, RR#5", "city": "WINNIPEG", "province": "MB", "country": "CA", "postalCode": "R2C2Z2", "twitter": "None", "instagram": "None", "facebook": "None", "youtube": "None", "website": "None", "summary": "None", "logo": "None", "latitude": 49.92420300000006, "longitude": -96.99564499999994}, "119288918RR0056": {"name": "COOKS MILLS CONGREGATION OF JEHOVAH'S WITNESSES, WELLAND, ONTARIO", "designationCode": "C", "categoryCode": "61", "address": "215 ALBERTA ST", "city": "WELLAND", "province": "ON", "country": "CA", "postalCode": "L3B2W1", "twitter": "None", "instagram": "None", "facebook": "None", "youtube": "None", "website": "None", "summary": "None", "logo": "None", "latitude": 42.971157000000005, "longitude": -79.24296445181508}, "890931397RR0001": {"name": "COOKSHIRE CEMETERY ASSOCIATION", "designationCode": "C", "categoryCode": "59", "address": "P.O. BOX 933", "city": "COOKSHIRE", "province": "QC", "country": "CA", "postalCode": "J0B1M0", "twitter": "None", "instagram": "None", "facebook": "None", "youtube": "None", "website": "None", "summary": "None", "logo": "None", "latitude": 45.34071320619902, "longitude": -71.5767795543481}, "106972409RR0001": {"name": "COOKSVILLE UNITED CHURCH", "designationCode": "C", "categoryCode": "44", "address": "2500 MIMOSA ROW", "city": "MISSISSAUGA", "province": "ON", "country": "CA", "postalCode": "L5B1P7", "twitter": "None", "instagram": "None", "facebook": "None", "youtube": "None", "website": "None", "summary": "None", "logo": "None", "latitude": 43.57705841822979, "longitude": -79.61400745092011}, "851450346RR0001": {"name": "COOL ARTS SOCIETY", "designationCode": "C", "categoryCode": "09", "address": "201 - 421 CAWSTON AVE", "city": "KELOWNA", "province": "BC", "country": "CA", "postalCode": "V1Y6Z1", "twitter": "None", "instagram": "None", "facebook": "None", "youtube": "None", "website": "None", "summary": "None", "logo": "None", "latitude": 49.89161930288052, "longitude": -119.4948243998956}, "891433245RR0001": {"name": "COOLSPRING CHARITABLE TRUST", "designationCode": "B", "categoryCode": "39", "address": "1401 PRINCESS AVENUE", "city": "BRANDON", "province": "MB", "country": "CA", "postalCode": "R7A7L7", "twitter": "None", "instagram": "None", "facebook": "None", "youtube": "None", "website": "None", "summary": "None", "logo": "None", "latitude": 49.84694947489748, "longitude": -99.957294}, "852950237RR0001": {"name": "COOP\u00c8RE ROSEMONT", "designationCode": "C", "categoryCode": "09", "address": "2555 RUE HOLT", "city": "MONTREAL", "province": "QC", "country": "CA", "postalCode": "H1Y1N4", "twitter": "None", "instagram": "None", "facebook": "None", "youtube": "None", "website": "None", "summary": "None", "logo": "None", "latitude": 45.546204184026685, "longitude": -73.58258865713513}, "703093120RR0001": {"name": "COOPER FAMILY FOUNDATION", "designationCode": "B", "categoryCode": "03", "address": "700-275 LANSDOWNE ST", "city": "KAMLOOPS", "province": "BC", "country": "CA", "postalCode": "V2C6H6", "twitter": "None", "instagram": "None", "facebook": "None", "youtube": "None", "website": "None", "summary": "None", "logo": "None", "latitude": 50.67666149956732, "longitude": -120.33499033236194}, "890212970RR0001": {"name": "COOPER FOUNDATION INC.", "designationCode": "A", "categoryCode": "23", "address": "81 PRINCE ST", "city": "CHARLOTTETOWN", "province": "PE", "country": "CA", "postalCode": "C1A7N5", "twitter": "None", "instagram": "None", "facebook": "None", "youtube": "None", "website": "None", "summary": "None", "logo": "None", "latitude": 46.23527784901036, "longitude": -63.123739081885795}, "101144541RR0001": {"name": "COOPER INSTITUTE LTD.", "designationCode": "C", "categoryCode": "59", "address": "81 PRINCE ST", "city": "CHARLOTTETOWN", "province": "PE", "country": "CA", "postalCode": "C1A4R3", "twitter": "None", "instagram": "None", "facebook": "None", "youtube": "None", "website": "None", "summary": "None", "logo": "None", "latitude": 46.23527784901036, "longitude": -63.123739081885795}, "889410700RR0001": {"name": "COOPER MARSH CONSERVATORS INC.", "designationCode": "C", "categoryCode": "59", "address": "PO BOX 429                    18046 COUNTY ROAD 2", "city": "CORNWALL", "province": "ON", "country": "CA", "postalCode": "K6H5T2", "twitter": "None", "instagram": "None", "facebook": "None", "youtube": "None", "website": "None", "summary": "None", "logo": "None", "latitude": 45.03277113955332, "longitude": -74.6656692286123}, "869908533RR0001": {"name": "COOPERATIVE AMI JEUNESSE INC", "designationCode": "C", "categoryCode": "09", "address": "356-F, AVENUE WOODROFFE NORD", "city": "OTTAWA", "province": "ON", "country": "CA", "postalCode": "K2A3V6", "twitter": "None", "instagram": "None", "facebook": "None", "youtube": "None", "website": "None", "summary": "None", "logo": "None", "latitude": 45.36514497103489, "longitude": -75.77054215448298}, "887146595RR0001": {"name": "COOPERATIVE D'HABITATION LUMIERE DE LA VIE DE BOISBRIAND", "designationCode": "C", "categoryCode": "59", "address": "2 RUE BETH HALEVY", "city": "BOISBRIAND", "province": "QC", "country": "CA", "postalCode": "J7E4H4", "twitter": "None", "instagram": "None", "facebook": "None", "youtube": "None", "website": "None", "summary": "None", "logo": "None", "latitude": 45.615018531767646, "longitude": -73.87231926415211}, "118875491RR0001": {"name": "COOPERATIVE DE SERVICES MULTIPLES DE LANAUDIERE", "designationCode": "C", "categoryCode": "59", "address": "1317 CH DU GOUVERNEMENT", "city": "STE-JULIENNE", "province": "QC", "country": "CA", "postalCode": "J0K2T0", "twitter": "None", "instagram": "None", "facebook": "None", "youtube": "None", "website": "None", "summary": "None", "logo": "None", "latitude": 45.96058765335556, "longitude": -73.70974996653025}, "863993440RR0001": {"name": "COOPERATIVE ENGLISH AS A SECOND LANGUAGE MINISTRIES SOCIETY", "designationCode": "C", "categoryCode": "20", "address": "PO BOX 65172 RPO NORTH HILL", "city": "CALGARY", "province": "AB", "country": "CA", "postalCode": "T2N4T6", "twitter": "None", "instagram": "None", "facebook": "None", "youtube": "None", "website": "None", "summary": "None", "logo": "None", "latitude": 51.065150000000074, "longitude": -114.10340999999994}, "137179982RR0001": {"name": "COOPERATIVE RADIO RESTIGOUCHE LTEE", "designationCode": "C", "categoryCode": "21", "address": "C.P. 2561                     1991 AVENUE DES PIONNIERS", "city": "BALMORAL", "province": "NB", "country": "CA", "postalCode": "E8E2W7", "twitter": "None", "instagram": "None", "facebook": "None", "youtube": "None", "website": "None", "summary": "None", "logo": "None", "latitude": 47.9606160780193, "longitude": -66.49110980004605}, "890743073RR0001": {"name": "COPA FLIGHT SAFETY FOUNDATION", "designationCode": "C", "categoryCode": "59", "address": "75 ALBERT STREET, STE 903", "city": "OTTAWA", "province": "ON", "country": "CA", "postalCode": "K1P5E7", "twitter": "None", "instagram": "None", "facebook": "None", "youtube": "None", "website": "None", "summary": "None", "logo": "None", "latitude": 45.42207928642739, "longitude": -75.69532471400531}, "118875608RR0001": {"name": "COPAM", "designationCode": "C", "categoryCode": "49", "address": "177 CH FRIZZLE", "city": "LAC BROME", "province": "QC", "country": "CA", "postalCode": "J0E1V0", "twitter": "None", "instagram": "None", "facebook": "None", "youtube": "None", "website": "None", "summary": "None", "logo": "None", "latitude": 45.23609635971484, "longitude": -72.56053296976158}, "118875624RR0001": {"name": "COPERNICUS LODGE", "designationCode": "C", "categoryCode": "01", "address": "66 RONCESVALLES AVE", "city": "TORONTO", "province": "ON", "country": "CA", "postalCode": "M6R3A7", "twitter": "None", "instagram": "None", "facebook": "None", "youtube": "None", "website": "None", "summary": "None", "logo": "None", "latitude": 43.640321249783646, "longitude": -79.44673633267905}, "890938178RR0001": {"name": "COPERNICUS LODGE AUXILIARY", "designationCode": "A", "categoryCode": "19", "address": "66 RONCESVALLES AVENUE", "city": "TORONTO", "province": "ON", "country": "CA", "postalCode": "M6R3A7", "twitter": "None", "instagram": "None", "facebook": "None", "youtube": "None", "website": "None", "summary": "None", "logo": "None", "latitude": 43.640321249783646, "longitude": -79.44673633267905}, "119057677RR0001": {"name": "COPERNICUS LODGE FOUNDATION", "designationCode": "A", "categoryCode": "03", "address": "66 RONCESVALLES AVE", "city": "TORONTO", "province": "ON", "country": "CA", "postalCode": "M6R3A7", "twitter": "None", "instagram": "None", "facebook": "None", "youtube": "None", "website": "None", "summary": "None", "logo": "None", "latitude": 43.640321249783646, "longitude": -79.44673633267905}, "863280186RR0001": {"name": "COPETOWN LIONS DEVELOPMENT ASSOCIATION", "designationCode": "C", "categoryCode": "09", "address": "1950 GOVERNOR'S RD            PO BOX 96", "city": "COPETOWN", "province": "ON", "country": "CA", "postalCode": "L0R1J0", "twitter": "None", "instagram": "None", "facebook": "None", "youtube": "None", "website": "None", "summary": "None", "logo": "None", "latitude": 43.24409150538128, "longitude": -80.0564582209692}, "118875632RR0001": {"name": "COPETOWN UNITED CHURCH", "designationCode": "C", "categoryCode": "44", "address": "P.O. BOX 1", "city": "COPETOWN", "province": "ON", "country": "CA", "postalCode": "L0R1J0", "twitter": "None", "instagram": "None", "facebook": "None", "youtube": "None", "website": "None", "summary": "None", "logo": "None", "latitude": 43.24383000000006, "longitude": -80.05627999999996}, "140685785RR0001": {"name": "COPING BEREAVEMENT SUPPORT GROUPS OF ONTARIO INC", "designationCode": "C", "categoryCode": "59", "address": "1740 BLAIR RD", "city": "CAMBRIDGE", "province": "ON", "country": "CA", "postalCode": "N3H4R8", "twitter": "None", "instagram": "None", "facebook": "None", "youtube": "None", "website": "None", "summary": "None", "logo": "None", "latitude": 43.38498325232249, "longitude": -80.38843914845081}, "127406551RR0001": {"name": "COPING IN TOUGH TIMES (CITT) SCARBOROUGH", "designationCode": "C", "categoryCode": "59", "address": "30 DENARDA STREET             SECOND FLOOR OFFICE", "city": "TORONTO", "province": "ON", "country": "CA", "postalCode": "M6M5C3", "twitter": "None", "instagram": "None", "facebook": "None", "youtube": "None", "website": "None", "summary": "None", "logo": "None", "latitude": 43.68910122704704, "longitude": -79.49257460407414}, "106973563RR0001": {"name": "COPPER CLIFF UNITED CHURCH", "designationCode": "C", "categoryCode": "44", "address": "BOX 755", "city": "COPPER CLIFF", "province": "ON", "country": "CA", "postalCode": "P0M1N0", "twitter": "None", "instagram": "None", "facebook": "None", "youtube": "None", "website": "None", "summary": "None", "logo": "None", "latitude": 46.474830000000054, "longitude": -81.06802999999996}, "884571910RR0001": {"name": "COPS FOR KIDS CHARITABLE FOUNDATION", "designationCode": "A", "categoryCode": "23", "address": "P O BOX 20161 RPO TOWNE CENTRE", "city": "KELOWNA", "province": "BC", "country": "CA", "postalCode": "V1Y9H2", "twitter": "None", "instagram": "None", "facebook": "None", "youtube": "None", "website": "None", "summary": "None", "logo": "None", "latitude": 49.886279922817444, "longitude": -119.49080999999995}, "879517712RR0001": {"name": "COPTIC ORPHANS SUPPORT ASSOCIATION", "designationCode": "C", "categoryCode": "01", "address": "370 CURE LABELLE              LOCAL 110", "city": "LAVAL", "province": "QC", "country": "CA", "postalCode": "H7P2P1", "twitter": "None", "instagram": "None", "facebook": "None", "youtube": "None", "website": "None", "summary": "None", "logo": "None", "latitude": 45.57576581072187, "longitude": -73.7872438254953}, "857804900RR0001": {"name": "COPTIC ORTHODOX PATRIARCATE, ST. MARY'S COPTIC ORTHODOX CHURCH", "designationCode": "C", "categoryCode": "39", "address": "1527 EAGLE MOUNTAIN DR", "city": "COQUITLAM", "province": "BC", "country": "CA", "postalCode": "V3E2Z3", "twitter": "None", "instagram": "None", "facebook": "None", "youtube": "None", "website": "None", "summary": "None", "logo": "None", "latitude": 49.300855566997726, "longitude": -122.81648118425784}, "895314490RR0001": {"name": "COPTIC ORTHODOX PATRIARCHATE CHURCH OF SAINT PAUL THE ANCHORITE", "designationCode": "C", "categoryCode": "39", "address": "1151 ROYAL YORK RD", "city": "LONDON", "province": "ON", "country": "CA", "postalCode": "N6H3Z7", "twitter": "None", "instagram": "None", "facebook": "None", "youtube": "None", "website": "None", "summary": "None", "logo": "None"}, "138942669RR0001": {"name": "COPTIC ORTHODOX PATRIARCHATE OF ALEXANDRIA THE CHURCH OF ARCHANGEL MICHAEL AND SAINT TEKLA", "designationCode": "C", "categoryCode": "39", "address": "12091 HURONTARIO ST", "city": "BRAMPTON", "province": "ON", "country": "CA", "postalCode": "L6Z4P8", "twitter": "None", "instagram": "None", "facebook": "None", "youtube": "None", "website": "None", "summary": "None", "logo": "None", "latitude": 43.735787002250376, "longitude": -79.82764548205351}, "138904693RR0001": {"name": "COPTIC ORTHODOX PATRIARCHATE OF ALEXANDRIA, THE CHURCH OF SAINT MINA", "designationCode": "C", "categoryCode": "39", "address": "1562 RYMAL ROAD EAST", "city": "HAMILTON", "province": "ON", "country": "CA", "postalCode": "L8W3P1", "twitter": "None", "instagram": "None", "facebook": "None", "youtube": "None", "website": "None", "summary": "None", "logo": "None", "latitude": 43.18575788533696, "longitude": -79.82438952013953}, "135887958RR0001": {"name": "COPTIC ORTHODOX PATRIARCHATE OF ALEXANDRIA, THE CHURCH OF THE VIRGIN MARY AND ST ATHANISIUS", "designationCode": "C", "categoryCode": "39", "address": "1245 EGLINGTON AVENUE WEST", "city": "MISSISSAUGA", "province": "ON", "country": "CA", "postalCode": "L5V2M4", "twitter": "None", "instagram": "None", "facebook": "None", "youtube": "None", "website": "None", "summary": "None", "logo": "None", "latitude": 43.580229043597285, "longitude": -79.68276072998991}, "860088053RR0001": {"name": "COPTIC ORTHODOX PATRIARCHATE ST. PHILOPATER MERCURIUS COPTIC ORTHODOX CHURCH", "designationCode": "C", "categoryCode": "39", "address": "40 WILBERT ST", "city": "GUELPH", "province": "ON", "country": "CA", "postalCode": "N1K0A3", "twitter": "None", "instagram": "None", "facebook": "None", "youtube": "None", "website": "None", "summary": "None", "logo": "None", "latitude": 43.54334821706374, "longitude": -80.31578903667238}, "868154097RR0001": {"name": "COPTIC ORTHODOX PATRIARCHATE THE CHURCH OF SAINT BISHOY", "designationCode": "C", "categoryCode": "39", "address": "6500 MAIN STREET", "city": "STOUFFVILLE", "province": "ON", "country": "CA", "postalCode": "L4A5Z4", "twitter": "None", "instagram": "None", "facebook": "None", "youtube": "None", "website": "None", "summary": "None", "logo": "None", "latitude": 43.97314007138287, "longitude": -79.23895749849946}, "892350646RR0001": {"name": "COPTIC ORTHODOX PATRIARCHATE THE CHURCH OF SAINT GEORGE AND SAINT MERCURIUS ABU SEFEIN", "designationCode": "C", "categoryCode": "39", "address": "118 GLENRIDGE AVE", "city": "ST CATHARINES", "province": "ON", "country": "CA", "postalCode": "L2R4X7", "twitter": "None", "instagram": "None", "facebook": "None", "youtube": "None", "website": "None", "summary": "None", "logo": "None", "latitude": 43.14596466028048, "longitude": -79.23967051384886}, "119175263RR0001": {"name": "COPTIC ORTHODOX PATRIARCHATE/ST. GEORGE'S COPTIC ORTHODOX CHURCH", "designationCode": "C", "categoryCode": "39", "address": "1553 WINTERGREEN PL.", "city": "COQUITLAM", "province": "BC", "country": "CA", "postalCode": "V3E2V4", "twitter": "None", "instagram": "None", "facebook": "None", "youtube": "None", "website": "None", "summary": "None", "logo": "None", "latitude": 49.301332050522184, "longitude": -122.80952014040075}, "895288231RR0001": {"name": "COPTIC ORTHODOX PATRIARCHATE, CHURCH OF SAINT MAURICE INC.", "designationCode": "C", "categoryCode": "39", "address": "34 JERSEY AVE", "city": "MOUNT PEARL", "province": "NL", "country": "CA", "postalCode": "A1N1T9", "twitter": "None", "instagram": "None", "facebook": "None", "youtube": "None", "website": "None", "summary": "None", "logo": "None", "latitude": 47.51662057868313, "longitude": -52.80095954483803}, "118875699RR0001": {"name": "COQUALEETZA EDUCATION-TRAINING CENTRE ASSOCIATION", "designationCode": "C", "categoryCode": "09", "address": "PO BOX 2370 STN SARDIS MAIN", "city": "CHILLIWACK", "province": "BC", "country": "CA", "postalCode": "V2R1A7", "twitter": "None", "instagram": "None", "facebook": "None", "youtube": "None", "website": "None", "summary": "None", "logo": "None", "latitude": 49.15747500000006, "longitude": -121.95172249999993}, "118875707RR0001": {"name": "COQUITLAM ALLIANCE CHURCH", "designationCode": "C", "categoryCode": "39", "address": "2601 SPURAWAY AVENUE", "city": "COQUITLAM", "province": "BC", "country": "CA", "postalCode": "V3C2C4", "twitter": "None", "instagram": "None", "facebook": "None", "youtube": "None", "website": "None", "summary": "None", "logo": "None", "latitude": 49.26318647547438, "longitude": -122.81674427699232}, "893792986RR0001": {"name": "COQUITLAM CHINESE BAPTIST CHURCH", "designationCode": "C", "categoryCode": "31", "address": "3433 COAST MERIDIAN RD", "city": "PORT COQUITLAM", "province": "BC", "country": "CA", "postalCode": "V3B3N7", "twitter": "None", "instagram": "None", "facebook": "None", "youtube": "None", "website": "None", "summary": "None", "logo": "None", "latitude": 49.273920000000004, "longitude": -122.75621458552114}, "894561034RR0001": {"name": "COQUITLAM CHINESE EVANGELICAL FREE CHURCH", "designationCode": "C", "categoryCode": "39", "address": "3180 FLINT STREET", "city": "PORT COQUITLAM", "province": "BC", "country": "CA", "postalCode": "V3B4J1", "twitter": "None", "instagram": "None", "facebook": "None", "youtube": "None", "website": "None", "summary": "None", "logo": "None", "latitude": 49.27072478434745, "longitude": -122.77088502526301}, "840060727RR0001": {"name": "COQUITLAM CHRIST CHURCH OF CHINA", "designationCode": "C", "categoryCode": "39", "address": "1933 COMO LAKE AVE", "city": "COQUITLAM", "province": "BC", "country": "CA", "postalCode": "V3J3R2", "twitter": "None", "instagram": "None", "facebook": "None", "youtube": "None", "website": "None", "summary": "None", "logo": "None", "latitude": 49.26339449321933, "longitude": -122.83940216472388}, "119097103RR0001": {"name": "COQUITLAM CHRISTIAN CENTRE", "designationCode": "C", "categoryCode": "36", "address": "2665 RUNNEL DR", "city": "COQUITLAM", "province": "BC", "country": "CA", "postalCode": "V3E1S3", "twitter": "None", "instagram": "None", "facebook": "None", "youtube": "None", "website": "None", "summary": "None", "logo": "None", "latitude": 49.27883950822297, "longitude": -122.8133115}, "861694230RR0001": {"name": "COQUITLAM EVANGELICAL CHINESE BIBLE CHURCH", "designationCode": "C", "categoryCode": "39", "address": "2606 KINGSWAY AVE", "city": "PORT COQUITLAM", "province": "BC", "country": "CA", "postalCode": "V3C1T6", "twitter": "None", "instagram": "None", "facebook": "None", "youtube": "None", "website": "None", "summary": "None", "logo": "None", "latitude": 49.26559869995397, "longitude": -122.78720704786781}, "897288114RR0001": {"name": "COQUITLAM FIRE FIGHTERS CHARITABLE SOCIETY", "designationCode": "A", "categoryCode": "59", "address": "508 CLARKE ROAD #202", "city": "COQUITLAM", "province": "BC", "country": "CA", "postalCode": "V3J3X2", "twitter": "None", "instagram": "None", "facebook": "None", "youtube": "None", "website": "None", "summary": "None", "logo": "None", "latitude": 49.25965626810553, "longitude": -122.89228279710319}, "889912176RR0001": {"name": "COQUITLAM HERITAGE SOCIETY", "designationCode": "C", "categoryCode": "52", "address": "1116 BRUNETTE AVENUE", "city": "COQUITLAM", "province": "BC", "country": "CA", "postalCode": "V3K1G3", "twitter": "None", "instagram": "None", "facebook": "None", "youtube": "None", "website": "None", "summary": "None", "logo": "None", "latitude": 49.23878678766814, "longitude": -122.86196589855159}, "130954845RR0001": {"name": "COQUITLAM KINSMEN HOUSING SOCIETY", "designationCode": "C", "categoryCode": "09", "address": "210-1140 AUSTIN AVE", "city": "COQUITLAM", "province": "BC", "country": "CA", "postalCode": "V3K3P5", "twitter": "None", "instagram": "None", "facebook": "None", "youtube": "None", "website": "None", "summary": "None", "logo": "None", "latitude": 49.24893752120739, "longitude": -122.85909404385708}, "118875756RR0001": {"name": "COQUITLAM PLACE DES ARTS SOCIETY", "designationCode": "C", "categoryCode": "22", "address": "1120 BRUNETTE AVE", "city": "COQUITLAM", "province": "BC", "country": "CA", "postalCode": "V3K1G2", "twitter": "None", "instagram": "None", "facebook": "None", "youtube": "None", "website": "None", "summary": "None", "logo": "None", "latitude": 49.23894474381104, "longitude": -122.86119843130017}, "118875764RR0001": {"name": "COQUITLAM PRESBYTERIAN CHURCH", "designationCode": "C", "categoryCode": "37", "address": "948 COMO LAKE AVENUE", "city": "COQUITLAM", "province": "BC", "country": "CA", "postalCode": "V3J7P9", "twitter": "None", "instagram": "None", "facebook": "None", "youtube": "None", "website": "None", "summary": "None", "logo": "None", "latitude": 49.26345998993742, "longitude": -122.86911952751916}, "118875780RR0001": {"name": "COQUITLAM PUBLIC LIBRARY BOARD", "designationCode": "C", "categoryCode": "50", "address": "575 POIRIER ST", "city": "COQUITLAM", "province": "BC", "country": "CA", "postalCode": "V3J6A9", "twitter": "None", "instagram": "None", "facebook": "None", "youtube": "None", "website": "None", "summary": "None", "logo": "None", "latitude": 49.252628476383094, "longitude": -122.84650391000598}, "887958643RR0001": {"name": "COQUITLAM ROTARY CLUB FOUNDATION SOCIETY", "designationCode": "C", "categoryCode": "65", "address": "200-1150 AUSTIN AVENUE", "city": "COQUITLAM", "province": "BC", "country": "CA", "postalCode": "V3K3P5", "twitter": "None", "instagram": "None", "facebook": "None", "youtube": "None", "website": "None", "summary": "None", "logo": "None", "latitude": 49.24893752120739, "longitude": -122.85868402553523}, "140958984RR0001": {"name": "COQUITLAM SEARCH AND RESCUE SOCIETY", "designationCode": "C", "categoryCode": "59", "address": "1300 PINE TREE WAY", "city": "COQUITLAM", "province": "BC", "country": "CA", "postalCode": "V3B7S4", "twitter": "None", "instagram": "None", "facebook": "None", "youtube": "None", "website": "None", "summary": "None", "logo": "None", "latitude": 49.291037022793915, "longitude": -122.7899535960527}, "118875889RR0001": {"name": "COR ENTERPRISES INC.", "designationCode": "C", "categoryCode": "59", "address": "364 PARK AVE. EAST", "city": "BRANDON", "province": "MB", "country": "CA", "postalCode": "R7A7A8", "twitter": "None", "instagram": "None", "facebook": "None", "youtube": "None", "website": "None", "summary": "None", "logo": "None", "latitude": 49.831990588637815, "longitude": -99.92747431963731}, "834998478RR0001": {"name": "CORA COHEN FAMILY FOUNDATION", "designationCode": "C", "categoryCode": "03", "address": "1155 RENE-LEVESQUE WEST       SUITE 2010", "city": "MONTREAL", "province": "QC", "country": "CA", "postalCode": "H3B2J8", "twitter": "None", "instagram": "None", "facebook": "None", "youtube": "None", "website": "None", "summary": "None", "logo": "None", "latitude": 45.49845612490617, "longitude": -73.57072484612483}, "897940854RR0001": {"name": "CORAL SPRINGS CHILD CARE SOCIETY", "designationCode": "C", "categoryCode": "01", "address": "4427-58 ST NE", "city": "CALGARY", "province": "AB", "country": "CA", "postalCode": "T1Y4G3", "twitter": "None", "instagram": "None", "facebook": "None", "youtube": "None", "website": "None", "summary": "None", "logo": "None", "latitude": 51.092134878988986, "longitude": -113.94887073509713}, "106693047RR0021": {"name": "CORALWOOD ADVENTIST ACADEMY", "designationCode": "C", "categoryCode": "20", "address": "5816 HIGHWAY, 2A", "city": "LACOMBE", "province": "AB", "country": "CA", "postalCode": "T4L2G5", "twitter": "None", "instagram": "None", "facebook": "None", "youtube": "None", "website": "None", "summary": "None", "logo": "None", "latitude": 52.474063600197404, "longitude": -113.71692568401835}, "132529827RR0001": {"name": "CORAM DEO BAPTIST CHURCH OF GRANDE PRAIRIE", "designationCode": "C", "categoryCode": "39", "address": "9101 - 104 AVENUE", "city": "GRANDE PRAIRIE", "province": "AB", "country": "CA", "postalCode": "T8X1H5", "twitter": "None", "instagram": "None", "facebook": "None", "youtube": "None", "website": "None", "summary": "None", "logo": "None", "latitude": 55.17396846681874, "longitude": -118.766961}, "118875814RR0001": {"name": "CORAZON CARE FOUNDATION", "designationCode": "B", "categoryCode": "03", "address": "730-910 7TH AVENUE SW", "city": "CALGARY", "province": "AB", "country": "CA", "postalCode": "T2P3N8", "twitter": "None", "instagram": "None", "facebook": "None", "youtube": "None", "website": "None", "summary": "None", "logo": "None", "latitude": 51.04707150043269, "longitude": -114.08207019164406}, "888558996RR0001": {"name": "CORBAN FOUNDATION", "designationCode": "B", "categoryCode": "03", "address": "1690 PALMERSTON AVENUE", "city": "VANCOUVER", "province": "BC", "country": "CA", "postalCode": "V7V2T8", "twitter": "None", "instagram": "None", "facebook": "None", "youtube": "None", "website": "None", "summary": "None", "logo": "None", "latitude": 49.34086853952925, "longitude": -123.15930236081135}, "872599022RR0001": {"name": "CORBETTON COMMUNITY CHURCH - DUFFERIN COUNTY", "designationCode": "C", "categoryCode": "39", "address": "BOX 14                        260 SIDEROAD FIRECODE 682393", "city": "MELANCTHON", "province": "ON", "country": "CA", "postalCode": "L9V2N1", "twitter": "None", "instagram": "None", "facebook": "None", "youtube": "None", "website": "None", "summary": "None", "logo": "None", "latitude": 44.136483000000055, "longitude": -80.32991299999993}, "118875830RR0001": {"name": "CORBROOK SHELTERED WORKSHOP", "designationCode": "C", "categoryCode": "11", "address": "581 TRETHEWEY DRIVE", "city": "NORTH YORK", "province": "ON", "country": "CA", "postalCode": "M6M4B8", "twitter": "None", "instagram": "None", "facebook": "None", "youtube": "None", "website": "None", "summary": "None", "logo": "None", "latitude": 43.69675256116933, "longitude": -79.49213624868713}, "131691594RR0001": {"name": "CORDOVA BAY PRE-SCHOOL", "designationCode": "C", "categoryCode": "20", "address": "5182 CORDOVA BAY ROAD", "city": "VICTORIA", "province": "BC", "country": "CA", "postalCode": "V8Y2K8", "twitter": "None", "instagram": "None", "facebook": "None", "youtube": "None", "website": "None", "summary": "None", "logo": "None", "latitude": 48.52493240437998, "longitude": -123.36833916518522}, "118875855RR0001": {"name": "CORDOVA BAY UNITED CHURCH", "designationCode": "C", "categoryCode": "44", "address": "813 CLAREMONT AVE", "city": "VICTORIA", "province": "BC", "country": "CA", "postalCode": "V8Y1J9", "twitter": "None", "instagram": "None", "facebook": "None", "youtube": "None", "website": "None", "summary": "None", "logo": "None", "latitude": 48.51795652784384, "longitude": -123.37727247016561}, "854564804RR0001": {"name": "CORDOVA BAY 55 PLUS ASSOCIATION", "designationCode": "C", "categoryCode": "56", "address": "1- 5238 CORDOVA BAY RD.", "city": "VICTORIA", "province": "BC", "country": "CA", "postalCode": "V8Y2L2", "twitter": "None", "instagram": "None", "facebook": "None", "youtube": "None", "website": "None", "summary": "None", "logo": "None", "latitude": 48.52716518169474, "longitude": -123.36883111011859}, "107406316RR0037": {"name": "CORDOVA FREE METHODIST CHURCH", "designationCode": "C", "categoryCode": "39", "address": "RR 1 1878 VANSICLE RD", "city": "HAVELOCK", "province": "ON", "country": "CA", "postalCode": "K0L1Z0", "twitter": "None", "instagram": "None", "facebook": "None", "youtube": "None", "website": "None", "summary": "None", "logo": "None", "latitude": 44.618794945811935, "longitude": -77.82332149876484}, "872010160RR0001": {"name": "CORDOVA MINES RECREATION ASSOCIATION", "designationCode": "C", "categoryCode": "56", "address": "3081 COUNTY RD 48             P.O. BOX 17", "city": "HAVELOCK", "province": "ON", "country": "CA", "postalCode": "K0L1Z0", "twitter": "None", "instagram": "None", "facebook": "None", "youtube": "None", "website": "None", "summary": "None", "logo": "None", "latitude": 44.53360380481341, "longitude": -77.80833752820529}, "889659397RR0001": {"name": "CORDOVA UNITED CHURCH", "designationCode": "C", "categoryCode": "44", "address": "1869 VANSICKLE ROAD, RR 1", "city": "HAVELOCK", "province": "ON", "country": "CA", "postalCode": "K0L1Z0", "twitter": "None", "instagram": "None", "facebook": "None", "youtube": "None", "website": "None", "summary": "None", "logo": "None", "latitude": 44.6171462780877, "longitude": -77.82261093829543}, "140460841RR0001": {"name": "CORDUROY BROOK ENHANCEMENT ASSOCIATION INC", "designationCode": "C", "categoryCode": "52", "address": "109 MAIN STREET", "city": "GRAND FALLS-WINDSOR", "province": "NL", "country": "CA", "postalCode": "A2B1J8", "twitter": "None", "instagram": "None", "facebook": "None", "youtube": "None", "website": "None", "summary": "None", "logo": "None", "latitude": 48.949323316359965, "longitude": -55.662011038493254}, "863815445RR0001": {"name": "CORE CONFLICT RESOLUTION SOCIETY", "designationCode": "C", "categoryCode": "59", "address": "400-777 DUNSMUIR STREET", "city": "VANCOUVER", "province": "BC", "country": "CA", "postalCode": "V7Y1K3", "twitter": "None", "instagram": "None", "facebook": "None", "youtube": "None", "website": "None", "summary": "None", "logo": "None", "latitude": 49.283979252322474, "longitude": -123.11691534049893}, "814112496RR0001": {"name": "CORE HARVEST MINISTRIES INC.", "designationCode": "C", "categoryCode": "49", "address": "223 PINNACLE STREET", "city": "BELLEVILLE", "province": "ON", "country": "CA", "postalCode": "K8N3A7", "twitter": "None", "instagram": "None", "facebook": "None", "youtube": "None", "website": "None", "summary": "None", "logo": "None", "latitude": 44.16455914354513, "longitude": -77.38281205384041}, "841814965RR0001": {"name": "CORE INTERNATIONAL", "designationCode": "C", "categoryCode": "09", "address": "BOX 8111", "city": "CANMORE", "province": "AB", "country": "CA", "postalCode": "T1W2T8", "twitter": "None", "instagram": "None", "facebook": "None", "youtube": "None", "website": "None", "summary": "None", "logo": "None", "latitude": 51.08960400000005, "longitude": -115.36085149999994}, "861222917RR0001": {"name": "CORE NEIGHBOURHOOD YOUTH CO-OPERATIVE LTD.", "designationCode": "C", "categoryCode": "09", "address": "905 20 ST W", "city": "SASKATOON", "province": "SK", "country": "CA", "postalCode": "S7M0Y5", "twitter": "None", "instagram": "None", "facebook": "None", "youtube": "None", "website": "None", "summary": "None", "logo": "None", "latitude": 52.126160502885526, "longitude": -106.6833315}, "864369129RR0001": {"name": "CORK CEMETERY ASSOCIATION", "designationCode": "C", "categoryCode": "59", "address": "37 KINGFISHER SHORE ROAD", "city": "HARVEY YORK CO", "province": "NB", "country": "CA", "postalCode": "E6K2A4", "twitter": "None", "instagram": "None", "facebook": "None", "youtube": "None", "website": "None", "summary": "None", "logo": "None", "latitude": 45.757717295394805, "longitude": -67.02433124207003}, "133628859RR0001": {"name": "CORNER BROOK BAPTIST CHURCH", "designationCode": "C", "categoryCode": "31", "address": "P.O. BOX 694", "city": "CORNER BROOK", "province": "NL", "country": "CA", "postalCode": "A2H6G7", "twitter": "None", "instagram": "None", "facebook": "None", "youtube": "None", "website": "None", "summary": "None", "logo": "None", "latitude": 48.95097900000006, "longitude": -57.950103499999926}, "119288918RR0370": {"name": "CORNER BROOK CONGREGATION OF JEHOVAH'S WITNESSES", "designationCode": "C", "categoryCode": "61", "address": "P.O. BOX 891", "city": "CORNER BROOK", "province": "NL", "country": "CA", "postalCode": "A2H6J2", "twitter": "None", "instagram": "None", "facebook": "None", "youtube": "None", "website": "None", "summary": "None", "logo": "None", "latitude": 48.95097900000006, "longitude": -57.950103499999926}, "824909675RR0001": {"name": "CORNER BROOK EPISCOPAL LANDS CORPORATION", "designationCode": "C", "categoryCode": "59", "address": "469 CURLING STREET", "city": "CORNERBROOK", "province": "NL", "country": "CA", "postalCode": "A2H3K8", "twitter": "None", "instagram": "None", "facebook": "None", "youtube": "None", "website": "None", "summary": "None", "logo": "None", "latitude": 48.960868531162056, "longitude": -58.00861137774823}, "885553792RR0001": {"name": "CORNER BROOK MUSEUM & ARCHIVES SOCIETY INC.", "designationCode": "C", "categoryCode": "50", "address": "2 WEST STREET, PO BOX 20038", "city": "CORNERBROOK", "province": "NL", "country": "CA", "postalCode": "A2H7J5", "twitter": "None", "instagram": "None", "facebook": "None", "youtube": "None", "website": "None", "summary": "None", "logo": "None", "latitude": 48.952929859635795, "longitude": -57.94525909553786}, "812660074RR0001": {"name": "CORNER BROOK ROMAN CATHOLIC EPISCOPAL CORPORATION", "designationCode": "C", "categoryCode": "49", "address": "469 CURLING ST", "city": "CORNER BROOK", "province": "NL", "country": "CA", "postalCode": "A2H3K8", "twitter": "None", "instagram": "None", "facebook": "None", "youtube": "None", "website": "None", "summary": "None", "logo": "None", "latitude": 48.960868531162056, "longitude": -58.00861137774823}, "895518389RR0001": {"name": "CORNER BROOK STREAM DEVELOPMENT CORPORATION", "designationCode": "C", "categoryCode": "56", "address": "PO BOX 233", "city": "CORNER BROOK", "province": "NL", "country": "CA", "postalCode": "A2H6C9", "twitter": "None", "instagram": "None", "facebook": "None", "youtube": "None", "website": "None", "summary": "None", "logo": "None", "latitude": 48.95097900000006, "longitude": -57.950103499999926}, "812870731RR0001": {"name": "CORNER GOSPEL CHURCH", "designationCode": "C", "categoryCode": "36", "address": "GD", "city": "RESTOULE", "province": "ON", "country": "CA", "postalCode": "P0H2R0", "twitter": "None", "instagram": "None", "facebook": "None", "youtube": "None", "website": "None", "summary": "None", "logo": "None", "latitude": 46.02875100000006, "longitude": -79.71879049999994}, "857525539RR0001": {"name": "CORNER STONE CHURCH OF GOD", "designationCode": "C", "categoryCode": "39", "address": "76 CHERRY TREE DRIVE", "city": "BRAMPTON", "province": "ON", "country": "CA", "postalCode": "L6Y3P5", "twitter": "None", "instagram": "None", "facebook": "None", "youtube": "None", "website": "None", "summary": "None", "logo": "None", "latitude": 43.6542231998384, "longitude": -79.71940673463578}, "107995250RR0001": {"name": "CORNERSTONE ALLIANCE CHURCH INC.", "designationCode": "C", "categoryCode": "39", "address": "1100 AUTUMNWOOD DR", "city": "WINNIPEG", "province": "MB", "country": "CA", "postalCode": "R2J4L5", "twitter": "None", "instagram": "None", "facebook": "None", "youtube": "None", "website": "None", "summary": "None", "logo": "None", "latitude": 49.860389472387304, "longitude": -97.07839292275915}, "137590956RR0001": {"name": "CORNERSTONE ASSEMBLY", "designationCode": "C", "categoryCode": "39", "address": "14 CORNERSTONE DRIVE", "city": "TRURO", "province": "NS", "country": "CA", "postalCode": "B2N7B2", "twitter": "None", "instagram": "None", "facebook": "None", "youtube": "None", "website": "None", "summary": "None", "logo": "None", "latitude": 45.381824242339164, "longitude": -63.21969587650748}, "118918176RR0001": {"name": "CORNERSTONE BAPTIST CHURCH", "designationCode": "C", "categoryCode": "31", "address": "PO BOX 217", "city": "MINITONAS", "province": "MB", "country": "CA", "postalCode": "R0L1G0", "twitter": "None", "instagram": "None", "facebook": "None", "youtube": "None", "website": "None", "summary": "None", "logo": "None", "latitude": 52.086580000000026, "longitude": -101.03713999999997}, "892897760RR0001": {"name": "CORNERSTONE BAPTIST CHURCH", "designationCode": "C", "categoryCode": "31", "address": "22-17665 LESLIE ST", "city": "NEWMARKET", "province": "ON", "country": "CA", "postalCode": "L3Y3E3", "twitter": "None", "instagram": "None", "facebook": "None", "youtube": "None", "website": "None", "summary": "None", "logo": "None", "latitude": 44.063867355879715, "longitude": -79.43142957352875}, "896421815RR0001": {"name": "CORNERSTONE BAPTIST CHURCH", "designationCode": "C", "categoryCode": "31", "address": "COMP 1 BOX 7                  RR 1", "city": "BARRINGTON", "province": "NS", "country": "CA", "postalCode": "B0W1E0", "twitter": "None", "instagram": "None", "facebook": "None", "youtube": "None", "website": "None", "summary": "None", "logo": "None", "latitude": 43.56375000000003, "longitude": -65.56297999999998}, "897470217RR0001": {"name": "CORNERSTONE BAPTIST CHURCH", "designationCode": "C", "categoryCode": "31", "address": "34 GRAHAM STREET", "city": "WOODSTOCK", "province": "ON", "country": "CA", "postalCode": "N4S6J6", "twitter": "None", "instagram": "None", "facebook": "None", "youtube": "None", "website": "None", "summary": "None", "logo": "None", "latitude": 43.131058187344905, "longitude": -80.75887849679735}, "878908722RR0001": {"name": "CORNERSTONE BAPTIST CHURCH (CBC)", "designationCode": "C", "categoryCode": "39", "address": "BOX 60057                     RPO GLEN ABBEY", "city": "OAKVILLE", "province": "ON", "country": "CA", "postalCode": "L6M3H2", "twitter": "None", "instagram": "None", "facebook": "None", "youtube": "None", "website": "None", "summary": "None", "logo": "None", "latitude": 43.43559475958145, "longitude": -79.73652462170415}, "119289288RR0001": {"name": "CORNERSTONE BAPTIST CHURCH INC", "designationCode": "C", "categoryCode": "31", "address": "42 LEINSTER ST", "city": "SAINT JOHN", "province": "NB", "country": "CA", "postalCode": "E2L1J1", "twitter": "None", "instagram": "None", "facebook": "None", "youtube": "None", "website": "None", "summary": "None", "logo": "None", "latitude": 45.2733046455653, "longitude": -66.05478675797796}, "886642198RR0001": {"name": "CORNERSTONE BAPTIST CHURCH INC", "designationCode": "C", "categoryCode": "31", "address": "19 HIGH RD SOUTH", "city": "CARBONEAR", "province": "NL", "country": "CA", "postalCode": "A1Y1A4", "twitter": "None", "instagram": "None", "facebook": "None", "youtube": "None", "website": "None", "summary": "None", "logo": "None", "latitude": 47.73000488623619, "longitude": -53.227431288516954}, "890613995RR0001": {"name": "CORNERSTONE BAPTIST CHURCH OF CALGARY", "designationCode": "C", "categoryCode": "31", "address": "2624 56 ST NE", "city": "CALGARY", "province": "AB", "country": "CA", "postalCode": "T1Y2E7", "twitter": "None", "instagram": "None", "facebook": "None", "youtube": "None", "website": "None", "summary": "None", "logo": "None", "latitude": 51.076284674158934, "longitude": -113.952126159992}, "893705335RR0001": {"name": "CORNERSTONE BAPTIST CHURCH OF KAMLOOPS", "designationCode": "C", "categoryCode": "31", "address": "805 SHERBROOKE AVE", "city": "KAMLOOPS", "province": "BC", "country": "CA", "postalCode": "V2B1V9", "twitter": "None", "instagram": "None", "facebook": "None", "youtube": "None", "website": "None", "summary": "None", "logo": "None", "latitude": 50.704369492353955, "longitude": -120.3642804657222}, "107444515RR0001": {"name": "CORNERSTONE BAPTIST CHURCH OF WINNIPEG INC.", "designationCode": "C", "categoryCode": "31", "address": "505 OAKVIEW AVE", "city": "WINNIPEG", "province": "MB", "country": "CA", "postalCode": "R2K0S8", "twitter": "None", "instagram": "None", "facebook": "None", "youtube": "None", "website": "None", "summary": "None", "logo": "None", "latitude": 49.92558982988045, "longitude": -97.0890738487219}}