{"130683857RR0001": {"name": "SERVICES DE GARDE DE LA PLACE VILLE-MARIE", "designationCode": "C", "categoryCode": "20", "address": "4 PLACE DE VILLE-MARIE        PLAZA 12437", "city": "MONTREAL", "province": "QC", "country": "CA", "postalCode": "H3B2E7", "twitter": "None", "instagram": "None", "facebook": "None", "youtube": "None", "website": "None", "summary": "None", "logo": "None", "latitude": 45.50107017040803, "longitude": -73.57055723867516}, "132117052RR0001": {"name": "SERVICES DE GARDE L'ENFANT JOUE", "designationCode": "C", "categoryCode": "09", "address": "55 RUE PRINCIPALE             C.P. 040", "city": "SAINT-MOISE", "province": "QC", "country": "CA", "postalCode": "G0J2Z0", "twitter": "None", "instagram": "None", "facebook": "None", "youtube": "None", "website": "None", "summary": "None", "logo": "None", "latitude": 48.552267513417114, "longitude": -67.84651117470719}, "846377075RR0001": {"name": "SERVICES DE LA SANT\u00c9 M.I.C.", "designationCode": "C", "categoryCode": "01", "address": "100 PLACE JUGE-DESNOYERS", "city": "LAVAL", "province": "QC", "country": "CA", "postalCode": "H7G1A4", "twitter": "None", "instagram": "None", "facebook": "None", "youtube": "None", "website": "None", "summary": "None", "logo": "None", "latitude": 45.559828434098804, "longitude": -73.67621628036785}, "868533498RR0001": {"name": "SERVICES DE R\u00c9PIT DU PONTIAC - PONTIAC RESPITE SERVICES", "designationCode": "C", "categoryCode": "01", "address": "1229, ROUTE 148 C.P.208", "city": "CAMPBELL'S BAY", "province": "QC", "country": "CA", "postalCode": "J0X1K0", "twitter": "None", "instagram": "None", "facebook": "None", "youtube": "None", "website": "None", "summary": "None", "logo": "None", "latitude": 45.718649348355775, "longitude": -76.59424724647666}, "878009232RR0001": {"name": "SERVICES DE SANTE DE CHAPLEAU HEALTH SERVICES", "designationCode": "C", "categoryCode": "10", "address": "PO BOX 757", "city": "CHAPLEAU", "province": "ON", "country": "CA", "postalCode": "P0M1K0", "twitter": "None", "instagram": "None", "facebook": "None", "youtube": "None", "website": "None", "summary": "None", "logo": "None", "latitude": 47.84247000000005, "longitude": -83.40489999999994}, "107780678RR0001": {"name": "SERVICES DE TOXICOMANIE COCHRANE NORD INC. NORTH COCHRANE ADDICTION SERVICES INC.", "designationCode": "C", "categoryCode": "57", "address": "29 BYNG AVE SUITE #2", "city": "KAPUSKASING", "province": "ON", "country": "CA", "postalCode": "P5N1W6", "twitter": "None", "instagram": "None", "facebook": "None", "youtube": "None", "website": "None", "summary": "None", "logo": "None", "latitude": 49.41802084670698, "longitude": -82.42278981845278}, "892105198RR0001": {"name": "SERVICES DES BENEVOLES DE L'HOPITAL STE-ANNE", "designationCode": "C", "categoryCode": "19", "address": "305 BOUL ANCIENS COMBATTANTS", "city": "SAINTE-ANNE-DE-BELLEVUE", "province": "QC", "country": "CA", "postalCode": "H9X1Y9", "twitter": "None", "instagram": "None", "facebook": "None", "youtube": "None", "website": "None", "summary": "None", "logo": "None", "latitude": 45.41136111988779, "longitude": -73.950986561564}, "891931180RR0001": {"name": "SERVICES ETOILE FILANTE", "designationCode": "C", "categoryCode": "09", "address": "1340 BOUL SAINT-JOSEPH E", "city": "MONTREAL", "province": "QC", "country": "CA", "postalCode": "H2J1M3", "twitter": "None", "instagram": "None", "facebook": "None", "youtube": "None", "website": "None", "summary": "None", "logo": "None", "latitude": 45.53273500998332, "longitude": -73.58173038799134}, "122020233RR0001": {"name": "SERVICES INDUSTRIELS R.C. INC.", "designationCode": "C", "categoryCode": "09", "address": "643B BOUL ARMAND-THERIAULT", "city": "RIVIERE-DU-LOUP", "province": "QC", "country": "CA", "postalCode": "G5R6B9", "twitter": "None", "instagram": "None", "facebook": "None", "youtube": "None", "website": "None", "summary": "None", "logo": "None", "latitude": 47.81433195683347, "longitude": -69.52736346771145}, "132171414RR0001": {"name": "SERVICES MYRIAM BETH'LEHEM INC", "designationCode": "C", "categoryCode": "49", "address": "105 BOUL LASALLE", "city": "BAIE COMEAU", "province": "QC", "country": "CA", "postalCode": "G4Z1R7", "twitter": "None", "instagram": "None", "facebook": "None", "youtube": "None", "website": "None", "summary": "None", "logo": "None", "latitude": 49.2194717369148, "longitude": -68.15535536987103}, "138138409RR0001": {"name": "SERVICES MYRIAM-DE-LA-PAIX INC", "designationCode": "C", "categoryCode": "47", "address": "1000 RUE DES CHALETS", "city": "TRACADIE-SHEILA", "province": "NB", "country": "CA", "postalCode": "E1X1C5", "twitter": "None", "instagram": "None", "facebook": "None", "youtube": "None", "website": "None", "summary": "None", "logo": "None", "latitude": 47.47382317011956, "longitude": -64.92594028051208}, "854818564RR0001": {"name": "SERVICES PALLIATIFS COMMUNAUTAIRES BEAUSEJOUR INC.", "designationCode": "C", "categoryCode": "11", "address": "30 RUE ANGLEHART              SUITE B", "city": "DIEPPE", "province": "NB", "country": "CA", "postalCode": "E1A8H3", "twitter": "None", "instagram": "None", "facebook": "None", "youtube": "None", "website": "None", "summary": "None", "logo": "None", "latitude": 46.100189763835026, "longitude": -64.70442021680392}, "829887942RR0001": {"name": "SERVICES RESIDENTIELS KAEL", "designationCode": "C", "categoryCode": "09", "address": "55, RUE DUPRAS                LOCAL 510", "city": "LASALLE", "province": "QC", "country": "CA", "postalCode": "H8R4A8", "twitter": "None", "instagram": "None", "facebook": "None", "youtube": "None", "website": "None", "summary": "None", "logo": "None", "latitude": 45.428526502914195, "longitude": -73.66278337757535}, "137037057RR0001": {"name": "SERVICES RESIDENTIELS NEPISIGUIT RESIDENTIAL SERVICES INC", "designationCode": "C", "categoryCode": "01", "address": "312-702 RUE PRINCIPALE", "city": "PETIT-ROCHER", "province": "NB", "country": "CA", "postalCode": "E8J1V1", "twitter": "None", "instagram": "None", "facebook": "None", "youtube": "None", "website": "None", "summary": "None", "logo": "None", "latitude": 47.77393212261475, "longitude": -65.71558934337072}, "892936360RR0001": {"name": "SERVICES SPIRITUELS JEUNESSE GRANBY ET REGION INC.", "designationCode": "C", "categoryCode": "49", "address": "470 RUE DU LYS-BLANC", "city": "GRANBY", "province": "QC", "country": "CA", "postalCode": "J2H3B8", "twitter": "None", "instagram": "None", "facebook": "None", "youtube": "None", "website": "None", "summary": "None", "logo": "None", "latitude": 45.397578762132916, "longitude": -72.68869815681802}, "140913641RR0001": {"name": "SERVICES TO SENIORS, SERVING ERICKSON, ONANOLE, AND SANDY LAKE AREAS", "designationCode": "C", "categoryCode": "09", "address": "BOX 97", "city": "ERICKSON", "province": "MB", "country": "CA", "postalCode": "R0J0P0", "twitter": "None", "instagram": "None", "facebook": "None", "youtube": "None", "website": "None", "summary": "None", "logo": "None", "latitude": 50.49852000000004, "longitude": -99.90785999999997}, "119146595RR0001": {"name": "SERVING SENIORS INC.", "designationCode": "C", "categoryCode": "09", "address": "10 CHRYSLER GATE", "city": "STEINBACH", "province": "MB", "country": "CA", "postalCode": "R5G2E6", "twitter": "None", "instagram": "None", "facebook": "None", "youtube": "None", "website": "None", "summary": "None", "logo": "None", "latitude": 49.51315597659375, "longitude": -96.6904306705583}, "802669077RR0001": {"name": "SERVITOR FOUNDATION", "designationCode": "B", "categoryCode": "03", "address": "26 APPLE RIDGE DR", "city": "KITCHENER", "province": "ON", "country": "CA", "postalCode": "N2P2S2", "twitter": "None", "instagram": "None", "facebook": "None", "youtube": "None", "website": "None", "summary": "None", "logo": "None", "latitude": 43.386300786283144, "longitude": -80.43515348540039}, "131927410RR0001": {"name": "SET FREE MINISTRIES SOCIETY", "designationCode": "C", "categoryCode": "49", "address": "PO BOX 262                    3970 GLADWIN RD", "city": "ABBOTSFORD", "province": "BC", "country": "CA", "postalCode": "V2T6Z6", "twitter": "None", "instagram": "None", "facebook": "None", "youtube": "None", "website": "None", "summary": "None", "logo": "None", "latitude": 49.074075953372954, "longitude": -122.31614916204083}, "891163545RR0001": {"name": "SETON CANTATA CHOIR SOCIETY", "designationCode": "C", "categoryCode": "22", "address": "2380 CLIFTON ST", "city": "HALIFAX", "province": "NS", "country": "CA", "postalCode": "B3K4V1", "twitter": "None", "instagram": "None", "facebook": "None", "youtube": "None", "website": "None", "summary": "None", "logo": "None", "latitude": 44.65210099777829, "longitude": -63.59423150542435}, "140591702RR0001": {"name": "SETON VALLEY VOLUNTEER FIREFIGHTERS SOCIETY", "designationCode": "C", "categoryCode": "59", "address": "PO BOX 2042", "city": "SETON PORTAGE", "province": "BC", "country": "CA", "postalCode": "V0N3B0", "twitter": "None", "instagram": "None", "facebook": "None", "youtube": "None", "website": "None", "summary": "None", "logo": "None", "latitude": 50.730115109092175, "longitude": -122.24046774274473}, "119146645RR0001": {"name": "SETON VILLA SOCIETY", "designationCode": "C", "categoryCode": "03", "address": "3755 MCGILL STREET", "city": "BURNABY", "province": "BC", "country": "CA", "postalCode": "V5C1M2", "twitter": "None", "instagram": "None", "facebook": "None", "youtube": "None", "website": "None", "summary": "None", "logo": "None", "latitude": 49.28837446826104, "longitude": -123.02165177699231}, "132638719RR0001": {"name": "SETTLEMENT ASSISTANCE AND FAMILY SUPPORT SERVICES (SAFSS)", "designationCode": "C", "categoryCode": "29", "address": "1200 MARKHAM ROAD, SUITE 214", "city": "SCARBOROUGH", "province": "ON", "country": "CA", "postalCode": "M1H3C3", "twitter": "None", "instagram": "None", "facebook": "None", "youtube": "None", "website": "None", "summary": "None", "logo": "None", "latitude": 43.77665010629583, "longitude": -79.23186416307908}, "130724941RR0001": {"name": "SEVA CANADA SOCIETY", "designationCode": "C", "categoryCode": "11", "address": "100-2000 WEST 12TH AVENUE", "city": "VANCOUVER", "province": "BC", "country": "CA", "postalCode": "V6J2G2", "twitter": "None", "instagram": "None", "facebook": "None", "youtube": "None", "website": "None", "summary": "None", "logo": "None", "latitude": 49.26094449567217, "longitude": -123.1510214701656}, "709607691RR0001": {"name": "SEVE Formation Canada", "designationCode": "C", "categoryCode": "21", "address": "4847 CH DU LAC-THEODORE", "city": "VAL-MORIN", "province": "QC", "country": "CA", "postalCode": "J0T2R0", "twitter": "None", "instagram": "None", "facebook": "None", "youtube": "None", "website": "None", "summary": "None", "logo": "None", "latitude": 45.95654744662095, "longitude": -74.26675590911184}, "848047726RR0001": {"name": "SEVEN ARTS STUDY CENTRE", "designationCode": "C", "categoryCode": "29", "address": "283 DANFORTH AVENUE           SUITE 119", "city": "TORONTO", "province": "ON", "country": "CA", "postalCode": "M4K1N2", "twitter": "None", "instagram": "None", "facebook": "None", "youtube": "None", "website": "None", "summary": "None", "logo": "None", "latitude": 43.677047725489174, "longitude": -79.35440498528482}, "119146678RR0001": {"name": "SEVEN COMMUNITIES RECREATION AND VOLUNTEER FIRE DEPARTMENT", "designationCode": "C", "categoryCode": "59", "address": "5244 ROUTE 344", "city": "GUYSBOROUGH COUNTY", "province": "NS", "country": "CA", "postalCode": "B0E2G0", "twitter": "None", "instagram": "None", "facebook": "None", "youtube": "None", "website": "None", "summary": "None", "logo": "None", "latitude": 45.50859859768547, "longitude": -61.249679106571406}, "869592162RR0001": {"name": "SEVEN DOVES MINISTRY", "designationCode": "C", "categoryCode": "39", "address": "2901 BAYVIEW AVENUE           PO BOX 91032", "city": "TORONTO", "province": "ON", "country": "CA", "postalCode": "M2K2Y6", "twitter": "None", "instagram": "None", "facebook": "None", "youtube": "None", "website": "None", "summary": "None", "logo": "None", "latitude": 43.76919245850885, "longitude": -79.38857782956332}, "107871675RR0001": {"name": "SEVEN GENERATIONS EDUCATION INSTITUTE", "designationCode": "C", "categoryCode": "20", "address": "P.O. BOX 297                  1455 IDYLWILD DRIVE", "city": "FORT FRANCES", "province": "ON", "country": "CA", "postalCode": "P9A3M6", "twitter": "None", "instagram": "None", "facebook": "None", "youtube": "None", "website": "None", "summary": "None", "logo": "None", "latitude": 48.62775943137259, "longitude": -93.36066202535413}, "107971400RR0001": {"name": "SEVEN OAKS CHILD DAY CARE CENTRE, INC.", "designationCode": "C", "categoryCode": "01", "address": "2300 MCPHILLIPS ST", "city": "WINNIPEG", "province": "MB", "country": "CA", "postalCode": "R2V3M3", "twitter": "None", "instagram": "None", "facebook": "None", "youtube": "None", "website": "None", "summary": "None", "logo": "None", "latitude": 49.95458104895735, "longitude": -97.14679199700785}, "868281015RR0001": {"name": "SEVEN OAKS EDUCATION FOUNDATION INC.", "designationCode": "A", "categoryCode": "23", "address": "830 POWERS STREET", "city": "WINNIPEG", "province": "MB", "country": "CA", "postalCode": "R2V4E7", "twitter": "None", "instagram": "None", "facebook": "None", "youtube": "None", "website": "None", "summary": "None", "logo": "None", "latitude": 49.93703003525874, "longitude": -97.12723044993916}, "107971426RR0001": {"name": "SEVEN OAKS GENERAL HOSPITAL", "designationCode": "C", "categoryCode": "10", "address": "2300 MCPHILLIPS ST", "city": "WINNIPEG", "province": "MB", "country": "CA", "postalCode": "R2V3M3", "twitter": "None", "instagram": "None", "facebook": "None", "youtube": "None", "website": "None", "summary": "None", "logo": "None", "latitude": 49.95458104895735, "longitude": -97.14679199700785}, "890836844RR0001": {"name": "SEVEN OAKS GENERAL HOSPITAL FOUNDATION INC", "designationCode": "A", "categoryCode": "13", "address": "2300 MCPHILLIPS ST", "city": "WINNIPEG", "province": "MB", "country": "CA", "postalCode": "R2V3M3", "twitter": "None", "instagram": "None", "facebook": "None", "youtube": "None", "website": "None", "summary": "None", "logo": "None", "latitude": 49.95458104895735, "longitude": -97.14679199700785}, "119146710RR0001": {"name": "SEVEN PERSONS AND DISTRICT COMMUNITY ASSOCIATION", "designationCode": "C", "categoryCode": "56", "address": "BOX 63", "city": "SEVEN PERSONS", "province": "AB", "country": "CA", "postalCode": "T0K1Z0", "twitter": "None", "instagram": "None", "facebook": "None", "youtube": "None", "website": "None", "summary": "None", "logo": "None", "latitude": 49.87647002943041, "longitude": -110.9065999483526}, "107971475RR0001": {"name": "SEVEN PERSONS COMMUNITY CHURCH EVANGELICAL FREE CHURCH OF CANADA", "designationCode": "C", "categoryCode": "39", "address": "BOX 129", "city": "SEVEN PERSONS", "province": "AB", "country": "CA", "postalCode": "T0K1Z0", "twitter": "None", "instagram": "None", "facebook": "None", "youtube": "None", "website": "None", "summary": "None", "logo": "None", "latitude": 49.87647002943041, "longitude": -110.9065999483526}, "894318625RR0001": {"name": "SEVEN REGIONS HEALTH FOUNDATION INC.", "designationCode": "C", "categoryCode": "11", "address": "PO BOX 1000", "city": "GLADSTONE", "province": "MB", "country": "CA", "postalCode": "R0J0T0", "twitter": "None", "instagram": "None", "facebook": "None", "youtube": "None", "website": "None", "summary": "None", "logo": "None", "latitude": 50.22542000000004, "longitude": -98.95074999999997}, "871072203RR0001": {"name": "SEVEN REGIONS PALLIATIVE CARE", "designationCode": "C", "categoryCode": "11", "address": "BOX 711", "city": "GLADSTONE", "province": "MB", "country": "CA", "postalCode": "R0J0T0", "twitter": "None", "instagram": "None", "facebook": "None", "youtube": "None", "website": "None", "summary": "None", "logo": "None", "latitude": 50.22542000000004, "longitude": -98.95074999999997}, "129536389RR0001": {"name": "SEVENOAKS ALLIANCE CHURCH", "designationCode": "C", "categoryCode": "39", "address": "2575 GLADWIN ROAD", "city": "ABBOTSFORD", "province": "BC", "country": "CA", "postalCode": "V2T3N8", "twitter": "None", "instagram": "None", "facebook": "None", "youtube": "None", "website": "None", "summary": "None", "logo": "None", "latitude": 49.04880571357262, "longitude": -122.31529155707172}, "898758107RR0001": {"name": "SEVENTEEN VOYCES", "designationCode": "C", "categoryCode": "22", "address": "1782 DEVLIN CRES", "city": "OTTAWA", "province": "ON", "country": "CA", "postalCode": "K1H5T6", "twitter": "None", "instagram": "None", "facebook": "None", "youtube": "None", "website": "None", "summary": "None", "logo": "None", "latitude": 45.38959746768411, "longitude": -75.64139302706442}, "893542894RR0001": {"name": "SEVENTH DAY ADVENTIST REFORM MOVEMENT WEST CANADIAN FIELD CONFERENCE", "designationCode": "C", "categoryCode": "41", "address": "24 WARDLAW CRES", "city": "ETOBICOKE", "province": "ON", "country": "CA", "postalCode": "M9V1L2", "twitter": "None", "instagram": "None", "facebook": "None", "youtube": "None", "website": "None", "summary": "None", "logo": "None", "latitude": 43.73935310964271, "longitude": -79.564659227538}, "891917577RR0001": {"name": "SEVENTH TOWN HISTORICAL SOCIETY", "designationCode": "C", "categoryCode": "52", "address": "528 COUNTY RD 19", "city": "AMELIASBURG", "province": "ON", "country": "CA", "postalCode": "K0K1A0", "twitter": "None", "instagram": "None", "facebook": "None", "youtube": "None", "website": "None", "summary": "None", "logo": "None", "latitude": 44.0587611943742, "longitude": -77.4369660616148}, "119030666RR0015": {"name": "SEVENTH-DAY ADVENTIST CHRISTIAN SCHOOL", "designationCode": "C", "categoryCode": "20", "address": "1004 VICTORIA AVE", "city": "SASKATOON", "province": "SK", "country": "CA", "postalCode": "S7N0Z8", "twitter": "None", "instagram": "None", "facebook": "None", "youtube": "None", "website": "None", "summary": "None", "logo": "None", "latitude": 52.115409, "longitude": -106.66240826773014}, "891464497RR0004": {"name": "SEVENTH-DAY ADVENTIST CHURCH", "designationCode": "C", "categoryCode": "41", "address": "PO BOX 520", "city": "MARYSTOWN", "province": "NL", "country": "CA", "postalCode": "A0E2M0", "twitter": "None", "instagram": "None", "facebook": "None", "youtube": "None", "website": "None", "summary": "None", "logo": "None", "latitude": 47.17724000000004, "longitude": -55.15096999999997}, "891464497RR0005": {"name": "SEVENTH-DAY ADVENTIST CHURCH", "designationCode": "C", "categoryCode": "41", "address": "BOX 10", "city": "LETHBRIDGE", "province": "NL", "country": "CA", "postalCode": "A0C1V0", "twitter": "None", "instagram": "None", "facebook": "None", "youtube": "None", "website": "None", "summary": "None", "logo": "None", "latitude": 48.369740000000036, "longitude": -53.85920999999996}, "891464497RR0007": {"name": "SEVENTH-DAY ADVENTIST CHURCH", "designationCode": "C", "categoryCode": "41", "address": "71 PHILLIP DRIVE", "city": "CORNER BROOK", "province": "NL", "country": "CA", "postalCode": "A2H6B2", "twitter": "None", "instagram": "None", "facebook": "None", "youtube": "None", "website": "None", "summary": "None", "logo": "None", "latitude": 48.93624893697185, "longitude": -57.94835551210413}, "118818491RR0001": {"name": "SEVENTH-DAY ADVENTIST CHURCH (BRITISH COLUMBIA CONFERENCE)", "designationCode": "C", "categoryCode": "41", "address": "PO 1000", "city": "ABBOTSFORD", "province": "BC", "country": "CA", "postalCode": "V2S4P5", "twitter": "None", "instagram": "None", "facebook": "None", "youtube": "None", "website": "None", "summary": "None", "logo": "None", "latitude": 49.03851300000005, "longitude": -122.29441549999993}, "891464497RR0006": {"name": "SEVENTH-DAY ADVENTIST CHURCH BAY ROBERTS", "designationCode": "C", "categoryCode": "41", "address": "PO BOX 930", "city": "BAY ROBERTS", "province": "NL", "country": "CA", "postalCode": "A0A1G0", "twitter": "None", "instagram": "None", "facebook": "None", "youtube": "None", "website": "None", "summary": "None", "logo": "None", "latitude": 47.58335663598053, "longitude": -53.28220018500299}, "891464497RR0008": {"name": "SEVENTH-DAY ADVENTIST CHURCH BOTWOOD", "designationCode": "C", "categoryCode": "41", "address": "P.O. BOX 670                  TREASURER", "city": "BOTWOOD", "province": "NL", "country": "CA", "postalCode": "A0H1E0", "twitter": "None", "instagram": "None", "facebook": "None", "youtube": "None", "website": "None", "summary": "None", "logo": "None", "latitude": 49.12576868009626, "longitude": -55.37020900602628}, "891464497RR0001": {"name": "SEVENTH-DAY ADVENTIST CHURCH CONCEPTION BAY SOUTH", "designationCode": "C", "categoryCode": "41", "address": "1079 CONCEPTION BAY HWY", "city": "CONCEPTION BAY SOUTH", "province": "NL", "country": "CA", "postalCode": "A1X4E5", "twitter": "None", "instagram": "None", "facebook": "None", "youtube": "None", "website": "None", "summary": "None", "logo": "None", "latitude": 47.485133308904196, "longitude": -53.042293849702844}, "132202755RR0001": {"name": "SEVENTH-DAY ADVENTIST CHURCH IN CANADA", "designationCode": "C", "categoryCode": "41", "address": "1148 KING STREET EAST", "city": "OSHAWA", "province": "ON", "country": "CA", "postalCode": "L1H1H8", "twitter": "None", "instagram": "None", "facebook": "None", "youtube": "None", "website": "None", "summary": "None", "logo": "None", "latitude": 43.90577745830635, "longitude": -78.8216426759766}, "891464497RR0002": {"name": "SEVENTH-DAY ADVENTIST CHURCH IN NEWFOUNDLAND AND LABRADOR", "designationCode": "C", "categoryCode": "41", "address": "1041 TOPSAIL ROAD", "city": "MOUNT PEARL", "province": "NL", "country": "CA", "postalCode": "A1N5E9", "twitter": "None", "instagram": "None", "facebook": "None", "youtube": "None", "website": "None", "summary": "None", "logo": "None", "latitude": 47.52531820488969, "longitude": -52.81066823042124}, "892230640RR0001": {"name": "SEVENTH-DAY ADVENTIST HEALTH CORPORATION", "designationCode": "A", "categoryCode": "43", "address": "1004 VICTORIA AVE", "city": "SASKATOON", "province": "SK", "country": "CA", "postalCode": "S7N0Z8", "twitter": "None", "instagram": "None", "facebook": "None", "youtube": "None", "website": "None", "summary": "None", "logo": "None", "latitude": 52.115409, "longitude": -106.66240826773014}, "107971558RR0001": {"name": "SEVENTH-DAY ADVENTIST REFORM MOVEMENT EAST CANADIAN FIELD CONFERENCE", "designationCode": "C", "categoryCode": "39", "address": "24 WARDLAW CRES", "city": "ETOBICOKE", "province": "ON", "country": "CA", "postalCode": "M9V1L2", "twitter": "None", "instagram": "None", "facebook": "None", "youtube": "None", "website": "None", "summary": "None", "logo": "None", "latitude": 43.73935310964271, "longitude": -79.564659227538}, "119046522RR0001": {"name": "SEVERN BRIDGE AGRICULTURAL SOCIETY", "designationCode": "C", "categoryCode": "56", "address": "1016 BAGLEY RD", "city": "SEVERN BRIDGE", "province": "ON", "country": "CA", "postalCode": "P0E1N0", "twitter": "None", "instagram": "None", "facebook": "None", "youtube": "None", "website": "None", "summary": "None", "logo": "None", "latitude": 44.77498157227785, "longitude": -79.38555561379765}, "898367925RR0001": {"name": "SEVERN BRIDGE CAMP", "designationCode": "C", "categoryCode": "39", "address": "P.O. BOX 27008", "city": "BARRIE", "province": "ON", "country": "CA", "postalCode": "L4M6K4", "twitter": "None", "instagram": "None", "facebook": "None", "youtube": "None", "website": "None", "summary": "None", "logo": "None", "latitude": 44.38929300000005, "longitude": -79.68626449999994}, "888839446RR0001": {"name": "SEVERN BRIDGE CHRISTIAN ASSEMBLY", "designationCode": "C", "categoryCode": "39", "address": "1128 SOUTHWOOD RD", "city": "SEVERN BRIDGE", "province": "ON", "country": "CA", "postalCode": "P0E1N0", "twitter": "None", "instagram": "None", "facebook": "None", "youtube": "None", "website": "None", "summary": "None", "logo": "None", "latitude": 44.7823974657222, "longitude": -79.34707732486011}, "888655461RR0001": {"name": "SEVERN BRIDGE COMMUNITY HALL", "designationCode": "C", "categoryCode": "56", "address": "3250 GREEN RIVER DR           RR#1 BOX 6", "city": "WASHAGO", "province": "ON", "country": "CA", "postalCode": "L0K2B0", "twitter": "None", "instagram": "None", "facebook": "None", "youtube": "None", "website": "None", "summary": "None", "logo": "None", "latitude": 44.75917705415753, "longitude": -79.32728642209533}, "119146892RR0001": {"name": "SEVERN FALLS CHAPEL", "designationCode": "C", "categoryCode": "39", "address": "5687 UPPER BIG CHUTE RD", "city": "COLDWATER", "province": "ON", "country": "CA", "postalCode": "L0K1E0", "twitter": "None", "instagram": "None", "facebook": "None", "youtube": "None", "website": "None", "summary": "None", "logo": "None", "latitude": 44.87409603844234, "longitude": -79.60351615030781}, "878039502RR0001": {"name": "SEVERN FALLS CHAPEL SENIORS CHRISTIAN HOUSING", "designationCode": "C", "categoryCode": "01", "address": "5719 UPPER BIG CHUTE RD.", "city": "COLDWATER", "province": "ON", "country": "CA", "postalCode": "L0K1E0", "twitter": "None", "instagram": "None", "facebook": "None", "youtube": "None", "website": "None", "summary": "None", "logo": "None", "latitude": 44.875186939729964, "longitude": -79.60414618463805}, "885411249RR0001": {"name": "SEWA CANADA INTERNATIONAL AID INC.", "designationCode": "C", "categoryCode": "09", "address": "P.O. BOX 76621                1661 DENISON ST", "city": "MARKHAM", "province": "ON", "country": "CA", "postalCode": "L3R0N5", "twitter": "None", "instagram": "None", "facebook": "None", "youtube": "None", "website": "None", "summary": "None", "logo": "None", "latitude": 43.834708597973886, "longitude": -79.30615967395362}, "832539233RR0001": {"name": "SEWING SEEDS CANADA", "designationCode": "C", "categoryCode": "21", "address": "101 EVERGREEN PLAZA SW", "city": "CALGARY", "province": "AB", "country": "CA", "postalCode": "T2Y5B2", "twitter": "None", "instagram": "None", "facebook": "None", "youtube": "None", "website": "None", "summary": "None", "logo": "None", "latitude": 50.92076549235396, "longitude": -114.10070223411618}, "119146900RR0001": {"name": "SEX INFORMATION AND EDUCATION COUNCIL OF CANADA CONSEIL DU CANADA D'INFORMATION ET EDUCATION SEXUELLES", "designationCode": "C", "categoryCode": "21", "address": "400 - 235 DANFORTH AVE", "city": "TORONTO", "province": "ON", "country": "CA", "postalCode": "M4K1N2", "twitter": "None", "instagram": "None", "facebook": "None", "youtube": "None", "website": "None", "summary": "None", "logo": "None", "latitude": 43.67683684927016, "longitude": -79.35545582194592}, "890712342RR0001": {"name": "SEXSMITH & DISTRICT SENIORS ASSOCIATION", "designationCode": "C", "categoryCode": "56", "address": "P.O. BOX 282", "city": "SEXSMITH", "province": "AB", "country": "CA", "postalCode": "T0H3C0", "twitter": "None", "instagram": "None", "facebook": "None", "youtube": "None", "website": "None", "summary": "None", "logo": "None", "latitude": 55.348520000000065, "longitude": -118.78230999999994}, "119452662RR0001": {"name": "SEXUAL ASSAULT & VIOLENCE INTERVENTION SERVICES OF HALTON", "designationCode": "C", "categoryCode": "09", "address": "1515 REBECCA STREET, SUITE 227", "city": "OAKVILLE", "province": "ON", "country": "CA", "postalCode": "L6L5G8", "twitter": "None", "instagram": "None", "facebook": "None", "youtube": "None", "website": "None", "summary": "None", "logo": "None", "latitude": 43.41156868279484, "longitude": -79.70521925601074}, "131455495RR0001": {"name": "SEXUAL ASSAULT CENTRE (HAMILTON AND AREA)", "designationCode": "C", "categoryCode": "09", "address": "75 MACNAB ST. S.              3RD FL.", "city": "HAMILTON", "province": "ON", "country": "CA", "postalCode": "L8P3C1", "twitter": "None", "instagram": "None", "facebook": "None", "youtube": "None", "website": "None", "summary": "None", "logo": "None", "latitude": 43.25444953926945, "longitude": -79.87173986398534}, "133339069RR0001": {"name": "SEXUAL ASSAULT CENTRE FOR QUINTE AND DISTRICT", "designationCode": "C", "categoryCode": "09", "address": "PO BOX 22010                  RPO BELLEVILLE", "city": "BELLEVILLE", "province": "ON", "country": "CA", "postalCode": "K8N5V7", "twitter": "None", "instagram": "None", "facebook": "None", "youtube": "None", "website": "None", "summary": "None", "logo": "None", "latitude": 44.16104400000006, "longitude": -77.38183249999993}, "119146959RR0001": {"name": "SEXUAL ASSAULT CENTRE KINGSTON INC.", "designationCode": "C", "categoryCode": "09", "address": "1 - 400 ELLIOTT AVE", "city": "KINGSTON", "province": "ON", "country": "CA", "postalCode": "K7K6M9", "twitter": "None", "instagram": "None", "facebook": "None", "youtube": "None", "website": "None", "summary": "None", "logo": "None", "latitude": 44.25628254227055, "longitude": -76.49807858950318}, "126040005RR0001": {"name": "SEXUAL ASSAULT CENTRE LONDON", "designationCode": "C", "categoryCode": "09", "address": "255 HORTON STREET, 3RD FLOOR", "city": "LONDON", "province": "ON", "country": "CA", "postalCode": "N6B1L1", "twitter": "None", "instagram": "None", "facebook": "None", "youtube": "None", "website": "None", "summary": "None", "logo": "None", "latitude": 42.97989302743981, "longitude": -81.24370692587583}, "140574856RR0001": {"name": "SEXUAL ASSAULT CENTRE OF BRANT", "designationCode": "C", "categoryCode": "09", "address": "211 BRANT AVENUE", "city": "BRANTFORD", "province": "ON", "country": "CA", "postalCode": "N3T3J1", "twitter": "None", "instagram": "None", "facebook": "None", "youtube": "None", "website": "None", "summary": "None", "logo": "None", "latitude": 43.14650604247212, "longitude": -80.27588726850955}, "107971772RR0001": {"name": "SEXUAL ASSAULT CENTRE OF EDMONTON", "designationCode": "C", "categoryCode": "09", "address": "205 - 14964 121A AVE NW", "city": "EDMONTON", "province": "AB", "country": "CA", "postalCode": "T5V1A3", "twitter": "None", "instagram": "None", "facebook": "None", "youtube": "None", "website": "None", "summary": "None", "logo": "None", "latitude": 53.573577461047655, "longitude": -113.5790505}, "104809371RR0001": {"name": "SEXUAL ASSAULT CRISIS CENTRE OF ESSEX COUNTY INC.", "designationCode": "C", "categoryCode": "09", "address": "1770 LANGLOIS AVE", "city": "WINDSOR", "province": "ON", "country": "CA", "postalCode": "N8X4M5", "twitter": "None", "instagram": "None", "facebook": "None", "youtube": "None", "website": "None", "summary": "None", "logo": "None", "latitude": 42.30005804330884, "longitude": -83.01023548164949}, "107971806RR0001": {"name": "SEXUAL ASSAULT SUPPORT CENTRE OF OTTAWA", "designationCode": "C", "categoryCode": "09", "address": "BOX 4441 STATION E", "city": "OTTAWA", "province": "ON", "country": "CA", "postalCode": "K1S5B4", "twitter": "None", "instagram": "None", "facebook": "None", "youtube": "None", "website": "None", "summary": "None", "logo": "None", "latitude": 45.42177300000006, "longitude": -75.69115999999994}, "132274093RR0001": {"name": "SEXUAL ASSAULT SUPPORT CENTRE OF WATERLOO REGION", "designationCode": "C", "categoryCode": "09", "address": "300 - 151 FREDERICK ST", "city": "KITCHENER", "province": "ON", "country": "CA", "postalCode": "N2H2M2", "twitter": "None", "instagram": "None", "facebook": "None", "youtube": "None", "website": "None", "summary": "None", "logo": "None", "latitude": 43.452378420191685, "longitude": -80.48419868039134}, "135849065RR0001": {"name": "SEXUAL ASSAULT SUPPORT SERVICES FOR WOMEN, STORMONT, DUNDAS, GLENGARRY & AKWESASNE INC.", "designationCode": "C", "categoryCode": "09", "address": "P.O. BOX 1192", "city": "CORNWALL", "province": "ON", "country": "CA", "postalCode": "K6H5V3", "twitter": "None", "instagram": "None", "facebook": "None", "youtube": "None", "website": "None", "summary": "None", "logo": "None", "latitude": 45.028419000000056, "longitude": -74.73569299999993}, "107955015RR0001": {"name": "SEXUAL ASSAULT SURVIVORS' CENTRE SARNIA-LAMBTON", "designationCode": "C", "categoryCode": "09", "address": "11 - 420 EAST ST N", "city": "SARNIA", "province": "ON", "country": "CA", "postalCode": "N7T6Y5", "twitter": "None", "instagram": "None", "facebook": "None", "youtube": "None", "website": "None", "summary": "None", "logo": "None", "latitude": 42.98260143694946, "longitude": -82.38619883831706}, "140739616RR0001": {"name": "SEXUAL ASSAULT/RAPE CRISIS CENTRE OF PEEL", "designationCode": "C", "categoryCode": "09", "address": "305 - 10 GILLINGHAM DR", "city": "BRAMPTON", "province": "ON", "country": "CA", "postalCode": "L6X5A5", "twitter": "None", "instagram": "None", "facebook": "None", "youtube": "None", "website": "None", "summary": "None", "logo": "None", "latitude": 43.702943727768215, "longitude": -79.7843275940039}, "862494846RR0001": {"name": "SEXUAL HEALTH CENTER LUNENBURG COUNTY", "designationCode": "C", "categoryCode": "09", "address": "48 EMPIRE ST", "city": "BRIDGEWATER", "province": "NS", "country": "CA", "postalCode": "B4V2L4", "twitter": "None", "instagram": "None", "facebook": "None", "youtube": "None", "website": "None", "summary": "None", "logo": "None", "latitude": 44.378650057187286, "longitude": -64.5235963364013}, "130973126RR0001": {"name": "SEXUAL HEALTH CENTRE FOR CUMBERLAND COUNTY ASSOCIATION", "designationCode": "C", "categoryCode": "09", "address": "PO BOX 661  STN MAIN", "city": "AMHERST", "province": "NS", "country": "CA", "postalCode": "B4H4B8", "twitter": "None", "instagram": "None", "facebook": "None", "youtube": "None", "website": "None", "summary": "None", "logo": "None", "latitude": 45.83198400000006, "longitude": -64.20979249999993}, "107848434RR0001": {"name": "SEXUAL HEALTH CENTRE SASKATOON INC.", "designationCode": "C", "categoryCode": "09", "address": "LOWER LEVEL 210 2ND AVE NORTH", "city": "SASKATOON", "province": "SK", "country": "CA", "postalCode": "S7K2B5", "twitter": "None", "instagram": "None", "facebook": "None", "youtube": "None", "website": "None", "summary": "None", "logo": "None", "latitude": 52.130494285076395, "longitude": -106.66291071926872}, "131509275RR0001": {"name": "SEXUAL HEALTH NETWORK OF QUEBEC INC / RESEAU DE LA SANTE SEXUAL DU QUEBEC INC", "designationCode": "C", "categoryCode": "11", "address": "6856 CROIS ASHKELON", "city": "COTE SAINT-LUC", "province": "QC", "country": "CA", "postalCode": "H4W3E4", "twitter": "None", "instagram": "None", "facebook": "None", "youtube": "None", "website": "None", "summary": "None", "logo": "None", "latitude": 45.47593646044208, "longitude": -73.67079593891758}, "107848343RR0001": {"name": "SEXUALITY EDUCATION RESOURCE CENTRE MANITOBA, INC.", "designationCode": "C", "categoryCode": "11", "address": "SUITE 200                     226 OSBORNE STREET NORTH", "city": "WINNIPEG", "province": "MB", "country": "CA", "postalCode": "R3C1V4", "twitter": "None", "instagram": "None", "facebook": "None", "youtube": "None", "website": "None", "summary": "None", "logo": "None", "latitude": 49.88689065889551, "longitude": -97.15001555900496}, "119146975RR0001": {"name": "SEYCOVE COMMUNITY SCHOOL ASSOCIATION", "designationCode": "C", "categoryCode": "59", "address": "1204 CALEDONIA AVE            TREASURER", "city": "NORTH VANCOUVER", "province": "BC", "country": "CA", "postalCode": "V7G2A6", "twitter": "None", "instagram": "None", "facebook": "None", "youtube": "None", "website": "None", "summary": "None", "logo": "None", "latitude": 49.31818846324071, "longitude": -122.95118997509994}, "129143350RR0001": {"name": "SEYMOUR ART GALLERY SOCIETY", "designationCode": "C", "categoryCode": "22", "address": "4360 GALLANT AVE", "city": "NORTH VANCOUVER", "province": "BC", "country": "CA", "postalCode": "V7G1L2", "twitter": "None", "instagram": "None", "facebook": "None", "youtube": "None", "website": "None", "summary": "None", "logo": "None", "latitude": 49.32680347489747, "longitude": -122.95016988481737}, "888736709RR0001": {"name": "SEYMOUR BAY FOUNDATION", "designationCode": "A", "categoryCode": "03", "address": "1250-1500 GEORGIA ST W BOX 62", "city": "VANCOUVER", "province": "BC", "country": "CA", "postalCode": "V6G2Z6", "twitter": "None", "instagram": "None", "facebook": "None", "youtube": "None", "website": "None", "summary": "None", "logo": "None", "latitude": 49.290187500000016, "longitude": -123.130035}, "133412056RR0001": {"name": "SEYMOUR HEIGHTS PLAY-BASED PROGRAMS ASSOCIATION", "designationCode": "C", "categoryCode": "20", "address": "800 LYTTON STREET", "city": "NORTH VANCOUVER", "province": "BC", "country": "CA", "postalCode": "V7H2T1", "twitter": "None", "instagram": "None", "facebook": "None", "youtube": "None", "website": "None", "summary": "None", "logo": "None", "latitude": 49.31359609471635, "longitude": -123.00001682152379}, "119146991RR0001": {"name": "SEYMOUR MEMORIAL CEMETERY COMMITTEE", "designationCode": "C", "categoryCode": "59", "address": "109 KINGSLEY ROAD", "city": "ESTEY'S BRIDGE", "province": "NB", "country": "CA", "postalCode": "E3A6B9", "twitter": "None", "instagram": "None", "facebook": "None", "youtube": "None", "website": "None", "summary": "None", "logo": "None", "latitude": 45.982985226459114, "longitude": -66.66047384595268}, "119147007RR0001": {"name": "SEYMOUR PASTORAL CHARGE", "designationCode": "C", "categoryCode": "44", "address": "107 BECKETT RD, RR#3", "city": "STIRLING", "province": "ON", "country": "CA", "postalCode": "K0K3E0", "twitter": "None", "instagram": "None", "facebook": "None", "youtube": "None", "website": "None", "summary": "None", "logo": "None", "latitude": 44.36001449117147, "longitude": -77.64831525832187}, "833670250RR0001": {"name": "SF. Cuvioasa Parascheva Romanian Orthodox Church", "designationCode": "C", "categoryCode": "39", "address": "250 DAVIS DR #710", "city": "NEWMARKET", "province": "ON", "country": "CA", "postalCode": "L3Y7T7", "twitter": "None", "instagram": "None", "facebook": "None", "youtube": "None", "website": "None", "summary": "None", "logo": "None", "latitude": 44.05734287696978, "longitude": -79.46904438395198}, "107971988RR0001": {"name": "SFU CHILDCARE SOCIETY", "designationCode": "C", "categoryCode": "01", "address": "8888 UNIVERSITY DRIVE", "city": "BURNABY", "province": "BC", "country": "CA", "postalCode": "V5A1S6", "twitter": "None", "instagram": "None", "facebook": "None", "youtube": "None", "website": "None", "summary": "None", "logo": "None", "latitude": 49.28072896582346, "longitude": -122.90935295443904}, "873376313RR0001": {"name": "SHAANTI INTERNATIONAL MUSEUM OF COSTUMES AND DOLLS", "designationCode": "C", "categoryCode": "50", "address": "3360 FOREST GLADE DRIVE", "city": "WINDSOR", "province": "ON", "country": "CA", "postalCode": "N8R1X3", "twitter": "None", "instagram": "None", "facebook": "None", "youtube": "None", "website": "None", "summary": "None", "logo": "None", "latitude": 42.30128593308919, "longitude": -82.91773729349651}, "106967979RR0001": {"name": "SHAAR HASHOMAYIM CONGREGATION OF SUDBURY", "designationCode": "C", "categoryCode": "42", "address": "1374 ARLINGTON BLVD", "city": "SUDBURY", "province": "ON", "country": "CA", "postalCode": "P3E6H8", "twitter": "None", "instagram": "None", "facebook": "None", "youtube": "None", "website": "None", "summary": "None", "logo": "None", "latitude": 46.46619888481737, "longitude": -80.9579511797571}, "107972333RR0001": {"name": "SHAAR SHALOM CONGREGATION,", "designationCode": "C", "categoryCode": "42", "address": "1981 OXFORD STREET", "city": "HALIFAX", "province": "NS", "country": "CA", "postalCode": "B3H4A4", "twitter": "None", "instagram": "None", "facebook": "None", "youtube": "None", "website": "None", "summary": "None", "logo": "None", "latitude": 44.64408229032254, "longitude": -63.60004232927486}, "130353295RR0001": {"name": "SHAAR SHALOM SYNAGOGUE", "designationCode": "C", "categoryCode": "42", "address": "203 - 8220 BAYVIEW AVE", "city": "THORNHILL", "province": "ON", "country": "CA", "postalCode": "L3T2S2", "twitter": "None", "instagram": "None", "facebook": "None", "youtube": "None", "website": "None", "summary": "None", "logo": "None", "latitude": 43.832506202319905, "longitude": -79.40461609224354}, "107972291RR0001": {"name": "SHAARE ZEDEK CONGREGATION", "designationCode": "C", "categoryCode": "42", "address": "5305 ROSEDALE AVENUE", "city": "MONTREAL", "province": "QC", "country": "CA", "postalCode": "H4V2H7", "twitter": "None", "instagram": "None", "facebook": "None", "youtube": "None", "website": "None", "summary": "None", "logo": "None", "latitude": 45.46679257452821, "longitude": -73.64855032125342}, "890091481RR0001": {"name": "SHAARE ZEDEK SYNAGOGUE FOUNDATION", "designationCode": "A", "categoryCode": "45", "address": "5305 ROSEDALE", "city": "MONTREAL", "province": "QC", "country": "CA", "postalCode": "H4V2H7", "twitter": "None", "instagram": "None", "facebook": "None", "youtube": "None", "website": "None", "summary": "None", "logo": "None", "latitude": 45.46679257452821, "longitude": -73.64855032125342}, "107972309RR0001": {"name": "SHAARE ZION CONGREGATION", "designationCode": "C", "categoryCode": "42", "address": "5575 CH DE LA COTE-SAINT-LUC", "city": "MONTREAL", "province": "QC", "country": "CA", "postalCode": "H3X2C9", "twitter": "None", "instagram": "None", "facebook": "None", "youtube": "None", "website": "None", "summary": "None", "logo": "None", "latitude": 45.478539300622955, "longitude": -73.62844588080665}, "119147072RR0001": {"name": "SHAAREI SHOMAYIM CONGREGATION", "designationCode": "C", "categoryCode": "42", "address": "470 GLENCAIRN AVE", "city": "TORONTO", "province": "ON", "country": "CA", "postalCode": "M5N1V8", "twitter": "None", "instagram": "None", "facebook": "None", "youtube": "None", "website": "None", "summary": "None", "logo": "None", "latitude": 43.71263615130676, "longitude": -79.42676779130348}, "119147080RR0001": {"name": "SHAAREI TEFILLAH CONGREGATION", "designationCode": "C", "categoryCode": "42", "address": "3600 BATHURST STREET", "city": "TORONTO", "province": "ON", "country": "CA", "postalCode": "M6A2C9", "twitter": "None", "instagram": "None", "facebook": "None", "youtube": "None", "website": "None", "summary": "None", "logo": "None", "latitude": 43.73115823896362, "longitude": -79.43254755444599}, "874579907RR0001": {"name": "SHAAREI ZION COMMUNITY CENTRE", "designationCode": "C", "categoryCode": "56", "address": "19 FRONTENAC AVENUE", "city": "TORONTO", "province": "ON", "country": "CA", "postalCode": "M5N1Z4", "twitter": "None", "instagram": "None", "facebook": "None", "youtube": "None", "website": "None", "summary": "None", "logo": "None", "latitude": 43.71827176934627, "longitude": -79.4220573985516}, "876382508RR0001": {"name": "SHAAREI ZION CONGREGATION", "designationCode": "C", "categoryCode": "42", "address": "1914 - 300 ANTIBES DR", "city": "NORTH YORK", "province": "ON", "country": "CA", "postalCode": "M2R3N8", "twitter": "None", "instagram": "None", "facebook": "None", "youtube": "None", "website": "None", "summary": "None", "logo": "None", "latitude": 43.781865793727654, "longitude": -79.45007841159332}}