{"107951618RR0517": {"name": "THE SALVATION ARMY RIDEAU HEIGHTS CORPS", "designationCode": "C", "categoryCode": "40", "address": "P.O. BOX 1151", "city": "KINGSTON", "province": "ON", "country": "CA", "postalCode": "K7L4Y5", "twitter": "None", "instagram": "None", "facebook": "None", "youtube": "None", "website": "None", "summary": "None", "logo": "None", "latitude": 44.23153200000006, "longitude": -76.47933049999993}, "107951618RR0191": {"name": "THE SALVATION ARMY RIVERVIEW LAKEVIEW MANOR", "designationCode": "C", "categoryCode": "01", "address": "50 SUFFOLK ST", "city": "RIVERVIEW", "province": "NB", "country": "CA", "postalCode": "E1B4K6", "twitter": "None", "instagram": "None", "facebook": "None", "youtube": "None", "website": "None", "summary": "None", "logo": "None", "latitude": 46.063781194983704, "longitude": -64.8116424171489}, "107951618RR0067": {"name": "THE SALVATION ARMY ROBERTS ARM CORPS", "designationCode": "C", "categoryCode": "40", "address": "11 PILLEY'S ISLAND RD         PO BOX 130", "city": "ROBERT'S ARM", "province": "NL", "country": "CA", "postalCode": "A0J1R0", "twitter": "None", "instagram": "None", "facebook": "None", "youtube": "None", "website": "None", "summary": "None", "logo": "None", "latitude": 49.48528319677156, "longitude": -55.81395392307167}, "107951618RR0194": {"name": "THE SALVATION ARMY SACKVILLE CORPS", "designationCode": "C", "categoryCode": "40", "address": "51 METROPOLITAN AVENUE", "city": "LOWER SACKVILLE", "province": "NS", "country": "CA", "postalCode": "B4C3Z6", "twitter": "None", "instagram": "None", "facebook": "None", "youtube": "None", "website": "None", "summary": "None", "logo": "None", "latitude": 44.77753876628786, "longitude": -63.674863777915945}, "107951618RR0379": {"name": "THE SALVATION ARMY SAINT JOHN COMMUNITY CHURCH", "designationCode": "C", "categoryCode": "40", "address": "PO BOX 473", "city": "SAINT JOHN", "province": "NB", "country": "CA", "postalCode": "E2L3Z8", "twitter": "None", "instagram": "None", "facebook": "None", "youtube": "None", "website": "None", "summary": "None", "logo": "None", "latitude": 45.27342600000006, "longitude": -66.06407149999993}, "107951618RR0360": {"name": "THE SALVATION ARMY SARNIA CORPS", "designationCode": "C", "categoryCode": "40", "address": "970 CONFEDERATION STREET", "city": "SARNIA", "province": "ON", "country": "CA", "postalCode": "N7S1A1", "twitter": "None", "instagram": "None", "facebook": "None", "youtube": "None", "website": "None", "summary": "None", "logo": "None", "latitude": 42.960617330606745, "longitude": -82.37262934523442}, "107951618RR0218": {"name": "THE SALVATION ARMY SASKATOON BETHANY HOME", "designationCode": "C", "categoryCode": "01", "address": "339 AVENUE C SOUTH", "city": "SASKATOON", "province": "SK", "country": "CA", "postalCode": "S7M1N5", "twitter": "None", "instagram": "None", "facebook": "None", "youtube": "None", "website": "None", "summary": "None", "logo": "None", "latitude": 52.124851257285485, "longitude": -106.67359624219492}, "107951618RR0228": {"name": "THE SALVATION ARMY SASKATOON TEMPLE CORPS", "designationCode": "C", "categoryCode": "40", "address": "38 BATEMAN CR", "city": "SASKATOON", "province": "SK", "country": "CA", "postalCode": "S7H3C4", "twitter": "None", "instagram": "None", "facebook": "None", "youtube": "None", "website": "None", "summary": "None", "logo": "None", "latitude": 52.11825045461372, "longitude": -106.61500185792582}, "107951618RR0466": {"name": "THE SALVATION ARMY SAULT STE. MARIE CORPS", "designationCode": "C", "categoryCode": "40", "address": "670 JOHN ST.", "city": "SAULT STE MARIE", "province": "ON", "country": "CA", "postalCode": "P6C3K9", "twitter": "None", "instagram": "None", "facebook": "None", "youtube": "None", "website": "None", "summary": "None", "logo": "None", "latitude": 46.534530864850716, "longitude": -84.34207140726551}, "107951618RR0411": {"name": "THE SALVATION ARMY SCARBOROUGH CITADEL CORPS", "designationCode": "C", "categoryCode": "40", "address": "2021 LAWRENCE AVENUE E", "city": "SCARBOROUGH", "province": "ON", "country": "CA", "postalCode": "M1R2Z2", "twitter": "None", "instagram": "None", "facebook": "None", "youtube": "None", "website": "None", "summary": "None", "logo": "None", "latitude": 43.745301798199705, "longitude": -79.29505665430786}, "107951618RR0315": {"name": "THE SALVATION ARMY SCARBOROUGH PLUS/TEP", "designationCode": "C", "categoryCode": "01", "address": "2 OVERLEA BLVD", "city": "EAST YORK", "province": "ON", "country": "CA", "postalCode": "M4H1P4", "twitter": "None", "instagram": "None", "facebook": "None", "youtube": "None", "website": "None", "summary": "None", "logo": "None", "latitude": 43.70240076493152, "longitude": -79.35266780353714}, "107951618RR0125": {"name": "THE SALVATION ARMY SEAL COVE CORPS", "designationCode": "C", "categoryCode": "40", "address": "PO BOX 168", "city": "SEAL COVE", "province": "NL", "country": "CA", "postalCode": "A0H2G0", "twitter": "None", "instagram": "None", "facebook": "None", "youtube": "None", "website": "None", "summary": "None", "logo": "None", "latitude": 47.46659000000005, "longitude": -53.081369999999936}, "107951618RR0166": {"name": "THE SALVATION ARMY SIK-E-DAKH CORPS", "designationCode": "C", "categoryCode": "40", "address": "PO BOX 100", "city": "HAZELTON", "province": "BC", "country": "CA", "postalCode": "V0J1Y0", "twitter": "None", "instagram": "None", "facebook": "None", "youtube": "None", "website": "None", "summary": "None", "logo": "None", "latitude": 55.2675692820996, "longitude": -127.62287325854736}, "107951618RR0242": {"name": "THE SALVATION ARMY SIMCOE COMMUNITY CHURCH", "designationCode": "C", "categoryCode": "40", "address": "P.O. BOX 452", "city": "SIMCOE", "province": "ON", "country": "CA", "postalCode": "N3Y4L5", "twitter": "None", "instagram": "None", "facebook": "None", "youtube": "None", "website": "None", "summary": "None", "logo": "None", "latitude": 42.83590200000006, "longitude": -80.30531149999993}, "107951618RR0528": {"name": "THE SALVATION ARMY SOUTH WINDSOR CITADEL CORPS", "designationCode": "C", "categoryCode": "40", "address": "1201 GRAND MARAIS RD W", "city": "WINDSOR", "province": "ON", "country": "CA", "postalCode": "N9E1C8", "twitter": "None", "instagram": "None", "facebook": "None", "youtube": "None", "website": "None", "summary": "None", "logo": "None", "latitude": 42.26926975878602, "longitude": -83.02438612681074}, "107951618RR0423": {"name": "THE SALVATION ARMY SOUTHMOUNT CITADEL CORPS", "designationCode": "C", "categoryCode": "40", "address": "3403 49TH AVE E", "city": "VANCOUVER", "province": "BC", "country": "CA", "postalCode": "V5S1M1", "twitter": "None", "instagram": "None", "facebook": "None", "youtube": "None", "website": "None", "summary": "None", "logo": "None", "latitude": 49.22462238776022, "longitude": -123.03143769579901}, "107951618RR0066": {"name": "THE SALVATION ARMY SPRINGDALE CORPS", "designationCode": "C", "categoryCode": "40", "address": "P.O. BOX 127", "city": "SPRINGDALE", "province": "NL", "country": "CA", "postalCode": "A0J1T0", "twitter": "None", "instagram": "None", "facebook": "None", "youtube": "None", "website": "None", "summary": "None", "logo": "None", "latitude": 49.497243000000054, "longitude": -56.07671299999993}, "107951618RR0195": {"name": "THE SALVATION ARMY SPRINGHILL COMMUNITY CHURCH", "designationCode": "C", "categoryCode": "40", "address": "P.O. BOX 516", "city": "SPRINGHILL", "province": "NS", "country": "CA", "postalCode": "B0M1X0", "twitter": "None", "instagram": "None", "facebook": "None", "youtube": "None", "website": "None", "summary": "None", "logo": "None", "latitude": 45.65057000000007, "longitude": -64.05729999999994}, "107951618RR0383": {"name": "THE SALVATION ARMY SPRYFIELD COMMUNITY CHURCH", "designationCode": "C", "categoryCode": "40", "address": "328 HERRING COVE ROAD", "city": "HALIFAX", "province": "NS", "country": "CA", "postalCode": "B3R1V4", "twitter": "None", "instagram": "None", "facebook": "None", "youtube": "None", "website": "None", "summary": "None", "logo": "None", "latitude": 44.613946374112906, "longitude": -63.61641711763547}, "107951618RR0458": {"name": "THE SALVATION ARMY ST. ALBERT CHURCH AND COMMUNITY CENTRE", "designationCode": "C", "categoryCode": "40", "address": "165 LIBERTON DR", "city": "ST. ALBERT", "province": "AB", "country": "CA", "postalCode": "T8N6A7", "twitter": "None", "instagram": "None", "facebook": "None", "youtube": "None", "website": "None", "summary": "None", "logo": "None", "latitude": 53.65305343548379, "longitude": -113.63177025777641}, "107951618RR0123": {"name": "THE SALVATION ARMY ST. ANTHONY CORPS", "designationCode": "C", "categoryCode": "40", "address": "24 ELEMENTRY SCHOOL RD        P.O. BOX 699", "city": "ST ANTHONY", "province": "NL", "country": "CA", "postalCode": "A0K4S0", "twitter": "None", "instagram": "None", "facebook": "None", "youtube": "None", "website": "None", "summary": "None", "logo": "None", "latitude": 51.36939739396509, "longitude": -55.59987146569891}, "107951618RR0400": {"name": "THE SALVATION ARMY ST. CATHARINES BOOTH CENTRE", "designationCode": "C", "categoryCode": "01", "address": "184 CHURCH STREET", "city": "ST CATHARINES", "province": "ON", "country": "CA", "postalCode": "L2R3E7", "twitter": "None", "instagram": "None", "facebook": "None", "youtube": "None", "website": "None", "summary": "None", "logo": "None", "latitude": 43.163882572277856, "longitude": -79.23764519761669}, "107951618RR0241": {"name": "THE SALVATION ARMY ST. CATHARINES CORPS", "designationCode": "C", "categoryCode": "40", "address": "400 NIAGARA ST", "city": "ST. CATHARINES", "province": "ON", "country": "CA", "postalCode": "L2M7N5", "twitter": "None", "instagram": "None", "facebook": "None", "youtube": "None", "website": "None", "summary": "None", "logo": "None", "latitude": 43.18724592062437, "longitude": -79.22571386237014}, "107951618RR0065": {"name": "THE SALVATION ARMY ST. JOHN'S CITADEL CORPS", "designationCode": "C", "categoryCode": "40", "address": "25 ADAM'S AVE", "city": "ST. JOHN'S", "province": "NL", "country": "CA", "postalCode": "A1C4Z1", "twitter": "None", "instagram": "None", "facebook": "None", "youtube": "None", "website": "None", "summary": "None", "logo": "None", "latitude": 47.56202678680275, "longitude": -52.72415607337343}, "107951618RR0523": {"name": "THE SALVATION ARMY ST. JOHN'S DOWNTOWN CORE MINISTRIES - THE WISEMAN CENTRE", "designationCode": "C", "categoryCode": "09", "address": "714 WATER STREET", "city": "ST. JOHN'S", "province": "NL", "country": "CA", "postalCode": "A1E1C1", "twitter": "None", "instagram": "None", "facebook": "None", "youtube": "None", "website": "None", "summary": "None", "logo": "None", "latitude": 47.54939868140096, "longitude": -52.71895271556317}, "107951618RR0023": {"name": "THE SALVATION ARMY ST. JOHN'S GLENBROOK LODGE FOR SENIOR CITIZENS", "designationCode": "C", "categoryCode": "01", "address": "105 TORBAY RD", "city": "ST. JOHN'S", "province": "NL", "country": "CA", "postalCode": "A1A2G9", "twitter": "None", "instagram": "None", "facebook": "None", "youtube": "None", "website": "None", "summary": "None", "logo": "None", "latitude": 47.5890520194757, "longitude": -52.70968427052876}, "107951618RR0124": {"name": "THE SALVATION ARMY ST. JOHN'S TEMPLE", "designationCode": "C", "categoryCode": "40", "address": "P.O. BOX 21060, STAT. A", "city": "ST. JOHN'S", "province": "NL", "country": "CA", "postalCode": "A1A5B2", "twitter": "None", "instagram": "None", "facebook": "None", "youtube": "None", "website": "None", "summary": "None", "logo": "None", "latitude": 47.600088000000056, "longitude": -52.692861499999935}, "107951618RR0064": {"name": "THE SALVATION ARMY ST. JOHN'S WEST CORPS", "designationCode": "C", "categoryCode": "40", "address": "76 PENNEY CR", "city": "ST. JOHN'S", "province": "NL", "country": "CA", "postalCode": "A1A5J4", "twitter": "None", "instagram": "None", "facebook": "None", "youtube": "None", "website": "None", "summary": "None", "logo": "None", "latitude": 47.6007686183853, "longitude": -52.72348319357731}, "107951618RR0467": {"name": "THE SALVATION ARMY ST. MARY'S COMMUNITY CHURCH", "designationCode": "C", "categoryCode": "40", "address": "220 QUEEN STREET EAST         P.O. BOX 29", "city": "ST. MARY'S", "province": "ON", "country": "CA", "postalCode": "N4X1A9", "twitter": "None", "instagram": "None", "facebook": "None", "youtube": "None", "website": "None", "summary": "None", "logo": "None", "latitude": 43.25975256174626, "longitude": -81.13882859908247}, "107951618RR0234": {"name": "THE SALVATION ARMY ST. THOMAS CORPS", "designationCode": "C", "categoryCode": "40", "address": "380 ELM ST", "city": "ST. THOMAS", "province": "ON", "country": "CA", "postalCode": "N5R1K1", "twitter": "None", "instagram": "None", "facebook": "None", "youtube": "None", "website": "None", "summary": "None", "logo": "None", "latitude": 42.76405655659782, "longitude": -81.17190461613808}, "107951618RR0127": {"name": "THE SALVATION ARMY STEPHENVILLE COMMUNITY CHURCH", "designationCode": "C", "categoryCode": "40", "address": "P.O. BOX 464", "city": "STEPHENVILLE", "province": "NL", "country": "CA", "postalCode": "A2N3A3", "twitter": "None", "instagram": "None", "facebook": "None", "youtube": "None", "website": "None", "summary": "None", "logo": "None", "latitude": 48.549003000000056, "longitude": -58.57539199999994}, "107951618RR0236": {"name": "THE SALVATION ARMY STRATFORD COMMUNITY CHURCH", "designationCode": "C", "categoryCode": "40", "address": "230 LIGHTBOURNE AVE.", "city": "STRATFORD", "province": "ON", "country": "CA", "postalCode": "N4Z1J6", "twitter": "None", "instagram": "None", "facebook": "None", "youtube": "None", "website": "None", "summary": "None", "logo": "None", "latitude": 43.360428468492174, "longitude": -81.00468113587043}, "107951618RR0006": {"name": "THE SALVATION ARMY SUDBURY COMMUNITY CHURCH", "designationCode": "C", "categoryCode": "40", "address": "P.O. BOX 847 STN B", "city": "SUDBURY", "province": "ON", "country": "CA", "postalCode": "P3E4S1", "twitter": "None", "instagram": "None", "facebook": "None", "youtube": "None", "website": "None", "summary": "None", "logo": "None", "latitude": 46.48958700000006, "longitude": -80.99011249999994}, "107951618RR0329": {"name": "THE SALVATION ARMY SUMMERSIDE CORPS", "designationCode": "C", "categoryCode": "40", "address": "374 POPE RD", "city": "SUMMERSIDE", "province": "PE", "country": "CA", "postalCode": "C1N0G1", "twitter": "None", "instagram": "None", "facebook": "None", "youtube": "None", "website": "None", "summary": "None", "logo": "None", "latitude": 46.410820191421735, "longitude": -63.78617165292081}, "107951618RR0319": {"name": "THE SALVATION ARMY SUNCOAST CITADEL CORPS", "designationCode": "C", "categoryCode": "40", "address": "P.O. BOX 397", "city": "GODERICH", "province": "ON", "country": "CA", "postalCode": "N7A4C6", "twitter": "None", "instagram": "None", "facebook": "None", "youtube": "None", "website": "None", "summary": "None", "logo": "None", "latitude": 43.74263400000005, "longitude": -81.70775449999994}, "107951618RR0180": {"name": "THE SALVATION ARMY SUNSHINE COAST COMUNITY CHURCH", "designationCode": "C", "categoryCode": "40", "address": "PO BOX 1625", "city": "GIBSONS", "province": "BC", "country": "CA", "postalCode": "V0N1V0", "twitter": "None", "instagram": "None", "facebook": "None", "youtube": "None", "website": "None", "summary": "None", "logo": "None", "latitude": 49.40659350000001, "longitude": -123.528087}, "107951618RR0174": {"name": "THE SALVATION ARMY SURREY COMMUNITY CHURCH", "designationCode": "C", "categoryCode": "40", "address": "13474 96 AVE", "city": "SURREY", "province": "BC", "country": "CA", "postalCode": "V3V1Y9", "twitter": "None", "instagram": "None", "facebook": "None", "youtube": "None", "website": "None", "summary": "None", "logo": "None", "latitude": 49.1770284740321, "longitude": -122.84900027699231}, "107951618RR0189": {"name": "THE SALVATION ARMY SUSSEX COMMUNITY CHURCH", "designationCode": "C", "categoryCode": "40", "address": "PO BOX 5365", "city": "SUSSEX", "province": "NB", "country": "CA", "postalCode": "E4E5L4", "twitter": "None", "instagram": "None", "facebook": "None", "youtube": "None", "website": "None", "summary": "None", "logo": "None", "latitude": 45.72363300000005, "longitude": -65.51253349999993}, "107951618RR0208": {"name": "THE SALVATION ARMY SYDNEY COMMUNITY CHURCH", "designationCode": "C", "categoryCode": "40", "address": "P.O. BOX 902 STN A", "city": "SYDNEY", "province": "NS", "country": "CA", "postalCode": "B1P6J4", "twitter": "None", "instagram": "None", "facebook": "None", "youtube": "None", "website": "None", "summary": "None", "logo": "None", "latitude": 46.137372000000056, "longitude": -60.19552249999994}, "107951618RR0373": {"name": "THE SALVATION ARMY TERRACE CORPS", "designationCode": "C", "categoryCode": "40", "address": "3236 KALUM ST", "city": "TERRACE", "province": "BC", "country": "CA", "postalCode": "V8G2N5", "twitter": "None", "instagram": "None", "facebook": "None", "youtube": "None", "website": "None", "summary": "None", "logo": "None", "latitude": 54.5177191843896, "longitude": -128.5865337709479}, "107951618RR0548": {"name": "THE SALVATION ARMY THE GATEWAY (TORONTO)", "designationCode": "C", "categoryCode": "01", "address": "2 OVERLEA BLVD", "city": "EAST YORK", "province": "ON", "country": "CA", "postalCode": "M4H1P4", "twitter": "None", "instagram": "None", "facebook": "None", "youtube": "None", "website": "None", "summary": "None", "logo": "None", "latitude": 43.70240076493152, "longitude": -79.35266780353714}, "107951618RR0160": {"name": "THE SALVATION ARMY THOMPSON CORPS", "designationCode": "C", "categoryCode": "40", "address": "P.O. BOX 22", "city": "THOMPSON", "province": "MB", "country": "CA", "postalCode": "R8N1M9", "twitter": "None", "instagram": "None", "facebook": "None", "youtube": "None", "website": "None", "summary": "None", "logo": "None", "latitude": 55.74417900000006, "longitude": -97.85067199999993}, "107951618RR0294": {"name": "THE SALVATION ARMY THUNDER BAY COMMUNITY AND RESIDENTIAL SERVICES", "designationCode": "C", "categoryCode": "01", "address": "545 CUMBERLAND STREET N", "city": "THUNDER BAY", "province": "ON", "country": "CA", "postalCode": "P7A4S2", "twitter": "None", "instagram": "None", "facebook": "None", "youtube": "None", "website": "None", "summary": "None", "logo": "None", "latitude": 48.450849099342285, "longitude": -89.19405962542575}, "107951618RR0416": {"name": "THE SALVATION ARMY THUNDER BAY COMMUNITY CHURCH", "designationCode": "C", "categoryCode": "40", "address": "2621 VICTORIA AVE", "city": "THUNDER BAY", "province": "ON", "country": "CA", "postalCode": "P7C1E8", "twitter": "None", "instagram": "None", "facebook": "None", "youtube": "None", "website": "None", "summary": "None", "logo": "None", "latitude": 48.38416551875455, "longitude": -89.27440280682671}, "107951618RR0233": {"name": "THE SALVATION ARMY TILLSONBURG COMMUNITY CHURCH", "designationCode": "C", "categoryCode": "40", "address": "P.O. BOX 74                   110 CONCESSION ST W", "city": "TILLSONBURG", "province": "ON", "country": "CA", "postalCode": "N4G4H3", "twitter": "None", "instagram": "None", "facebook": "None", "youtube": "None", "website": "None", "summary": "None", "logo": "None", "latitude": 42.864143321686136, "longitude": -80.74567787399731}, "107951618RR0256": {"name": "THE SALVATION ARMY TIMMINS CORPS", "designationCode": "C", "categoryCode": "40", "address": "P.O. BOX 1322", "city": "TIMMINS", "province": "ON", "country": "CA", "postalCode": "P4N7J8", "twitter": "None", "instagram": "None", "facebook": "None", "youtube": "None", "website": "None", "summary": "None", "logo": "None", "latitude": 48.47611200000006, "longitude": -81.32891299999993}, "107951618RR0014": {"name": "THE SALVATION ARMY TORONTO BROADVIEW VILLAGE", "designationCode": "C", "categoryCode": "01", "address": "1132 BROADVIEW AVENUE", "city": "TORONTO", "province": "ON", "country": "CA", "postalCode": "M4K2S5", "twitter": "None", "instagram": "None", "facebook": "None", "youtube": "None", "website": "None", "summary": "None", "logo": "None", "latitude": 43.687048451583955, "longitude": -79.35589568353575}, "107951618RR0318": {"name": "THE SALVATION ARMY TORONTO DUFFERIN RESIDENCE", "designationCode": "C", "categoryCode": "01", "address": "2 OVERLEA BLVD", "city": "EAST YORK", "province": "ON", "country": "CA", "postalCode": "M4H1P4", "twitter": "None", "instagram": "None", "facebook": "None", "youtube": "None", "website": "None", "summary": "None", "logo": "None", "latitude": 43.70240076493152, "longitude": -79.35266780353714}, "107951618RR0300": {"name": "THE SALVATION ARMY TORONTO EVANGELINE RESIDENCE", "designationCode": "C", "categoryCode": "01", "address": "2 OVERLEA BLVD", "city": "EAST YORK", "province": "ON", "country": "CA", "postalCode": "M4H1P4", "twitter": "None", "instagram": "None", "facebook": "None", "youtube": "None", "website": "None", "summary": "None", "logo": "None", "latitude": 43.70240076493152, "longitude": -79.35266780353714}, "107951618RR0545": {"name": "THE SALVATION ARMY TORONTO FLORENCE BOOTH HOUSE", "designationCode": "C", "categoryCode": "01", "address": "2 OVERLEA BLVD", "city": "EAST YORK", "province": "ON", "country": "CA", "postalCode": "M4H1P4", "twitter": "None", "instagram": "None", "facebook": "None", "youtube": "None", "website": "None", "summary": "None", "logo": "None", "latitude": 43.70240076493152, "longitude": -79.35266780353714}, "107951618RR0353": {"name": "THE SALVATION ARMY TORONTO HOPE SHELTER", "designationCode": "C", "categoryCode": "01", "address": "2 OVERLEA BLVD", "city": "EAST YORK", "province": "ON", "country": "CA", "postalCode": "M4H1P4", "twitter": "None", "instagram": "None", "facebook": "None", "youtube": "None", "website": "None", "summary": "None", "logo": "None", "latitude": 43.70240076493152, "longitude": -79.35266780353714}, "107951618RR0332": {"name": "THE SALVATION ARMY TORONTO KOREAN COMMUNITY CHURCH", "designationCode": "C", "categoryCode": "40", "address": "150 RAILSIDE RD", "city": "NORTH YORK", "province": "ON", "country": "CA", "postalCode": "M4A1A3", "twitter": "None", "instagram": "None", "facebook": "None", "youtube": "None", "website": "None", "summary": "None", "logo": "None", "latitude": 43.73777319842474, "longitude": -79.3266441703507}, "107951618RR0298": {"name": "THE SALVATION ARMY TORONTO MAXWELL MEIGHEN CENTRE", "designationCode": "C", "categoryCode": "01", "address": "135 SHERBOURNE ST.", "city": "TORONTO", "province": "ON", "country": "CA", "postalCode": "M5A2R5", "twitter": "None", "instagram": "None", "facebook": "None", "youtube": "None", "website": "None", "summary": "None", "logo": "None", "latitude": 43.655102600900136, "longitude": -79.36962894471729}, "107951618RR0369": {"name": "THE SALVATION ARMY TRAIL CORPS", "designationCode": "C", "categoryCode": "40", "address": "2030 SECOND AVE", "city": "TRAIL", "province": "BC", "country": "CA", "postalCode": "V1R1N3", "twitter": "None", "instagram": "None", "facebook": "None", "youtube": "None", "website": "None", "summary": "None", "logo": "None", "latitude": 49.09621455468789, "longitude": -117.69402484427133}, "107951618RR0276": {"name": "THE SALVATION ARMY TRENTON COMMUNITY CHURCH", "designationCode": "C", "categoryCode": "40", "address": "244 DUNDAS ST. E", "city": "TRENTON", "province": "ON", "country": "CA", "postalCode": "K8V1L9", "twitter": "None", "instagram": "None", "facebook": "None", "youtube": "None", "website": "None", "summary": "None", "logo": "None", "latitude": 44.10462248658289, "longitude": -77.56001396448146}, "107951618RR0555": {"name": "THE SALVATION ARMY TRI-TOWN COMMUNITY CHURCH (NEW LISKEARD)", "designationCode": "C", "categoryCode": "40", "address": "P.O. BOX 2410", "city": "NEW LISKEARD", "province": "ON", "country": "CA", "postalCode": "P0J1P0", "twitter": "None", "instagram": "None", "facebook": "None", "youtube": "None", "website": "None", "summary": "None", "logo": "None", "latitude": 47.50254600000005, "longitude": -79.69562449999994}, "107951618RR0556": {"name": "THE SALVATION ARMY TRINITY BAY SOUTH CORPS", "designationCode": "C", "categoryCode": "40", "address": "P.O. BOX 10", "city": "DILDO", "province": "NL", "country": "CA", "postalCode": "A0B1P0", "twitter": "None", "instagram": "None", "facebook": "None", "youtube": "None", "website": "None", "summary": "None", "logo": "None", "latitude": 47.56281000000007, "longitude": -53.54854999999998}, "107951618RR0106": {"name": "THE SALVATION ARMY TRITON CORPS", "designationCode": "C", "categoryCode": "40", "address": "P.O. BOX 9", "city": "TRITON", "province": "NL", "country": "CA", "postalCode": "A0J1V0", "twitter": "None", "instagram": "None", "facebook": "None", "youtube": "None", "website": "None", "summary": "None", "logo": "None", "latitude": 49.51395000000008, "longitude": -55.618349999999964}, "107951618RR0048": {"name": "THE SALVATION ARMY TROUT RIVER CORPS", "designationCode": "C", "categoryCode": "40", "address": "20 CHURCH ST.", "city": "DEER LAKE", "province": "NL", "country": "CA", "postalCode": "A8A1E1", "twitter": "None", "instagram": "None", "facebook": "None", "youtube": "None", "website": "None", "summary": "None", "logo": "None", "latitude": 49.171937354201795, "longitude": -57.42823996889784}, "107951618RR0202": {"name": "THE SALVATION ARMY TRURO CORPS", "designationCode": "C", "categoryCode": "40", "address": "P.O. BOX 25022", "city": "TRURO", "province": "NS", "country": "CA", "postalCode": "B2N7B8", "twitter": "None", "instagram": "None", "facebook": "None", "youtube": "None", "website": "None", "summary": "None", "logo": "None", "latitude": 45.36602700000006, "longitude": -63.289042999999936}, "107951618RR0247": {"name": "THE SALVATION ARMY TWEED COMMUNITY CHURCH", "designationCode": "C", "categoryCode": "40", "address": "POSTAL BAG 339", "city": "TWEED", "province": "ON", "country": "CA", "postalCode": "K0K3J0", "twitter": "None", "instagram": "None", "facebook": "None", "youtube": "None", "website": "None", "summary": "None", "logo": "None", "latitude": 44.51830891016448, "longitude": -77.11325609606878}, "107951618RR0519": {"name": "THE SALVATION ARMY TWILLINGATE CORPS", "designationCode": "C", "categoryCode": "40", "address": "P.O. BOX 38", "city": "TWILLINGATE", "province": "NL", "country": "CA", "postalCode": "A0G4M0", "twitter": "None", "instagram": "None", "facebook": "None", "youtube": "None", "website": "None", "summary": "None", "logo": "None", "latitude": 49.65692000000007, "longitude": -54.77596999999997}, "107951618RR0402": {"name": "THE SALVATION ARMY VANCOUVER BELKIN HOUSE", "designationCode": "C", "categoryCode": "01", "address": "555 HOMER ST", "city": "VANCOUVER", "province": "BC", "country": "CA", "postalCode": "V6B1K8", "twitter": "None", "instagram": "None", "facebook": "None", "youtube": "None", "website": "None", "summary": "None", "logo": "None", "latitude": 49.28228721178362, "longitude": -123.11266094312982}, "107951618RR0588": {"name": "THE SALVATION ARMY VANCOUVER GRACE MANSION", "designationCode": "C", "categoryCode": "09", "address": "596 HASTINGS ST E", "city": "VANCOUVER", "province": "BC", "country": "CA", "postalCode": "V6A4K9", "twitter": "None", "instagram": "None", "facebook": "None", "youtube": "None", "website": "None", "summary": "None", "logo": "None", "latitude": 49.281148521207406, "longitude": -123.09188255398465}, "107951618RR0565": {"name": "THE SALVATION ARMY VANCOUVER HARBOUR LIGHT CORPS AND TREATMENT CENTRE", "designationCode": "C", "categoryCode": "01", "address": "119 CORDOVA ST E", "city": "VANCOUVER", "province": "BC", "country": "CA", "postalCode": "V6A1K8", "twitter": "None", "instagram": "None", "facebook": "None", "youtube": "None", "website": "None", "summary": "None", "logo": "None", "latitude": 49.282345486005966, "longitude": -123.10152258090484}, "107951618RR0118": {"name": "THE SALVATION ARMY VERNON COMMUNITY CHURCH", "designationCode": "C", "categoryCode": "40", "address": "3303 32 AVE", "city": "VERNON", "province": "BC", "country": "CA", "postalCode": "V1T2M7", "twitter": "None", "instagram": "None", "facebook": "None", "youtube": "None", "website": "None", "summary": "None", "logo": "None", "latitude": 50.26534045715252, "longitude": -119.2754835}, "107951618RR0184": {"name": "THE SALVATION ARMY VICTORIA ADDICTIONS AND REHABILITATION CENTRE", "designationCode": "C", "categoryCode": "01", "address": "525 JOHNSON ST", "city": "VICTORIA", "province": "BC", "country": "CA", "postalCode": "V8W1M2", "twitter": "None", "instagram": "None", "facebook": "None", "youtube": "None", "website": "None", "summary": "None", "logo": "None"}, "107951618RR0368": {"name": "THE SALVATION ARMY VICTORIA CITADEL", "designationCode": "C", "categoryCode": "40", "address": "4030 DOUGLAS ST", "city": "VICTORIA", "province": "BC", "country": "CA", "postalCode": "V8X5J6", "twitter": "None", "instagram": "None", "facebook": "None", "youtube": "None", "website": "None", "summary": "None", "logo": "None", "latitude": 48.470348443765, "longitude": -123.38009268226634}, "107951618RR0557": {"name": "THE SALVATION ARMY VICTORIA SUNSET LODGE FOR SENIOR CITIZENS", "designationCode": "C", "categoryCode": "01", "address": "952 ARM ST", "city": "VICTORIA", "province": "BC", "country": "CA", "postalCode": "V9A4G7", "twitter": "None", "instagram": "None", "facebook": "None", "youtube": "None", "website": "None", "summary": "None", "logo": "None", "latitude": 48.44176300528012, "longitude": -123.39291292786639}, "107951618RR0578": {"name": "THE SALVATION ARMY VICTORIA WESTSONG COMMUNITY CHURCH", "designationCode": "C", "categoryCode": "40", "address": "465A PHELPS AVE", "city": "VICTORIA", "province": "BC", "country": "CA", "postalCode": "V9B3H8", "twitter": "None", "instagram": "None", "facebook": "None", "youtube": "None", "website": "None", "summary": "None", "logo": "None", "latitude": 48.46520084918601, "longitude": -123.48515868994573}, "107951618RR0147": {"name": "THE SALVATION ARMY WEETAMAH CORPS", "designationCode": "C", "categoryCode": "40", "address": "324 LOGAN AVE", "city": "WINNIPEG", "province": "MB", "country": "CA", "postalCode": "R3A0L5", "twitter": "None", "instagram": "None", "facebook": "None", "youtube": "None", "website": "None", "summary": "None", "logo": "None", "latitude": 49.903998111258836, "longitude": -97.1402708637542}, "107951618RR0405": {"name": "THE SALVATION ARMY WEST HILL CITADEL CORPS", "designationCode": "C", "categoryCode": "40", "address": "305 MORRISH ROAD", "city": "SCARBOROUGH", "province": "ON", "country": "CA", "postalCode": "M1C1E9", "twitter": "None", "instagram": "None", "facebook": "None", "youtube": "None", "website": "None", "summary": "None", "logo": "None", "latitude": 43.785548684719174, "longitude": -79.17153745193065}, "107951618RR0156": {"name": "THE SALVATION ARMY WESTON COMMUNITY CHURCH", "designationCode": "C", "categoryCode": "40", "address": "1390 ROY AVE", "city": "WINNIPEG", "province": "MB", "country": "CA", "postalCode": "R3E1E6", "twitter": "None", "instagram": "None", "facebook": "None", "youtube": "None", "website": "None", "summary": "None", "logo": "None", "latitude": 49.91604606076531, "longitude": -97.18389179046676}, "107951618RR0205": {"name": "THE SALVATION ARMY WESTVILLE CORPS", "designationCode": "C", "categoryCode": "40", "address": "P.O. BOX 850", "city": "WESTVILLE", "province": "NS", "country": "CA", "postalCode": "B0K2A0", "twitter": "None", "instagram": "None", "facebook": "None", "youtube": "None", "website": "None", "summary": "None", "logo": "None", "latitude": 45.559140000000056, "longitude": -62.70123049999994}, "107951618RR0133": {"name": "THE SALVATION ARMY WETASKIWIN CORPS", "designationCode": "C", "categoryCode": "40", "address": "5010 51 AVE", "city": "WETASKIWIN", "province": "AB", "country": "CA", "postalCode": "T9A0V1", "twitter": "None", "instagram": "None", "facebook": "None", "youtube": "None", "website": "None", "summary": "None", "logo": "None", "latitude": 52.97069444214888, "longitude": -113.37573024839867}, "107951618RR0227": {"name": "THE SALVATION ARMY WEYBURN CORPS", "designationCode": "C", "categoryCode": "40", "address": "126-4TH ST NE", "city": "WEYBURN", "province": "SK", "country": "CA", "postalCode": "S4H0Y1", "twitter": "None", "instagram": "None", "facebook": "None", "youtube": "None", "website": "None", "summary": "None", "logo": "None", "latitude": 49.65553076704875, "longitude": -103.85471973295124}, "107951618RR0097": {"name": "THE SALVATION ARMY WHITBY COMMUNITY CHURCH", "designationCode": "C", "categoryCode": "40", "address": "P.O. BOX 565", "city": "WHITBY", "province": "ON", "country": "CA", "postalCode": "L1P1R3", "twitter": "None", "instagram": "None", "facebook": "None", "youtube": "None", "website": "None", "summary": "None", "logo": "None", "latitude": 43.88476200000005, "longitude": -78.96808249999994}, "107951618RR0367": {"name": "THE SALVATION ARMY WHITE ROCK CHURCH AND COMMUNITY MINISTRIES", "designationCode": "C", "categoryCode": "40", "address": "15417 ROPER AVE", "city": "WHITE ROCK", "province": "BC", "country": "CA", "postalCode": "V4B2G4", "twitter": "None", "instagram": "None", "facebook": "None", "youtube": "None", "website": "None", "summary": "None", "logo": "None", "latitude": 49.025670461047675, "longitude": -122.79523419317329}, "107951618RR0552": {"name": "THE SALVATION ARMY WHITEHORSE CORPS", "designationCode": "C", "categoryCode": "40", "address": "116 - 280 MIDPARK WAY SE", "city": "CALGARY", "province": "AB", "country": "CA", "postalCode": "T2X1J6", "twitter": "None", "instagram": "None", "facebook": "None", "youtube": "None", "website": "None", "summary": "None", "logo": "None", "latitude": 50.910016432136906, "longitude": -114.06351266154988}, "107951618RR0551": {"name": "THE SALVATION ARMY WIARTON COMMUNITY CHURCH", "designationCode": "C", "categoryCode": "40", "address": "576 EDWARD ST. BOX 1286", "city": "WIARTON", "province": "ON", "country": "CA", "postalCode": "N0H2T0", "twitter": "None", "instagram": "None", "facebook": "None", "youtube": "None", "website": "None", "summary": "None", "logo": "None", "latitude": 44.73707606046583, "longitude": -81.13231695436417}, "107951618RR0420": {"name": "THE SALVATION ARMY WILLIAMS LAKE CORPS", "designationCode": "C", "categoryCode": "40", "address": "267 BORLAND ST", "city": "WILLIAMS LAKE", "province": "BC", "country": "CA", "postalCode": "V2G1R4", "twitter": "None", "instagram": "None", "facebook": "None", "youtube": "None", "website": "None", "summary": "None", "logo": "None", "latitude": 52.1298195212074, "longitude": -122.1431815547927}, "107951618RR0470": {"name": "THE SALVATION ARMY WINDSOR COMMUNITY AND REHABILITATION CENTRE", "designationCode": "C", "categoryCode": "01", "address": "355 CHURCH STREET", "city": "WINDSOR", "province": "ON", "country": "CA", "postalCode": "N9A7G9", "twitter": "None", "instagram": "None", "facebook": "None", "youtube": "None", "website": "None", "summary": "None", "logo": "None", "latitude": 42.31587722647014, "longitude": -83.04277844465904}, "107951618RR0340": {"name": "THE SALVATION ARMY WINDSOR EASTWOOD CORPS", "designationCode": "C", "categoryCode": "40", "address": "3199 LAUZON RD", "city": "WINDSOR", "province": "ON", "country": "CA", "postalCode": "N8T2Z7", "twitter": "None", "instagram": "None", "facebook": "None", "youtube": "None", "website": "None", "summary": "None", "logo": "None", "latitude": 42.300135295285514, "longitude": -82.92311043859952}, "107951618RR0240": {"name": "THE SALVATION ARMY WINGHAM CORPS", "designationCode": "C", "categoryCode": "40", "address": "P.O. BOX 610", "city": "WINGHAM", "province": "ON", "country": "CA", "postalCode": "N0G2W0", "twitter": "None", "instagram": "None", "facebook": "None", "youtube": "None", "website": "None", "summary": "None", "logo": "None", "latitude": 43.88924000000003, "longitude": -81.31057999999996}, "107951618RR0148": {"name": "THE SALVATION ARMY WINNIPEG BOOTH CENTRE", "designationCode": "C", "categoryCode": "01", "address": "180 HENRY AVENUE", "city": "WINNIPEG", "province": "MB", "country": "CA", "postalCode": "R3B0J8", "twitter": "None", "instagram": "None", "facebook": "None", "youtube": "None", "website": "None", "summary": "None", "logo": "None", "latitude": 49.90338314458434, "longitude": -97.13426162574288}, "107951618RR0575": {"name": "THE SALVATION ARMY WINNIPEG COMMUNITY VENTURES", "designationCode": "C", "categoryCode": "09", "address": "1350 CHURCH AVE", "city": "WINNIPEG", "province": "MB", "country": "CA", "postalCode": "R2X1G4", "twitter": "None", "instagram": "None", "facebook": "None", "youtube": "None", "website": "None", "summary": "None", "logo": "None", "latitude": 49.93694109683212, "longitude": -97.1726512033295}, "107951618RR0158": {"name": "THE SALVATION ARMY WINNIPEG GOLDEN WEST CENTENNIAL LODGE", "designationCode": "C", "categoryCode": "01", "address": "811 SCHOOL RD", "city": "WINNIPEG", "province": "MB", "country": "CA", "postalCode": "R2Y0S8", "twitter": "None", "instagram": "None", "facebook": "None", "youtube": "None", "website": "None", "summary": "None", "logo": "None", "latitude": 49.888646570633064, "longitude": -97.28872919851166}, "107951618RR0268": {"name": "THE SALVATION ARMY WINTERBERRY HEIGHTS CHURCH", "designationCode": "C", "categoryCode": "40", "address": "P.O. BOX 99007                1050 PARAMOUNT DR", "city": "STONEY CREEK", "province": "ON", "country": "CA", "postalCode": "L8J1P8", "twitter": "None", "instagram": "None", "facebook": "None", "youtube": "None", "website": "None", "summary": "None", "logo": "None", "latitude": 43.199391133216054, "longitude": -79.79446795542177}, "107951618RR0380": {"name": "THE SALVATION ARMY WOODSTOCK COMMUNITY CHURCH", "designationCode": "C", "categoryCode": "40", "address": "100 EASTWOOD DRIVE", "city": "WOODSTOCK", "province": "NB", "country": "CA", "postalCode": "E7M1P4", "twitter": "None", "instagram": "None", "facebook": "None", "youtube": "None", "website": "None", "summary": "None", "logo": "None", "latitude": 46.169883443217806, "longitude": -67.57416502522182}, "107951618RR0109": {"name": "THE SALVATION ARMY WOODSTOCK CORPS", "designationCode": "C", "categoryCode": "40", "address": "13 PARK STREET                P.O. BOX 17", "city": "WOODSTOCK", "province": "NL", "country": "CA", "postalCode": "A0K5X0", "twitter": "None", "instagram": "None", "facebook": "None", "youtube": "None", "website": "None", "summary": "None", "logo": "None", "latitude": 51.84757797386086, "longitude": -1.3580651443999796}, "107951618RR0413": {"name": "THE SALVATION ARMY WOODSTOCK CORPS", "designationCode": "C", "categoryCode": "40", "address": "769 JULIANA DR", "city": "WOODSTOCK", "province": "ON", "country": "CA", "postalCode": "N4V1E9", "twitter": "None", "instagram": "None", "facebook": "None", "youtube": "None", "website": "None", "summary": "None", "logo": "None", "latitude": 43.113586366120124, "longitude": -80.73784793617627}, "107951618RR0265": {"name": "THE SALVATION ARMY WYNDFIELD COMMUNITY CHURCH", "designationCode": "C", "categoryCode": "40", "address": "33 DIANA AVE", "city": "BRANTFORD", "province": "ON", "country": "CA", "postalCode": "N3T0C2", "twitter": "None", "instagram": "None", "facebook": "None", "youtube": "None", "website": "None", "summary": "None", "logo": "None", "latitude": 43.12567284385901, "longitude": -80.28741622594973}, "107951618RR0209": {"name": "THE SALVATION ARMY YARMOUTH CORPS", "designationCode": "C", "categoryCode": "40", "address": "P.O. BOX 714", "city": "YARMOUTH", "province": "NS", "country": "CA", "postalCode": "B5A4K3", "twitter": "None", "instagram": "None", "facebook": "None", "youtube": "None", "website": "None", "summary": "None", "logo": "None", "latitude": 43.841274000000055, "longitude": -66.11887249999994}, "107951618RR0033": {"name": "THE SALVATION ARMY YELLOWKNIFE CORPS AND RESOURCE CENTRE", "designationCode": "C", "categoryCode": "40", "address": "PO BOX 2585 STN MAIN", "city": "YELLOWKNIFE", "province": "NT", "country": "CA", "postalCode": "X1A2P9", "twitter": "None", "instagram": "None", "facebook": "None", "youtube": "None", "website": "None", "summary": "None", "logo": "None", "latitude": 62.45446200000005, "longitude": -114.37092349999993}, "107951618RR0359": {"name": "THE SALVATION ARMY YORK COMMUNITY CHURCH", "designationCode": "C", "categoryCode": "40", "address": "1100 WESTON RD.", "city": "TORONTO", "province": "ON", "country": "CA", "postalCode": "M6N3S4", "twitter": "None", "instagram": "None", "facebook": "None", "youtube": "None", "website": "None", "summary": "None", "logo": "None", "latitude": 43.68601304495362, "longitude": -79.48766296018228}, "107951618RR0262": {"name": "THE SALVATION ARMY YORKMINSTER CITADEL CORPS", "designationCode": "C", "categoryCode": "40", "address": "1 LORD SEATON RD", "city": "NORTH YORK", "province": "ON", "country": "CA", "postalCode": "M2P2C1", "twitter": "None", "instagram": "None", "facebook": "None", "youtube": "None", "website": "None", "summary": "None", "logo": "None", "latitude": 43.75261108630055, "longitude": -79.40733609158066}, "107951618RR0220": {"name": "THE SALVATION ARMY YORKTON CORPS", "designationCode": "C", "categoryCode": "40", "address": "P.O. BOX 456", "city": "YORKTON", "province": "SK", "country": "CA", "postalCode": "S3N2W4", "twitter": "None", "instagram": "None", "facebook": "None", "youtube": "None", "website": "None", "summary": "None", "logo": "None", "latitude": 51.20403900000005, "longitude": -102.44985199999994}, "107951618RR0333": {"name": "THE SALVATION ARMY YORKWOODS COMMUNITY CHURCH", "designationCode": "C", "categoryCode": "40", "address": "20 YORKWOODS GATE", "city": "NORTH YORK", "province": "ON", "country": "CA", "postalCode": "M3N1J8", "twitter": "None", "instagram": "None", "facebook": "None", "youtube": "None", "website": "None", "summary": "None", "logo": "None", "latitude": 43.75120913630313, "longitude": -79.51396975036057}, "107951618RR0569": {"name": "THE SALVATION ARMY 614 VANCOUVER CORPS", "designationCode": "C", "categoryCode": "40", "address": "PO BOX 88088 RPO CHINATOWN", "city": "VANCOUVER", "province": "BC", "country": "CA", "postalCode": "V6A4A4", "twitter": "None", "instagram": "None", "facebook": "None", "youtube": "None", "website": "None", "summary": "None", "logo": "None", "latitude": 49.279930000000036, "longitude": -123.09971999999999}, "107951618RR0229": {"name": "THE SALVATION ARMY-REGINA HAVEN OF HOPE CHURCH", "designationCode": "C", "categoryCode": "40", "address": "2240 13TH AVENUE", "city": "REGINA", "province": "SK", "country": "CA", "postalCode": "S4P3M7", "twitter": "None", "instagram": "None", "facebook": "None", "youtube": "None", "website": "None", "summary": "None", "logo": "None", "latitude": 50.445551460470746, "longitude": -104.61328102553523}}