{"855221180RR0001": {"name": "MOUNTAIN VIEW CHRISTIAN ASSEMBLY INC.", "designationCode": "C", "categoryCode": "36", "address": "P.O BOX 490", "city": "DAUPHIN", "province": "MB", "country": "CA", "postalCode": "R7N2V3", "twitter": "None", "instagram": "None", "facebook": "None", "youtube": "None", "website": "None", "summary": "None", "logo": "None", "latitude": 51.150138000000055, "longitude": -100.04934049999993}, "119047157RR0001": {"name": "MOUNTAIN VIEW CHRISTIAN CHURCH", "designationCode": "C", "categoryCode": "39", "address": "118 LIMERIDGE RD E", "city": "HAMILTON", "province": "ON", "country": "CA", "postalCode": "L9A2S3", "twitter": "None", "instagram": "None", "facebook": "None", "youtube": "None", "website": "None", "summary": "None", "logo": "None", "latitude": 43.21846979430458, "longitude": -79.88012605427309}, "119047173RR0001": {"name": "MOUNTAIN VIEW CHURCH OF GOD IN CHRIST MENNONITE", "designationCode": "C", "categoryCode": "34", "address": "BOX 4", "city": "BIRNIE", "province": "MB", "country": "CA", "postalCode": "R0J0J0", "twitter": "None", "instagram": "None", "facebook": "None", "youtube": "None", "website": "None", "summary": "None", "logo": "None", "latitude": 50.447910000000036, "longitude": -99.44145999999995}, "127146314RR0001": {"name": "MOUNTAIN VIEW COMMUNITIES ADULT LEARNING SOCIETY", "designationCode": "C", "categoryCode": "21", "address": "1601-15 AVENUE                PO BOX 2079", "city": "DIDSBURY", "province": "AB", "country": "CA", "postalCode": "T0M0W0", "twitter": "None", "instagram": "None", "facebook": "None", "youtube": "None", "website": "None", "summary": "None", "logo": "None", "latitude": 51.6566766212563, "longitude": -114.13128875398742}, "119288918RR1115": {"name": "MOUNTAIN VIEW CONGREGATION OF JEHOVAH'S WITNESSES", "designationCode": "C", "categoryCode": "61", "address": "30141 ROUTE 134", "city": "DALHOUSIE JUNCTION", "province": "NB", "country": "CA", "postalCode": "E3N6A3", "twitter": "None", "instagram": "None", "facebook": "None", "youtube": "None", "website": "None", "summary": "None", "logo": "None", "latitude": 47.98090978978428, "longitude": -66.69756807750102}, "119288918RR1279": {"name": "MOUNTAIN VIEW CONGREGATION OF JEHOVAH'S WITNESSES", "designationCode": "C", "categoryCode": "61", "address": "BOX 309", "city": "CHARLIE LAKE", "province": "BC", "country": "CA", "postalCode": "V0C1H0", "twitter": "None", "instagram": "None", "facebook": "None", "youtube": "None", "website": "None", "summary": "None", "logo": "None", "latitude": 56.27531717888656, "longitude": -120.954398172462}, "119288918RR1343": {"name": "MOUNTAIN VIEW CONGREGATION OF JEHOVAH'S WITNESSES, CRESTON, BC", "designationCode": "C", "categoryCode": "61", "address": "1323 NORTH WEST BOULEVARD", "city": "CRESTON", "province": "BC", "country": "CA", "postalCode": "V0B1G6", "twitter": "None", "instagram": "None", "facebook": "None", "youtube": "None", "website": "None", "summary": "None", "logo": "None", "latitude": 49.17655799999999, "longitude": -116.54670886322124}, "898948476RR0001": {"name": "MOUNTAIN VIEW EVANGELICAL FREE CHURCH OF SARDIS", "designationCode": "C", "categoryCode": "39", "address": "7476 VEDDER RD", "city": "CHILLIWACK", "province": "BC", "country": "CA", "postalCode": "V2R4E7", "twitter": "None", "instagram": "None", "facebook": "None", "youtube": "None", "website": "None", "summary": "None", "logo": "None", "latitude": 49.1375284052167, "longitude": -121.95880965246154}, "141088260RR0001": {"name": "MOUNTAIN VIEW FOOD BANK SOCIETY", "designationCode": "C", "categoryCode": "09", "address": "PO BOX 3958", "city": "OLDS", "province": "AB", "country": "CA", "postalCode": "T4H1P6", "twitter": "None", "instagram": "None", "facebook": "None", "youtube": "None", "website": "None", "summary": "None", "logo": "None", "latitude": 51.791613000000055, "longitude": -114.11061199999993}, "864234885RR0001": {"name": "MOUNTAIN VIEW HOUSING FOUNDATION", "designationCode": "A", "categoryCode": "03", "address": "301-6501 51 STREET", "city": "OLDS", "province": "AB", "country": "CA", "postalCode": "T4H1Y6", "twitter": "None", "instagram": "None", "facebook": "None", "youtube": "None", "website": "None", "summary": "None", "logo": "None", "latitude": 51.792441323474684, "longitude": -114.11270631202075}, "141146035RR0001": {"name": "MOUNTAIN VIEW LUTHERAN CHURCH", "designationCode": "C", "categoryCode": "32", "address": "244 191 RANGE ROAD 31", "city": "CALGARY", "province": "AB", "country": "CA", "postalCode": "T3Z3L8", "twitter": "None", "instagram": "None", "facebook": "None", "youtube": "None", "website": "None", "summary": "None", "logo": "None", "latitude": 51.07414505835365, "longitude": -114.3039871915634}, "132175548RR0001": {"name": "MOUNTAIN VIEW MISSIONARY CHURCH", "designationCode": "C", "categoryCode": "39", "address": "RR 2 SITE 11 PO BOX 10", "city": "DIDSBURY", "province": "AB", "country": "CA", "postalCode": "T0M0W0", "twitter": "None", "instagram": "None", "facebook": "None", "youtube": "None", "website": "None", "summary": "None", "logo": "None", "latitude": 51.66626100000006, "longitude": -114.13793149999994}, "107002826RR0003": {"name": "MOUNTAIN VIEW SCHOOL DIVISION", "designationCode": "C", "categoryCode": "20", "address": "BOX 715", "city": "DAUPHIN", "province": "MB", "country": "CA", "postalCode": "R7N3B3", "twitter": "None", "instagram": "None", "facebook": "None", "youtube": "None", "website": "None", "summary": "None", "logo": "None", "latitude": 51.150138000000055, "longitude": -100.04934049999993}, "867652455RR0001": {"name": "MOUNTAIN VIEW SENIORS' HOUSING", "designationCode": "C", "categoryCode": "09", "address": "301-6501 51 ST", "city": "OLDS", "province": "AB", "country": "CA", "postalCode": "T4H1Y6", "twitter": "None", "instagram": "None", "facebook": "None", "youtube": "None", "website": "None", "summary": "None", "logo": "None", "latitude": 51.79461000000006, "longitude": -114.13273849999993}, "106693047RR0014": {"name": "MOUNTAIN VIEW SEVENTH-DAY ADVENTIST CHURCH", "designationCode": "C", "categoryCode": "41", "address": "5816 HIGHWAY, 2A", "city": "LACOMBE", "province": "AB", "country": "CA", "postalCode": "T4L2G5", "twitter": "None", "instagram": "None", "facebook": "None", "youtube": "None", "website": "None", "summary": "None", "logo": "None", "latitude": 52.474063600197404, "longitude": -113.71692568401835}, "107726739RR0001": {"name": "MOUNTAIN VIEW UNITED CHURCH", "designationCode": "C", "categoryCode": "44", "address": "85 MACBEATH AVE.", "city": "MONCTON", "province": "NB", "country": "CA", "postalCode": "E1C6Z3", "twitter": "None", "instagram": "None", "facebook": "None", "youtube": "None", "website": "None", "summary": "None", "logo": "None", "latitude": 46.102907912574295, "longitude": -64.8055496905189}, "119047264RR0001": {"name": "MOUNTAIN VILLAGE RECREATIONAL VENTURES", "designationCode": "C", "categoryCode": "22", "address": "26 SISTER KERN TERRACE", "city": "HAMILTON", "province": "ON", "country": "CA", "postalCode": "L9B2M1", "twitter": "None", "instagram": "None", "facebook": "None", "youtube": "None", "website": "None", "summary": "None", "logo": "None", "latitude": 43.20097512129948, "longitude": -79.9091056470945}, "892077991RR0001": {"name": "MOUNTAINAIRE AVIAN RESCUE SOCIETY (MARS)", "designationCode": "C", "categoryCode": "54", "address": "PO BOX 415", "city": "MERVILLE", "province": "BC", "country": "CA", "postalCode": "V0R2M0", "twitter": "None", "instagram": "None", "facebook": "None", "youtube": "None", "website": "None", "summary": "None", "logo": "None", "latitude": 49.78135887533998, "longitude": -125.07321726876313}, "862602950RR0001": {"name": "MOUNTAINSIDE CHRISTIAN FELLOWSHIP", "designationCode": "C", "categoryCode": "39", "address": "P. O . BOX 639", "city": "NEEPAWA", "province": "MB", "country": "CA", "postalCode": "R0J1H0", "twitter": "None", "instagram": "None", "facebook": "None", "youtube": "None", "website": "None", "summary": "None", "logo": "None", "latitude": 50.22581100000005, "longitude": -99.48963949999994}, "108004193RR0001": {"name": "MOUNTAINSIDE UNITED CHURCH", "designationCode": "C", "categoryCode": "44", "address": "687 ROSLYN AVE", "city": "WESTMOUNT", "province": "QC", "country": "CA", "postalCode": "H3Y2V1", "twitter": "None", "instagram": "None", "facebook": "None", "youtube": "None", "website": "None", "summary": "None", "logo": "None", "latitude": 45.484826122684474, "longitude": -73.61193834234525}, "856664743RR0001": {"name": "MOUNTAINTOP LIFE COACHING", "designationCode": "C", "categoryCode": "45", "address": "21728 MONAHAN COURT", "city": "LANGLEY", "province": "BC", "country": "CA", "postalCode": "V3A8N1", "twitter": "None", "instagram": "None", "facebook": "None", "youtube": "None", "website": "None", "summary": "None", "logo": "None", "latitude": 49.08800250678069, "longitude": -122.62148044463038}, "863835286RR0001": {"name": "MOUNTAINVIEW BAPTIST CHURCH", "designationCode": "C", "categoryCode": "39", "address": "1981-9TH AVE NE", "city": "SALMON ARM", "province": "BC", "country": "CA", "postalCode": "V1E2L2", "twitter": "None", "instagram": "None", "facebook": "None", "youtube": "None", "website": "None", "summary": "None", "logo": "None", "latitude": 50.70633297771747, "longitude": -119.26325758777773}, "893264168RR0001": {"name": "MOUNTAINVIEW CHARITABLE TRUST", "designationCode": "B", "categoryCode": "39", "address": "3425 2 AVE S", "city": "LETHBRIDGE", "province": "AB", "country": "CA", "postalCode": "T1J4V1", "twitter": "None", "instagram": "None", "facebook": "None", "youtube": "None", "website": "None", "summary": "None", "logo": "None", "latitude": 49.696839530439966, "longitude": -112.78914308381903}, "130069164RR0001": {"name": "MOUNTAINVIEW CHRISTIAN REFORMED CHURCH OF GRIMSBY", "designationCode": "C", "categoryCode": "39", "address": "290 MAIN ST. E.", "city": "GRIMSBY", "province": "ON", "country": "CA", "postalCode": "L3M1P8", "twitter": "None", "instagram": "None", "facebook": "None", "youtube": "None", "website": "None", "summary": "None", "logo": "None", "latitude": 43.1850124828329, "longitude": -79.52197122300768}, "846320141RR0001": {"name": "MOUNTAINVIEW COMMUNITY A MINISTRY IN CALGARY", "designationCode": "C", "categoryCode": "39", "address": "1678 BAYWATER ST SW", "city": "AIRDRIE", "province": "AB", "country": "CA", "postalCode": "T4B0A7", "twitter": "None", "instagram": "None", "facebook": "None", "youtube": "None", "website": "None", "summary": "None", "logo": "None", "latitude": 51.278805000000006, "longitude": -114.03361010320876}, "119288918RR0672": {"name": "MOUNTAINVIEW CONGREGATION OF JEHOVAH'S WITNESSES", "designationCode": "C", "categoryCode": "61", "address": "511 E. 30TH AVE", "city": "VANCOUVER", "province": "BC", "country": "CA", "postalCode": "V5V2V7", "twitter": "None", "instagram": "None", "facebook": "None", "youtube": "None", "website": "None", "summary": "None", "logo": "None", "latitude": 49.24359951154119, "longitude": -123.09367008090484}, "119288918RR1418": {"name": "MOUNTAINVIEW CONGREGATION OF JEHOVAH'S WITNESSES", "designationCode": "C", "categoryCode": "61", "address": "100 RUE CLERMONT", "city": "CANTLEY", "province": "QC", "country": "CA", "postalCode": "J8V3W5", "twitter": "None", "instagram": "None", "facebook": "None", "youtube": "None", "website": "None", "summary": "None", "logo": "None", "latitude": 45.53607910294897, "longitude": -75.7653644956435}, "894222066RR0001": {"name": "MOUNTAINVIEW GRACE CHURCH", "designationCode": "C", "categoryCode": "34", "address": "4TH FLOOR, 116 - 2ND AVE SW", "city": "CALGARY", "province": "AB", "country": "CA", "postalCode": "T2P0B9", "twitter": "None", "instagram": "None", "facebook": "None", "youtube": "None", "website": "None", "summary": "None", "logo": "None", "latitude": 51.05125745325739, "longitude": -114.06357955536961}, "118824101RR0001": {"name": "MOUNTAINVIEW SPORTS & HANDICAPPED SOCIETY", "designationCode": "C", "categoryCode": "29", "address": "407 WOODSIDE RD SE", "city": "CALGARY", "province": "AB", "country": "CA", "postalCode": "T2W3J6", "twitter": "None", "instagram": "None", "facebook": "None", "youtube": "None", "website": "None", "summary": "None", "logo": "None", "latitude": 50.936461551089785, "longitude": -114.1141633011821}, "119047256RR0001": {"name": "MOUNTAINVIEW UNITED CHURCH", "designationCode": "C", "categoryCode": "44", "address": "150 GLENDALE AVENUE", "city": "ST. CATHARINES", "province": "ON", "country": "CA", "postalCode": "L2T2K1", "twitter": "None", "instagram": "None", "facebook": "None", "youtube": "None", "website": "None", "summary": "None", "logo": "None", "latitude": 43.13397057833737, "longitude": -79.23487389330013}, "865622617RR0001": {"name": "MOUNTED POLICE HERITAGE CENTRE", "designationCode": "C", "categoryCode": "50", "address": "5907 DEWDNEY AVE", "city": "REGINA", "province": "SK", "country": "CA", "postalCode": "S4T0P4", "twitter": "None", "instagram": "None", "facebook": "None", "youtube": "None", "website": "None", "summary": "None", "logo": "None", "latitude": 50.45503528864006, "longitude": -104.66614377550218}, "133245423RR0001": {"name": "MOUNTSBERG BAPTIST CHURCH", "designationCode": "C", "categoryCode": "31", "address": "387 CAMPBELLVILLE ROAD", "city": "CAMPBELLVILLE", "province": "ON", "country": "CA", "postalCode": "L0P1B0", "twitter": "None", "instagram": "None", "facebook": "None", "youtube": "None", "website": "None", "summary": "None", "logo": "None", "latitude": 43.50093730090552, "longitude": -79.96531664743944}, "107565764RR0001": {"name": "MOUTH OF KESWICK UNITED BAPTIST CHURCH", "designationCode": "C", "categoryCode": "31", "address": "181 RTE 616", "city": "KESWICK RIDGE", "province": "NB", "country": "CA", "postalCode": "E6L1R9", "twitter": "None", "instagram": "None", "facebook": "None", "youtube": "None", "website": "None", "summary": "None", "logo": "None", "latitude": 45.98147916990348, "longitude": -66.86770060778595}, "870159738RR0001": {"name": "MOUVANCE", "designationCode": "C", "categoryCode": "22", "address": "5245, RUE MILLS", "city": "SHERBROOKE", "province": "QC", "country": "CA", "postalCode": "J1N3B6", "twitter": "None", "instagram": "None", "facebook": "None", "youtube": "None", "website": "None", "summary": "None", "logo": "None", "latitude": 45.36222506356394, "longitude": -71.96746116377159}, "120393327RR0001": {"name": "MOUVEMENT ACTION CHOMAGE DE ST-HYACINTHE", "designationCode": "C", "categoryCode": "59", "address": "C.P. 613 SUCC. BUREAU CHEF", "city": "SAINT-HYACINTHE", "province": "QC", "country": "CA", "postalCode": "J2S7C2", "twitter": "None", "instagram": "None", "facebook": "None", "youtube": "None", "website": "None", "summary": "None", "logo": "None", "latitude": 45.62664000000005, "longitude": -72.94719049999993}, "103782579RR0001": {"name": "MOUVEMENT ACTION CHOMAGE LONGUEUIL INC.", "designationCode": "C", "categoryCode": "09", "address": "1194 MARQUETTE", "city": "LONGUEUIL", "province": "QC", "country": "CA", "postalCode": "J4K4H8", "twitter": "None", "instagram": "None", "facebook": "None", "youtube": "None", "website": "None", "summary": "None", "logo": "None", "latitude": 45.520719297795694, "longitude": -73.49837322398864}, "119048460RR0001": {"name": "MOUVEMENT ACTION CH\u00d4MAGE DE MONTR\u00c9AL INC.", "designationCode": "C", "categoryCode": "01", "address": "306-6839A RUE DROLET", "city": "MONTREAL", "province": "QC", "country": "CA", "postalCode": "H2S2T1", "twitter": "None", "instagram": "None", "facebook": "None", "youtube": "None", "website": "None", "summary": "None", "logo": "None", "latitude": 45.53598767224107, "longitude": -73.6115378120771}, "895445849RR0001": {"name": "MOUVEMENT ACTION DECOUVERTE POUR PERSONNES HANDICAPEES DE LAREGION DE CHATEAUGUAY", "designationCode": "C", "categoryCode": "59", "address": "25-B BOUL. ST-FRANCIS", "city": "CHATEAUGUAY", "province": "QC", "country": "CA", "postalCode": "J6J1Y2", "twitter": "None", "instagram": "None", "facebook": "None", "youtube": "None", "website": "None", "summary": "None", "logo": "None", "latitude": 45.36892888188236, "longitude": -73.74677726776476}, "865905053RR0001": {"name": "MOUVEMENT ACTION JUSTICE", "designationCode": "C", "categoryCode": "59", "address": "6970 AV CHRISTOPHE-COLOMB     BUREAU 202", "city": "MONTREAL", "province": "QC", "country": "CA", "postalCode": "H2S2H5", "twitter": "None", "instagram": "None", "facebook": "None", "youtube": "None", "website": "None", "summary": "None", "logo": "None", "latitude": 45.54129187067911, "longitude": -73.60942432800452}, "894510882RR0001": {"name": "MOUVEMENT ACTION LOISIRS (M.A.L.I.)", "designationCode": "C", "categoryCode": "09", "address": "1675 RUE SAINT-PIERRE O", "city": "SAINT-HYACINTHE", "province": "QC", "country": "CA", "postalCode": "J2T1P4", "twitter": "None", "instagram": "None", "facebook": "None", "youtube": "None", "website": "None", "summary": "None", "logo": "None", "latitude": 45.620225111028006, "longitude": -72.94172788304012}, "119048452RR0001": {"name": "MOUVEMENT ACTION-CH\u00d4MAGE CHARLEVOIX INC.", "designationCode": "C", "categoryCode": "59", "address": "105-367 RUE ST-ETIENNE", "city": "LA MALBAIE", "province": "QC", "country": "CA", "postalCode": "G5A1M3", "twitter": "None", "instagram": "None", "facebook": "None", "youtube": "None", "website": "None", "summary": "None", "logo": "None", "latitude": 47.65423718847008, "longitude": -70.14977797108924}, "130512007RR0001": {"name": "MOUVEMENT ACTION-CH\u00d4MAGE TROIS RIVI\u00c8RES", "designationCode": "C", "categoryCode": "59", "address": "1322 RUE STE-JULIE", "city": "TROIS-RIVI\u00c8RES", "province": "QC", "country": "CA", "postalCode": "G9A1Y6", "twitter": "None", "instagram": "None", "facebook": "None", "youtube": "None", "website": "None", "summary": "None", "logo": "None", "latitude": 46.35120077130817, "longitude": -72.54992913362007}, "106730336RR0001": {"name": "MOUVEMENT ATD QUART MONDE DU CANADA-ATD FOURTH WORLD MOVE MENT IN CANADA", "designationCode": "C", "categoryCode": "09", "address": "6747 RUE DROLET", "city": "MONTREAL", "province": "QC", "country": "CA", "postalCode": "H2S2T1", "twitter": "None", "instagram": "None", "facebook": "None", "youtube": "None", "website": "None", "summary": "None", "logo": "None", "latitude": 45.53526315932818, "longitude": -73.61010949887482}, "123651937RR0001": {"name": "MOUVEMENT CONTRE LE VIOL ET L'INCESTE/COLLECTIF DE FEMMES DE MONTREAL", "designationCode": "C", "categoryCode": "09", "address": "CP 50009 COMPTOIR POSTAL JARRY", "city": "MONTREAL", "province": "QC", "country": "CA", "postalCode": "H2P0A1", "twitter": "None", "instagram": "None", "facebook": "None", "youtube": "None", "website": "None", "summary": "None", "logo": "None", "latitude": 45.54238200000006, "longitude": -73.63365199999993}, "888726866RR0001": {"name": "MOUVEMENT CURSILLO SECTEUR DE TROIS-RIVIERES", "designationCode": "C", "categoryCode": "49", "address": "3370 C\u00d4TE-ROSEMONT", "city": "TROIS-RIVI\u00c8RES", "province": "QC", "country": "CA", "postalCode": "G8Y4N6", "twitter": "None", "instagram": "None", "facebook": "None", "youtube": "None", "website": "None", "summary": "None", "logo": "None", "latitude": 46.34346465779898, "longitude": -72.59482634635597}, "103782629RR0001": {"name": "MOUVEMENT D'ACTION DES HANDICAP\u00c9S DE GRANBY ET LA R\u00c9GION INC.", "designationCode": "C", "categoryCode": "09", "address": "33 FAIRFIELD", "city": "GRANBY", "province": "QC", "country": "CA", "postalCode": "J2G3B3", "twitter": "None", "instagram": "None", "facebook": "None", "youtube": "None", "website": "None", "summary": "None", "logo": "None", "latitude": 45.405877114663035, "longitude": -72.7177003780367}, "862085834RR0001": {"name": "MOUVEMENT D'AIDE PARALYSIE CEREBRALE ESTRIE", "designationCode": "C", "categoryCode": "11", "address": "1 - 84 RUE HENEKER", "city": "SHERBROOKE", "province": "QC", "country": "CA", "postalCode": "J1J3G3", "twitter": "None", "instagram": "None", "facebook": "None", "youtube": "None", "website": "None", "summary": "None", "logo": "None", "latitude": 45.40015732944775, "longitude": -71.91468388868384}, "119028827RR0001": {"name": "MOUVEMENT D'AMOUR AU CANADA - MOVEMENT OF LOVE IN CANADA", "designationCode": "C", "categoryCode": "46", "address": "900 RTE 222", "city": "RACINE", "province": "QC", "country": "CA", "postalCode": "J0E1Y0", "twitter": "None", "instagram": "None", "facebook": "None", "youtube": "None", "website": "None", "summary": "None", "logo": "None", "latitude": 45.46657460560335, "longitude": -72.16036560421836}, "894073899RR0001": {"name": "MOUVEMENT D'ENTRAIDE DE BELLEFEUILLE (M.E.B.)", "designationCode": "C", "categoryCode": "09", "address": "301-1020 RUE JEAN-LOUIS", "city": "ST-JEROME", "province": "QC", "country": "CA", "postalCode": "J5L1R7", "twitter": "None", "instagram": "None", "facebook": "None", "youtube": "None", "website": "None", "summary": "None", "logo": "None", "latitude": 45.786642944514824, "longitude": -74.07734597810011}, "103782652RR0001": {"name": "MOUVEMENT D'ENTRAIDE DES CANTONS-UNIS", "designationCode": "C", "categoryCode": "09", "address": "9 CH. DE L'AVENTURE", "city": "STONEHAM", "province": "QC", "country": "CA", "postalCode": "G3C2R9", "twitter": "None", "instagram": "None", "facebook": "None", "youtube": "None", "website": "None", "summary": "None", "logo": "None", "latitude": 47.00136406189049, "longitude": -71.34696355744708}, "107701484RR0001": {"name": "MOUVEMENT D'INFORMATION ET D'ENTRAIDE DANS LA LUTTE CONTRE LE VIH-SIDA \u00c0 QU\u00c9BEC (MIELS-QU\u00c9BEC)", "designationCode": "C", "categoryCode": "59", "address": "625 AV.CHOUINARD", "city": "QUEBEC", "province": "QC", "country": "CA", "postalCode": "G1S3E3", "twitter": "None", "instagram": "None", "facebook": "None", "youtube": "None", "website": "None", "summary": "None", "logo": "None", "latitude": 46.80153723870381, "longitude": -71.24338351246482}, "140725805RR0001": {"name": "MOUVEMENT DE LA REL\u00c8VE D'AMOS-R\u00c9GION INC.", "designationCode": "C", "categoryCode": "59", "address": "461, 1ERE RUE OUEST", "city": "AMOS", "province": "QC", "country": "CA", "postalCode": "J9T2M3", "twitter": "None", "instagram": "None", "facebook": "None", "youtube": "None", "website": "None", "summary": "None", "logo": "None", "latitude": 48.57094517234126, "longitude": -78.11928716241526}, "130521479RR0001": {"name": "MOUVEMENT DES AMIS DE LA RIVIERE DU SUD", "designationCode": "C", "categoryCode": "59", "address": "C.P. 1498                     21 CHANOINE-AUDET", "city": "SAINT-RAPHAEL", "province": "QC", "country": "CA", "postalCode": "G0R4C0", "twitter": "None", "instagram": "None", "facebook": "None", "youtube": "None", "website": "None", "summary": "None", "logo": "None", "latitude": 46.794472952536246, "longitude": -70.75558754899298}, "890522063RR0001": {"name": "MOUVEMENT DES CURSILLOS ALEXANDRIA-CORNWALL", "designationCode": "C", "categoryCode": "49", "address": "434 LEITCH DRIVE", "city": "CORNWALL", "province": "ON", "country": "CA", "postalCode": "K6H5P4", "twitter": "None", "instagram": "None", "facebook": "None", "youtube": "None", "website": "None", "summary": "None", "logo": "None", "latitude": 45.03580541494021, "longitude": -74.69120114972023}, "886673391RR0001": {"name": "MOUVEMENT DES CURSILLOS DE ST-JEAN-LONGUEUIL INC.", "designationCode": "C", "categoryCode": "49", "address": "162 RUE ROUVILLE", "city": "LONGUEUIL", "province": "QC", "country": "CA", "postalCode": "J4K2W2", "twitter": "None", "instagram": "None", "facebook": "None", "youtube": "None", "website": "None", "summary": "None", "logo": "None", "latitude": 45.51848704633858, "longitude": -73.51877118971083}, "119048601RR0001": {"name": "MOUVEMENT DES CURSILLOS DIOCESE DE JOLIETTE", "designationCode": "C", "categoryCode": "49", "address": "84, RUE RONDEAU", "city": "L'\u00c9PIPHANIE", "province": "QC", "country": "CA", "postalCode": "J5X2R5", "twitter": "None", "instagram": "None", "facebook": "None", "youtube": "None", "website": "None", "summary": "None", "logo": "None", "latitude": 45.85376646462569, "longitude": -73.48660160548778}, "132254004RR0001": {"name": "MOUVEMENT DES CURSILLOS DIOCESE DE MONCTON", "designationCode": "C", "categoryCode": "49", "address": "317B DOMINION ST", "city": "MONCTON", "province": "NB", "country": "CA", "postalCode": "E1C6H7", "twitter": "None", "instagram": "None", "facebook": "None", "youtube": "None", "website": "None", "summary": "None", "logo": "None", "latitude": 46.09587532236095, "longitude": -64.79459938366229}, "888827649RR0001": {"name": "MOUVEMENT DES CURSILLOS DIOCESE DE STE ANNE DE LA POCATIERE", "designationCode": "C", "categoryCode": "49", "address": "57, CAP MARTEAU", "city": "TROIS-PISTOLES", "province": "QC", "country": "CA", "postalCode": "G0L4K0", "twitter": "None", "instagram": "None", "facebook": "None", "youtube": "None", "website": "None", "summary": "None", "logo": "None", "latitude": 48.164346046533325, "longitude": -69.13411714037288}, "107728131RR0001": {"name": "MOUVEMENT DES CURSILLOS DIOCESE VALLEYFIELD INC.", "designationCode": "C", "categoryCode": "49", "address": "49 RUE FRANCOIS-BRANCHAUD", "city": "BEAUHARNOIS", "province": "QC", "country": "CA", "postalCode": "J6N1J2", "twitter": "None", "instagram": "None", "facebook": "None", "youtube": "None", "website": "None", "summary": "None", "logo": "None", "latitude": 45.32447395334431, "longitude": -73.83522091545981}, "107728180RR0001": {"name": "MOUVEMENT DES CURSILLOS DU SECTEUR DE SAINT-JEROME INC.", "designationCode": "C", "categoryCode": "49", "address": "273 PREISING", "city": "ST-EUSTACHE", "province": "QC", "country": "CA", "postalCode": "J7R2X3", "twitter": "None", "instagram": "None", "facebook": "None", "youtube": "None", "website": "None", "summary": "None", "logo": "None", "latitude": 45.56038969331753, "longitude": -73.90570180570154}, "119048635RR0001": {"name": "MOUVEMENT DES CURSILLOS FRANCOPHONES DU CANADA", "designationCode": "C", "categoryCode": "49", "address": "6254 AV DE CHEMILLE", "city": "ANJOU", "province": "QC", "country": "CA", "postalCode": "H1M1T2", "twitter": "None", "instagram": "None", "facebook": "None", "youtube": "None", "website": "None", "summary": "None", "logo": "None", "latitude": 45.59593653093092, "longitude": -73.5490710251312}, "107728172RR0001": {"name": "MOUVEMENT DES CURSILLOS SECTEUR DE MONTREAL", "designationCode": "C", "categoryCode": "49", "address": "538 AVE WILLIAM-DAVID", "city": "MONTREAL", "province": "QC", "country": "CA", "postalCode": "H1V2R3", "twitter": "None", "instagram": "None", "facebook": "None", "youtube": "None", "website": "None", "summary": "None", "logo": "None", "latitude": 45.55198027947382, "longitude": -73.53182240994856}, "119048643RR0001": {"name": "MOUVEMENT DES CURSILLOS SECTEUR DE QUEBEC", "designationCode": "C", "categoryCode": "49", "address": "1073 BOUL RENE-LEVESQUE O", "city": "SILLERY", "province": "QC", "country": "CA", "postalCode": "G1S4R5", "twitter": "None", "instagram": "None", "facebook": "None", "youtube": "None", "website": "None", "summary": "None", "logo": "None", "latitude": 46.79480836547074, "longitude": -71.24324980090242}, "119048668RR0001": {"name": "MOUVEMENT DES CURSILLOS SECTEUR OUTAOUAIS", "designationCode": "C", "categoryCode": "49", "address": "108, RUE DU GRAND-HUNIER", "city": "GATINEAU", "province": "QC", "country": "CA", "postalCode": "J9H6T8", "twitter": "None", "instagram": "None", "facebook": "None", "youtube": "None", "website": "None", "summary": "None", "logo": "None", "latitude": 45.40659856506448, "longitude": -75.86913713183107}, "103782678RR0001": {"name": "MOUVEMENT DES CURSILLOS, DIOCESE DE NICOLET", "designationCode": "C", "categoryCode": "49", "address": "2110 RUE ST-JACQUES", "city": "DRUMMONDVILLE", "province": "QC", "country": "CA", "postalCode": "J2B7T6", "twitter": "None", "instagram": "None", "facebook": "None", "youtube": "None", "website": "None", "summary": "None", "logo": "None", "latitude": 45.857724496797346, "longitude": -72.45620785097225}, "899688063RR0001": {"name": "MOUVEMENT DES PERSONNES D'ABORD DE DRUMMONDVILLE", "designationCode": "C", "categoryCode": "09", "address": "255 RUE BROCK                 LOCAL 429", "city": "DRUMMONDVILLE", "province": "QC", "country": "CA", "postalCode": "J2C1M5", "twitter": "None", "instagram": "None", "facebook": "None", "youtube": "None", "website": "None", "summary": "None", "logo": "None", "latitude": 45.88389463108206, "longitude": -72.48787668869153}, "107728206RR0001": {"name": "MOUVEMENT DES SERVICES A LA COMMUNAUTE DU CAP-ROUGE", "designationCode": "C", "categoryCode": "09", "address": "4473, RUE SAINT-FELIX", "city": "QUEBEC", "province": "QC", "country": "CA", "postalCode": "G1Y3A6", "twitter": "None", "instagram": "None", "facebook": "None", "youtube": "None", "website": "None", "summary": "None", "logo": "None", "latitude": 46.741389298892194, "longitude": -71.35496781995536}, "107728214RR0001": {"name": "MOUVEMENT DES TRAVAILLEURS CHRETIENS", "designationCode": "C", "categoryCode": "49", "address": "3115 RUE MONSABR\u00c9", "city": "MONTR\u00c9AL", "province": "QC", "country": "CA", "postalCode": "H1N2L3", "twitter": "None", "instagram": "None", "facebook": "None", "youtube": "None", "website": "None", "summary": "None", "logo": "None", "latitude": 45.573139727739544, "longitude": -73.54546391811421}, "872553516RR0001": {"name": "MOUVEMENT DU GRAAL CANADA/GRAIL MOVEMENT CANADA", "designationCode": "C", "categoryCode": "47", "address": "C.P.3572", "city": "CH\u00c9N\u00c9VILLE", "province": "QC", "country": "CA", "postalCode": "J0V1E0", "twitter": "None", "instagram": "None", "facebook": "None", "youtube": "None", "website": "None", "summary": "None", "logo": "None", "latitude": 45.89921400000006, "longitude": -75.04229149999993}, "125754838RR0001": {"name": "MOUVEMENT ECOLOGIQUE DU HAUT-RICHELIEU", "designationCode": "C", "categoryCode": "59", "address": "5-6000, 39IEME AVENUE", "city": "MONTREAL", "province": "QC", "country": "CA", "postalCode": "H1T2W5", "twitter": "None", "instagram": "None", "facebook": "None", "youtube": "None", "website": "None", "summary": "None", "logo": "None", "latitude": 45.570874499999995, "longitude": -73.56627674999999}, "894334887RR0001": {"name": "MOUVEMENT FRATERNITE MULTI-ETHNIQUE INC.", "designationCode": "C", "categoryCode": "09", "address": "307-5967 JEAN-TALON EST", "city": "ST-L\u00c9ONARD", "province": "QC", "country": "CA", "postalCode": "H1S1M5", "twitter": "None", "instagram": "None", "facebook": "None", "youtube": "None", "website": "None", "summary": "None", "logo": "None", "latitude": 45.586584617548574, "longitude": -73.57931159536022}, "862788981RR0001": {"name": "MOUVEMENT HUMANISATION", "designationCode": "C", "categoryCode": "21", "address": "CP 9155", "city": "QUEBEC", "province": "QC", "country": "CA", "postalCode": "G1V4B1", "twitter": "None", "instagram": "None", "facebook": "None", "youtube": "None", "website": "None", "summary": "None", "logo": "None", "latitude": 46.77846900000006, "longitude": -71.29340449999994}, "889444378RR0001": {"name": "MOUVEMENT JEUNESSE DE ST-GEORGES", "designationCode": "C", "categoryCode": "09", "address": "400 MGR L'HEUREUX", "city": "WOTTON", "province": "QC", "country": "CA", "postalCode": "J0A1N0", "twitter": "None", "instagram": "None", "facebook": "None", "youtube": "None", "website": "None", "summary": "None", "logo": "None", "latitude": 45.73592634867702, "longitude": -71.81052690684935}, "107728255RR0001": {"name": "MOUVEMENT JEUNESSE MONTREAL-NORD", "designationCode": "C", "categoryCode": "59", "address": "11121 RUE SALK", "city": "MONTREAL-NORD", "province": "QC", "country": "CA", "postalCode": "H1G4Y3", "twitter": "None", "instagram": "None", "facebook": "None", "youtube": "None", "website": "None", "summary": "None", "logo": "None", "latitude": 45.601477992526846, "longitude": -73.62348839907119}, "119048734RR0001": {"name": "MOUVEMENT LA FLAMBEE SHERBROOKE INC.", "designationCode": "C", "categoryCode": "49", "address": "130 RUE DE LA CATHEDRALE", "city": "SHERBROOKE", "province": "QC", "country": "CA", "postalCode": "J1H5K1", "twitter": "None", "instagram": "None", "facebook": "None", "youtube": "None", "website": "None", "summary": "None", "logo": "None", "latitude": 45.40215780019028, "longitude": -71.89345627151064}, "897930376RR0001": {"name": "MOUVEMENT ORGANISE DES MERES SOLIDAIRES (M.O.M.S.)", "designationCode": "C", "categoryCode": "09", "address": "640, RUE LANGLOIS             BUREAU 1", "city": "TERREBONNE", "province": "QC", "country": "CA", "postalCode": "J6W4P3", "twitter": "None", "instagram": "None", "facebook": "None", "youtube": "None", "website": "None", "summary": "None", "logo": "None", "latitude": 45.697046692163674, "longitude": -73.63250667456296}, "107728271RR0001": {"name": "MOUVEMENT POUR LA VALORISATION DU PATRIMOINE NATUREL DES ILES-DE-LA-MADELEINE INC.", "designationCode": "C", "categoryCode": "52", "address": "350-202 CHEMIN PRINCIPAL", "city": "CAP-AUX-MEULES", "province": "QC", "country": "CA", "postalCode": "G4T1C9", "twitter": "None", "instagram": "None", "facebook": "None", "youtube": "None", "website": "None", "summary": "None", "logo": "None", "latitude": 47.3799096907787, "longitude": -61.860951107652156}, "119048759RR0001": {"name": "MOUVEMENT QUEBECOIS DES VACANCES FAMILIALES", "designationCode": "C", "categoryCode": "56", "address": "4545 AV PIERRE-DE COUBERTIN", "city": "MONTREAL", "province": "QC", "country": "CA", "postalCode": "H1V0B2", "twitter": "None", "instagram": "None", "facebook": "None", "youtube": "None", "website": "None", "summary": "None", "logo": "None", "latitude": 45.555920590080106, "longitude": -73.55036240097485}, "107728297RR0001": {"name": "MOUVEMENT S.E.M. (SENSIBILISATION A L'ENFANCE MALTRAITEE)", "designationCode": "C", "categoryCode": "09", "address": "366, RUE LAURIER", "city": "SAINT-JEAN-SUR-RICHELIEU", "province": "QC", "country": "CA", "postalCode": "J3B6L3", "twitter": "None", "instagram": "None", "facebook": "None", "youtube": "None", "website": "None", "summary": "None", "logo": "None", "latitude": 45.31106331196261, "longitude": -73.25659020996594}, "119048767RR0001": {"name": "MOUVEMENT SACERDOTAL MARIAL INC.", "designationCode": "C", "categoryCode": "49", "address": "2356, SHIRLEY", "city": "LASALLE", "province": "QC", "country": "CA", "postalCode": "H8N1E6", "twitter": "None", "instagram": "None", "facebook": "None", "youtube": "None", "website": "None", "summary": "None", "logo": "None", "latitude": 45.440541724104214, "longitude": -73.62799214031384}, "120825583RR0001": {"name": "MOUVEMENT VERT MAURICIE INC", "designationCode": "C", "categoryCode": "59", "address": "521 LAC BELLEMARE", "city": "ST-MATHIEU-DU-PARC", "province": "QC", "country": "CA", "postalCode": "G0X1N0", "twitter": "None", "instagram": "None", "facebook": "None", "youtube": "None", "website": "None", "summary": "None", "logo": "None", "latitude": 46.582525717222154, "longitude": -72.93169509816619}, "867999898RR0001": {"name": "MOVEMENT CENTRE OF MANITOBA INC.", "designationCode": "C", "categoryCode": "11", "address": "1646 HENDERSON HWY", "city": "WINNIPEG", "province": "MB", "country": "CA", "postalCode": "R2G1N7", "twitter": "None", "instagram": "None", "facebook": "None", "youtube": "None", "website": "None", "summary": "None", "logo": "None", "latitude": 49.95078858177022, "longitude": -97.0802795797214}, "825313877RR0001": {"name": "MOVEMENT DANCE PRODUCTIONS SOCIETY", "designationCode": "C", "categoryCode": "22", "address": "PO BOX 93556 STN. NELSON PARK", "city": "VANCOUVER", "province": "BC", "country": "CA", "postalCode": "V6E4L7", "twitter": "None", "instagram": "None", "facebook": "None", "youtube": "None", "website": "None", "summary": "None", "logo": "None", "latitude": 49.282980000000066, "longitude": -123.13087999999999}, "871372819RR0001": {"name": "MOVEMENT ENTERPRISES SOCIETY", "designationCode": "C", "categoryCode": "22", "address": "323-425 WEST 8TH AVE", "city": "VANCOUVER", "province": "BC", "country": "CA", "postalCode": "V5Y3Z5", "twitter": "None", "instagram": "None", "facebook": "None", "youtube": "None", "website": "None", "summary": "None", "logo": "None", "latitude": 49.264009966832404, "longitude": -123.11341905821155}, "867922924RR0001": {"name": "MOVIE MONDAY SOCIETY", "designationCode": "C", "categoryCode": "11", "address": "2033 CHAUCER STREET", "city": "VICTORIA", "province": "BC", "country": "CA", "postalCode": "V8R1H6", "twitter": "None", "instagram": "None", "facebook": "None", "youtube": "None", "website": "None", "summary": "None", "logo": "None", "latitude": 48.427157536211034, "longitude": -123.32156369608748}, "890231772RR0001": {"name": "MOWBRAY AND DORIS SIFTON FAMILY FOUNDATION", "designationCode": "B", "categoryCode": "05", "address": "P.O. BOX 5099", "city": "LONDON", "province": "ON", "country": "CA", "postalCode": "N6A4M8", "twitter": "None", "instagram": "None", "facebook": "None", "youtube": "None", "website": "None", "summary": "None", "logo": "None", "latitude": 42.98689500000006, "longitude": -81.24624349999993}, "888748548RR0001": {"name": "MOZART PIONEER CEMETERY", "designationCode": "C", "categoryCode": "59", "address": "PO BOX 41", "city": "MOZART", "province": "SK", "country": "CA", "postalCode": "S0A2S0", "twitter": "None", "instagram": "None", "facebook": "None", "youtube": "None", "website": "None", "summary": "None", "logo": "None", "latitude": 51.777270000000044, "longitude": -103.99038999999999}, "108167487RR0001": {"name": "MPA - MOTIVATION, POWER & ACHIEVEMENT SOCIETY", "designationCode": "C", "categoryCode": "11", "address": "122 POWELL ST", "city": "VANCOUVER", "province": "BC", "country": "CA", "postalCode": "V6A1G1", "twitter": "None", "instagram": "None", "facebook": "None", "youtube": "None", "website": "None", "summary": "None", "logo": "None", "latitude": 49.283137108407125, "longitude": -123.10159770096055}, "856570361RR0001": {"name": "MR VISION OF HOPE INC.", "designationCode": "C", "categoryCode": "49", "address": "851 UNIVERSITY DR", "city": "SASKATOON", "province": "SK", "country": "CA", "postalCode": "S7N0J8", "twitter": "None", "instagram": "None", "facebook": "None", "youtube": "None", "website": "None", "summary": "None", "logo": "None", "latitude": 52.12564248017759, "longitude": -106.65035371651547}, "119303956RR0001": {"name": "MR. AND MRS. P.A. WOODWARD'S FOUNDATION", "designationCode": "B", "categoryCode": "03", "address": "300-1055 WEST HASTINGS STREET", "city": "VANCOUVER", "province": "BC", "country": "CA", "postalCode": "V6E2E9", "twitter": "None", "instagram": "None", "facebook": "None", "youtube": "None", "website": "None", "summary": "None", "logo": "None", "latitude": 49.2875699392347, "longitude": -123.11848196099034}, "806440343RR0001": {"name": "MR. GREEK RESTAURANTS CHARITABLE FOUNDATION", "designationCode": "A", "categoryCode": "03", "address": "44 UPJOHN ROAD", "city": "TORONTO", "province": "ON", "country": "CA", "postalCode": "M3B2W1", "twitter": "None", "instagram": "None", "facebook": "None", "youtube": "None", "website": "None", "summary": "None", "logo": "None", "latitude": 43.75138386926548, "longitude": -79.34943594884264}, "119048874RR0001": {"name": "MSA SOCIETY FOR COMMUNITY LIVING", "designationCode": "C", "categoryCode": "11", "address": "2391 CRESCENT WAY", "city": "ABBOTSFORD", "province": "BC", "country": "CA", "postalCode": "V2S3M1", "twitter": "None", "instagram": "None", "facebook": "None", "youtube": "None", "website": "None", "summary": "None", "logo": "None", "latitude": 49.04528578074324, "longitude": -122.29744350502031}, "119042489RR0001": {"name": "MSC CANADA", "designationCode": "C", "categoryCode": "47", "address": "101 AMBER STREET              UNIT 16", "city": "MARKHAM", "province": "ON", "country": "CA", "postalCode": "L3R3B2", "twitter": "None", "instagram": "None", "facebook": "None", "youtube": "None", "website": "None", "summary": "None", "logo": "None", "latitude": 43.828189852011455, "longitude": -79.33134708102041}, "889602595RR0001": {"name": "MSGR J H INGOLDSBY COUNCIL NO 9079 CHARITABLE TRUST", "designationCode": "A", "categoryCode": "65", "address": "162 LESLIE STREET", "city": "TORONTO", "province": "ON", "country": "CA", "postalCode": "M4M3C7", "twitter": "None", "instagram": "None", "facebook": "None", "youtube": "None", "website": "None", "summary": "None", "logo": "None", "latitude": 43.665017972791325, "longitude": -79.33102314340091}, "899280127RR0001": {"name": "MSGR PAUL BAXTER MEMORIAL FOUNDATION", "designationCode": "A", "categoryCode": "23", "address": "P.O. BOX 34096 RPO STRANDHERD", "city": "NEPEAN", "province": "ON", "country": "CA", "postalCode": "K2J5B1", "twitter": "None", "instagram": "None", "facebook": "None", "youtube": "None", "website": "None", "summary": "None", "logo": "None", "latitude": 45.26117124162326, "longitude": -75.76209596214083}, "869340844RR0001": {"name": "MSGR. GODIN CHARITIES INC./LES CHARITES MGR. GODIN INC.", "designationCode": "C", "categoryCode": "21", "address": "39 MARMEN STREET", "city": "EDMUNDSTON", "province": "NB", "country": "CA", "postalCode": "E3V2H3", "twitter": "None", "instagram": "None", "facebook": "None", "youtube": "None", "website": "None", "summary": "None", "logo": "None", "latitude": 47.365038283917215, "longitude": -68.3450048131451}, "871966842RR0001": {"name": "MSGR. RUDY VILLENEUVE FOUNDATION", "designationCode": "C", "categoryCode": "21", "address": "B. P. 219", "city": "LANCASTER", "province": "ON", "country": "CA", "postalCode": "K0C1N0", "twitter": "None", "instagram": "None", "facebook": "None", "youtube": "None", "website": "None", "summary": "None", "logo": "None", "latitude": 45.256231809853304, "longitude": -74.59372027289841}, "853468049RR0001": {"name": "MSGR. STEPHEN FOERSTER COUNCIL NO. 6024 CHARITABLE WELFARE TRUST", "designationCode": "A", "categoryCode": "03", "address": "12 HOMESTEAD DR.", "city": "MARYHILL", "province": "ON", "country": "CA", "postalCode": "N0B2B0", "twitter": "None", "instagram": "None", "facebook": "None", "youtube": "None", "website": "None", "summary": "None", "logo": "None", "latitude": 43.53790114301964, "longitude": -80.3944218438128}, "871872511RR0001": {"name": "MSI CANADA CHRISTIAN MISSIONS SOCIETY", "designationCode": "C", "categoryCode": "47", "address": "406-1055 WEST BROADWAY", "city": "VANCOUVER", "province": "BC", "country": "CA", "postalCode": "V6H1E2", "twitter": "None", "instagram": "None", "facebook": "None", "youtube": "None", "website": "None", "summary": "None", "logo": "None", "latitude": 49.2634524532574, "longitude": -123.1278027485429}, "826096265RR0001": {"name": "MSS Community Housing Corporation", "designationCode": "C", "categoryCode": "59", "address": "504 OAKWOOD AVENUE,", "city": "TORONTO", "province": "ON", "country": "CA", "postalCode": "M6E2X1", "twitter": "None", "instagram": "None", "facebook": "None", "youtube": "None", "website": "None", "summary": "None", "logo": "None", "latitude": 43.691590771019705, "longitude": -79.44039328784102}}