{"118796002RR0001": {"name": "ATLANTIC CANADA ASSOCIATION OF FREE WILL BAPTISTS", "designationCode": "C", "categoryCode": "31", "address": "P.O. BOX 855", "city": "HARTLAND", "province": "NB", "country": "CA", "postalCode": "E7P3K4", "twitter": "None", "instagram": "None", "facebook": "None", "youtube": "None", "website": "None", "summary": "None", "logo": "None", "latitude": 46.297743000000054, "longitude": -67.52770099999994}, "130750862RR0001": {"name": "ATLANTIC CANADA AVIATION MUSEUM SOCIETY", "designationCode": "C", "categoryCode": "50", "address": "PO BOX 44006                  1658 BEDFORD HWY", "city": "BEDFORD", "province": "NS", "country": "CA", "postalCode": "B4A3X5", "twitter": "None", "instagram": "None", "facebook": "None", "youtube": "None", "website": "None", "summary": "None", "logo": "None", "latitude": 44.73586941081393, "longitude": -63.654844949966886}, "874293913RR0001": {"name": "ATLANTIC CEMETERY CLUB", "designationCode": "C", "categoryCode": "59", "address": "PO BOX 64", "city": "STONEY ISLAND", "province": "NS", "country": "CA", "postalCode": "B0W3J0", "twitter": "None", "instagram": "None", "facebook": "None", "youtube": "None", "website": "None", "summary": "None", "logo": "None", "latitude": 43.50776346320697, "longitude": -65.5990622895017}, "871631768RR0001": {"name": "ATLANTIC CHAN BUDDHIST ASSOCIATION", "designationCode": "C", "categoryCode": "35", "address": "2145 WINDSOR STREET", "city": "HALIFAX", "province": "NS", "country": "CA", "postalCode": "B3K5B5", "twitter": "None", "instagram": "None", "facebook": "None", "youtube": "None", "website": "None", "summary": "None", "logo": "None", "latitude": 44.64946211102771, "longitude": -63.59443487717132}, "118796044RR0001": {"name": "ATLANTIC CHRISTIAN ASHRAM", "designationCode": "C", "categoryCode": "49", "address": "189 PLEASANT VALLEY RD", "city": "BERWICK", "province": "NS", "country": "CA", "postalCode": "B0P1E0", "twitter": "None", "instagram": "None", "facebook": "None", "youtube": "None", "website": "None", "summary": "None", "logo": "None", "latitude": 45.066872975849755, "longitude": -64.73838814155364}, "119213890RR0001": {"name": "ATLANTIC CHRISTIAN TRAINING CENTRE", "designationCode": "C", "categoryCode": "20", "address": "259 LOOP HWY 6 LOOP", "city": "TATAMAGOUCHE", "province": "NS", "country": "CA", "postalCode": "B0K1V0", "twitter": "None", "instagram": "None", "facebook": "None", "youtube": "None", "website": "None", "summary": "None", "logo": "None", "latitude": 45.72107542770611, "longitude": -63.30196640359705}, "135979722RR0001": {"name": "ATLANTIC COASTAL ACTION PROGRAM (ACAP) SAINT JOHN INC.", "designationCode": "C", "categoryCode": "52", "address": "323 - 139 PRINCE EDWARD ST", "city": "SAINT JOHN", "province": "NB", "country": "CA", "postalCode": "E2L3S3", "twitter": "None", "instagram": "None", "facebook": "None", "youtube": "None", "website": "None", "summary": "None", "logo": "None", "latitude": 45.277704498325065, "longitude": -66.05411941034717}, "140801580RR0001": {"name": "ATLANTIC COASTAL ACTION PROGRAM-CAPE BRETON", "designationCode": "C", "categoryCode": "56", "address": "PO BOX 28 STN A", "city": "SYDNEY", "province": "NS", "country": "CA", "postalCode": "B1P6G9", "twitter": "None", "instagram": "None", "facebook": "None", "youtube": "None", "website": "None", "summary": "None", "logo": "None", "latitude": 46.137372000000056, "longitude": -60.19552249999994}, "130319064RR0001": {"name": "ATLANTIC FILM FESTIVAL ASSOCIATION", "designationCode": "C", "categoryCode": "22", "address": "PO BOX 36139 RPO SPRING GARDEN", "city": "HALIFAX", "province": "NS", "country": "CA", "postalCode": "B3J3S9", "twitter": "None", "instagram": "None", "facebook": "None", "youtube": "None", "website": "None", "summary": "None", "logo": "None", "latitude": 44.64321800521938, "longitude": -63.57617228611219}, "135608891RR0001": {"name": "ATLANTIC FILMMAKERS CO-OPERATIVE LIMITED", "designationCode": "C", "categoryCode": "22", "address": "PO BOX 2043                   STATION M", "city": "HALIFAX", "province": "NS", "country": "CA", "postalCode": "B3J2Z1", "twitter": "None", "instagram": "None", "facebook": "None", "youtube": "None", "website": "None", "summary": "None", "logo": "None", "latitude": 44.645478000000054, "longitude": -63.576552499999934}, "106736283RR0001": {"name": "ATLANTIC GARDEN CITY UNITED CHURCH", "designationCode": "C", "categoryCode": "44", "address": "725 ATLANTIC AVE", "city": "WINNIPEG", "province": "MB", "country": "CA", "postalCode": "R2W0S6", "twitter": "None", "instagram": "None", "facebook": "None", "youtube": "None", "website": "None", "summary": "None", "logo": "None", "latitude": 49.93241394644806, "longitude": -97.14618534442272}, "889918686RR0001": {"name": "ATLANTIC GEOSCIENCE SOCIETY", "designationCode": "C", "categoryCode": "21", "address": "1 CHALLENGER DRIVE", "city": "DARTMOUTH", "province": "NS", "country": "CA", "postalCode": "B2Y4A2", "twitter": "None", "instagram": "None", "facebook": "None", "youtube": "None", "website": "None", "summary": "None", "logo": "None", "latitude": 44.6833097082925, "longitude": -63.61113779560264}, "899314686RR0001": {"name": "ATLANTIC INSTITUTE FOR MARKET STUDIES", "designationCode": "C", "categoryCode": "21", "address": "204-287 LACEWOOD DRIVE        PARK WEST CENTRE", "city": "HALIFAX", "province": "NS", "country": "CA", "postalCode": "B3M3Y7", "twitter": "None", "instagram": "None", "facebook": "None", "youtube": "None", "website": "None", "summary": "None", "logo": "None", "latitude": 44.66208000000006, "longitude": -63.66194999999993}, "106736325RR0001": {"name": "ATLANTIC MISSION SOCIETY THE PRESBYTERIAN CHURCH IN CANADA", "designationCode": "C", "categoryCode": "47", "address": "31 RUSSELL STREET", "city": "ST. JOHN'S", "province": "NL", "country": "CA", "postalCode": "A1A4G2", "twitter": "None", "instagram": "None", "facebook": "None", "youtube": "None", "website": "None", "summary": "None", "logo": "None"}, "887403194RR0001": {"name": "ATLANTIC MISSIONS INC", "designationCode": "C", "categoryCode": "47", "address": "18 WEST ST", "city": "ST STEPHEN", "province": "NB", "country": "CA", "postalCode": "E3L3C2", "twitter": "None", "instagram": "None", "facebook": "None", "youtube": "None", "website": "None", "summary": "None", "logo": "None", "latitude": 45.191551083015845, "longitude": -67.29056487353456}, "889271045RR0001": {"name": "ATLANTIC PACKAGING PRODUCTS LTD EMPLOYEES TRUST FUND", "designationCode": "C", "categoryCode": "75", "address": "111 PROGRESS AVE", "city": "SCARBOROUGH", "province": "ON", "country": "CA", "postalCode": "M1P2Y9", "twitter": "None", "instagram": "None", "facebook": "None", "youtube": "None", "website": "None", "summary": "None", "logo": "None", "latitude": 43.772418375411895, "longitude": -79.27490277857977}, "118796143RR0001": {"name": "ATLANTIC PROVINCES LIBRARY ASSOCIATION MEMORIAL TRUST", "designationCode": "C", "categoryCode": "21", "address": "1459 OXFORD ST.               DALHOUSIE UNIVERSITY", "city": "HALIFAX", "province": "NS", "country": "CA", "postalCode": "B3H4R2", "twitter": "None", "instagram": "None", "facebook": "None", "youtube": "None", "website": "None", "summary": "None", "logo": "None", "latitude": 44.636756311414345, "longitude": -63.59625801800473}, "139715684RR0001": {"name": "ATLANTIC REGION MINISTRIES", "designationCode": "C", "categoryCode": "49", "address": "77 LUMBERMAN DRIVE", "city": "MIDDLE SACKVILLE", "province": "NS", "country": "CA", "postalCode": "B4E3A3", "twitter": "None", "instagram": "None", "facebook": "None", "youtube": "None", "website": "None", "summary": "None", "logo": "None", "latitude": 44.78895578296495, "longitude": -63.712388193605975}, "118796150RR0001": {"name": "ATLANTIC SALMON FEDERATION (CANADA) / FEDERATION DU SAUMON ATLANTIQUE (CANADA)", "designationCode": "C", "categoryCode": "54", "address": "PO BOX 5200", "city": "ST ANDREWS", "province": "NB", "country": "CA", "postalCode": "E5B3S8", "twitter": "None", "instagram": "None", "facebook": "None", "youtube": "None", "website": "None", "summary": "None", "logo": "None", "latitude": 45.07792800000006, "longitude": -67.05383299999993}, "130400617RR0001": {"name": "ATLANTIC SCHOOL OF THEOLOGY", "designationCode": "C", "categoryCode": "20", "address": "660 FRANCKLYN STREET", "city": "HALIFAX", "province": "NS", "country": "CA", "postalCode": "B3H3B5", "twitter": "None", "instagram": "None", "facebook": "None", "youtube": "None", "website": "None", "summary": "None", "logo": "None", "latitude": 44.62714001884148, "longitude": -63.58014373775152}, "893377960RR0001": {"name": "ATLANTIC SCIENCE LINKS ASSOCIATION", "designationCode": "C", "categoryCode": "21", "address": "EARTH SCIENCE DEPT,DALHOUSIE U1355 OXFORD ST. PO BOX 15000", "city": "HALIFAX", "province": "NS", "country": "CA", "postalCode": "B3H4R2", "twitter": "None", "instagram": "None", "facebook": "None", "youtube": "None", "website": "None", "summary": "None", "logo": "None", "latitude": 44.645478000000054, "longitude": -63.576552499999934}, "867468522RR0001": {"name": "ATLANTIC SEMINAR IN THEOLOGICAL EDUCATION SOCIETY", "designationCode": "C", "categoryCode": "49", "address": "PO BOX 123 RPO PRINCE", "city": "TRURO", "province": "NS", "country": "CA", "postalCode": "B2N5B6", "twitter": "None", "instagram": "None", "facebook": "None", "youtube": "None", "website": "None", "summary": "None", "logo": "None", "latitude": 45.36524915901727, "longitude": -63.28200181927177}, "118796184RR0001": {"name": "ATLANTIC SERVICE COMMITTEE OF THE CATHOLIC CHARISMATIC RENEWAL", "designationCode": "C", "categoryCode": "49", "address": "PO BOX 225", "city": "AMHERST", "province": "NS", "country": "CA", "postalCode": "B4H3Z2", "twitter": "None", "instagram": "None", "facebook": "None", "youtube": "None", "website": "None", "summary": "None", "logo": "None", "latitude": 45.83198400000006, "longitude": -64.20979249999993}, "893222968RR0001": {"name": "ATLANTIC TURFGRASS RESEARCH FOUNDATION INC.", "designationCode": "C", "categoryCode": "21", "address": "133 ROBIN ROW", "city": "NEW GLASGOW", "province": "NS", "country": "CA", "postalCode": "B2H5Y6", "twitter": "None", "instagram": "None", "facebook": "None", "youtube": "None", "website": "None", "summary": "None", "logo": "None", "latitude": 45.59661209492755, "longitude": -62.66063309351389}, "894331990RR0001": {"name": "ATLANTIC WILDLIFE INSTITUTE INC./INSTITUT ATLANTIQUE DE LA FAUNE INC.", "designationCode": "C", "categoryCode": "54", "address": "220 COOKVILLE RD", "city": "COOKVILLE", "province": "NB", "country": "CA", "postalCode": "E4L1Z8", "twitter": "None", "instagram": "None", "facebook": "None", "youtube": "None", "website": "None", "summary": "None", "logo": "None", "latitude": 46.01972612885199, "longitude": -64.30889133319684}, "138323043RR0001": {"name": "ATLAS COAL MINE HISTORICAL SOCIETY", "designationCode": "C", "categoryCode": "50", "address": "BOX 521", "city": "EAST COULEE", "province": "AB", "country": "CA", "postalCode": "T0J1B0", "twitter": "None", "instagram": "None", "facebook": "None", "youtube": "None", "website": "None", "summary": "None", "logo": "None", "latitude": 51.355710000000045, "longitude": -112.51505999999995}, "863561775RR0001": {"name": "ATLAS FOUNDATION", "designationCode": "B", "categoryCode": "03", "address": "SUITE 1250, BOX 62            1500 GEORGIA STREET WEST", "city": "VANCOUVER", "province": "BC", "country": "CA", "postalCode": "V6G2Z6", "twitter": "None", "instagram": "None", "facebook": "None", "youtube": "None", "website": "None", "summary": "None", "logo": "None", "latitude": 49.29013479542975, "longitude": -123.1300069287031}, "813293958RR0001": {"name": "ATLAS STAGE PRODUCTIONS CANADA", "designationCode": "C", "categoryCode": "22", "address": "205-3170 KIRWIN AVE", "city": "MISSISSAUGA", "province": "ON", "country": "CA", "postalCode": "L5A3R1", "twitter": "None", "instagram": "None", "facebook": "None", "youtube": "None", "website": "None", "summary": "None", "logo": "None", "latitude": 43.58488443655163, "longitude": -79.6181038670151}, "841980881RR0001": {"name": "ATLIN CHRISTIAN ASSEMBLY SOCIETY", "designationCode": "C", "categoryCode": "39", "address": "BOX 259", "city": "ATLIN", "province": "BC", "country": "CA", "postalCode": "V0W1A0", "twitter": "None", "instagram": "None", "facebook": "None", "youtube": "None", "website": "None", "summary": "None", "logo": "None", "latitude": 59.57494800000006, "longitude": -133.70343199999994}, "118796226RR0001": {"name": "ATLIN HISTORICAL SOCIETY", "designationCode": "C", "categoryCode": "52", "address": "PO BOX 111", "city": "ATLIN", "province": "BC", "country": "CA", "postalCode": "V0W1A0", "twitter": "None", "instagram": "None", "facebook": "None", "youtube": "None", "website": "None", "summary": "None", "logo": "None", "latitude": 59.57494800000006, "longitude": -133.70343199999994}, "119327146RR0001": {"name": "ATLIN RECREATION CENTRE", "designationCode": "C", "categoryCode": "56", "address": "BOX 149", "city": "ATLIN", "province": "BC", "country": "CA", "postalCode": "V0W1A0", "twitter": "None", "instagram": "None", "facebook": "None", "youtube": "None", "website": "None", "summary": "None", "logo": "None", "latitude": 59.57494800000006, "longitude": -133.70343199999994}, "888409604RR0001": {"name": "ATLIN SUPPORTIVE LIVING", "designationCode": "C", "categoryCode": "09", "address": "BOX 347", "city": "ATLIN", "province": "BC", "country": "CA", "postalCode": "V0W1A0", "twitter": "None", "instagram": "None", "facebook": "None", "youtube": "None", "website": "None", "summary": "None", "logo": "None", "latitude": 59.57494800000006, "longitude": -133.70343199999994}, "129614277RR0001": {"name": "ATN ACCESS FOR PERSONS WITH DISABILITIES INC.", "designationCode": "C", "categoryCode": "59", "address": "141 DUNDAS STREET, SUITE 504", "city": "LONDON", "province": "ON", "country": "CA", "postalCode": "N6A1G3", "twitter": "None", "instagram": "None", "facebook": "None", "youtube": "None", "website": "None", "summary": "None", "logo": "None", "latitude": 42.983461111835744, "longitude": -81.25049478475394}, "135688356RR0001": {"name": "ATOUT-LIRE", "designationCode": "C", "categoryCode": "29", "address": "266 ST VALLIER OUEST", "city": "QUEBEC", "province": "QC", "country": "CA", "postalCode": "G1K1K2", "twitter": "None", "instagram": "None", "facebook": "None", "youtube": "None", "website": "None", "summary": "None", "logo": "None", "latitude": 46.81206011408613, "longitude": -71.2364067352127}, "863992194RR0001": {"name": "ATREBLA CHARITABLE TRUST", "designationCode": "B", "categoryCode": "05", "address": "3100 STEELES AVE E.SUITE 718", "city": "MARKHAM", "province": "ON", "country": "CA", "postalCode": "L3R8T3", "twitter": "None", "instagram": "None", "facebook": "None", "youtube": "None", "website": "None", "summary": "None", "logo": "None", "latitude": 43.814403195163855, "longitude": -79.34666936790913}, "893363606RR0001": {"name": "ATRIUM PLAYERS THEATRE COMPANY", "designationCode": "C", "categoryCode": "22", "address": "69 BURGESS AVENUE", "city": "TORONTO", "province": "ON", "country": "CA", "postalCode": "M4E1W9", "twitter": "None", "instagram": "None", "facebook": "None", "youtube": "None", "website": "None", "summary": "None", "logo": "None", "latitude": 43.67869991144912, "longitude": -79.30705570246411}, "144079258RR0001": {"name": "ATSA", "designationCode": "C", "categoryCode": "22", "address": "4430, RUE DROLET", "city": "MONTREAL", "province": "QC", "country": "CA", "postalCode": "H2W2L8", "twitter": "None", "instagram": "None", "facebook": "None", "youtube": "None", "website": "None", "summary": "None", "logo": "None", "latitude": 45.522851910064134, "longitude": -73.5823432342604}, "822824751RR0001": {"name": "ATT Wellness Foundation", "designationCode": "A", "categoryCode": "03", "address": "RR 1, SITE 1, BOX 17", "city": "CONDOR", "province": "AB", "country": "CA", "postalCode": "T0M0P0", "twitter": "None", "instagram": "None", "facebook": "None", "youtube": "None", "website": "None", "summary": "None", "logo": "None", "latitude": 52.327763179533676, "longitude": -114.55248061817856}, "118796242RR0001": {"name": "ATU JERRY FUND INC.", "designationCode": "A", "categoryCode": "13", "address": "61 INTERNATIONAL BLVD         SUITE 210", "city": "REXDALE", "province": "ON", "country": "CA", "postalCode": "M9W6K4", "twitter": "None", "instagram": "None", "facebook": "None", "youtube": "None", "website": "None", "summary": "None", "logo": "None", "latitude": 43.677720798199715, "longitude": -79.58723468705645}, "890189590RR0001": {"name": "ATWATER CEMETERY", "designationCode": "C", "categoryCode": "59", "address": "BOX 5", "city": "ATWATER", "province": "SK", "country": "CA", "postalCode": "S0A0C0", "twitter": "None", "instagram": "None", "facebook": "None", "youtube": "None", "website": "None", "summary": "None", "logo": "None", "latitude": 51.06276057654155, "longitude": -102.24037771106399}, "132348897RR0001": {"name": "ATWOOD PRESBYTERIAN CHURCH,", "designationCode": "C", "categoryCode": "37", "address": "PO BOX 179", "city": "ATWOOD", "province": "ON", "country": "CA", "postalCode": "N0G1B0", "twitter": "None", "instagram": "None", "facebook": "None", "youtube": "None", "website": "None", "summary": "None", "logo": "None", "latitude": 33.868040000000065, "longitude": -117.82983999999999}, "118796275RR0001": {"name": "ATWOOD UNITED CHURCH", "designationCode": "C", "categoryCode": "44", "address": "131 JOHN ST                   BOX 159", "city": "ATWOOD", "province": "ON", "country": "CA", "postalCode": "N0G1B0", "twitter": "None", "instagram": "None", "facebook": "None", "youtube": "None", "website": "None", "summary": "None", "logo": "None", "latitude": 43.66850351982242, "longitude": -81.01960220817692}, "131568297RR0001": {"name": "AU BAS DE L'ECHELLE INC/RANK AND FILE INC", "designationCode": "C", "categoryCode": "59", "address": "6839-A, RUE DROLET, SUITE 305", "city": "MONTREAL", "province": "QC", "country": "CA", "postalCode": "H2S2T1", "twitter": "None", "instagram": "None", "facebook": "None", "youtube": "None", "website": "None", "summary": "None", "logo": "None", "latitude": 45.5360400827225, "longitude": -73.6117596891339}, "118796309RR0001": {"name": "AU BERCAIL DE ST-GEORGES", "designationCode": "C", "categoryCode": "09", "address": "12165 2E AVENUE", "city": "SAINT-GEORGES", "province": "QC", "country": "CA", "postalCode": "G5Y1X6", "twitter": "None", "instagram": "None", "facebook": "None", "youtube": "None", "website": "None", "summary": "None", "logo": "None", "latitude": 46.119988643372245, "longitude": -70.66956339353128}, "890115496RR0001": {"name": "AU BORD DES MOTS", "designationCode": "C", "categoryCode": "21", "address": "171 RUE SAINT-ANTOINE N", "city": "LAVALTRIE", "province": "QC", "country": "CA", "postalCode": "J5T2G6", "twitter": "None", "instagram": "None", "facebook": "None", "youtube": "None", "website": "None", "summary": "None", "logo": "None", "latitude": 45.88675871689085, "longitude": -73.28115192160531}, "857245807RR0001": {"name": "AU COEUR DES FAMILLES AGRICOLES 2003", "designationCode": "C", "categoryCode": "09", "address": "600 RUE BENOIT", "city": "SAINT-HYACINTHE", "province": "QC", "country": "CA", "postalCode": "J2S1L6", "twitter": "None", "instagram": "None", "facebook": "None", "youtube": "None", "website": "None", "summary": "None", "logo": "None", "latitude": 45.63824762585846, "longitude": -72.95254714103498}, "125884239RR0001": {"name": "AU COUP DE POUCE CENTRE-SUD INC", "designationCode": "C", "categoryCode": "56", "address": "2338, RUE ONTARIO EST", "city": "MONTREAL", "province": "QC", "country": "CA", "postalCode": "H2K1W1", "twitter": "None", "instagram": "None", "facebook": "None", "youtube": "None", "website": "None", "summary": "None", "logo": "None", "latitude": 45.53092559088818, "longitude": -73.55450728446547}, "130956618RR0001": {"name": "AU JARDIN DE LA FAMILLE DE FABREVILLE INC", "designationCode": "C", "categoryCode": "09", "address": "3867 BOUL SAINTE-ROSE", "city": "LAVAL", "province": "QC", "country": "CA", "postalCode": "H7P1C8", "twitter": "None", "instagram": "None", "facebook": "None", "youtube": "None", "website": "None", "summary": "None", "logo": "None", "latitude": 45.57838722038196, "longitude": -73.8255325900801}, "123926107RR0001": {"name": "AU MOULIN DE LA SOURCE", "designationCode": "C", "categoryCode": "01", "address": "226, RUE MONTCALM", "city": "VALLEYFIELD", "province": "QC", "country": "CA", "postalCode": "J6T2E4", "twitter": "None", "instagram": "None", "facebook": "None", "youtube": "None", "website": "None", "summary": "None", "logo": "None", "latitude": 45.25041538135493, "longitude": -74.13621134929882}, "107413072RR0001": {"name": "AU PAYS DE L'ARC-EN-CIEL (C.P.E.)", "designationCode": "C", "categoryCode": "01", "address": "6105, RUE CH\u00c2TELAIN", "city": "MONTR\u00c9AL", "province": "QC", "country": "CA", "postalCode": "H1T3W5", "twitter": "None", "instagram": "None", "facebook": "None", "youtube": "None", "website": "None", "summary": "None", "logo": "None", "latitude": 45.57590272773956, "longitude": -73.5626321411219}, "118796622RR0001": {"name": "AU PAYS ENCHANTE INC.", "designationCode": "B", "categoryCode": "01", "address": "1230, DE L'EGLISE", "city": "ST-POLYCARPE", "province": "QC", "country": "CA", "postalCode": "J0P1X0", "twitter": "None", "instagram": "None", "facebook": "None", "youtube": "None", "website": "None", "summary": "None", "logo": "None", "latitude": 45.30073669527942, "longitude": -74.301417460529}, "863578415RR0001": {"name": "AU PONT DE BOIS, EBENISTERIE", "designationCode": "C", "categoryCode": "59", "address": "4220 RUE GARLOCK", "city": "SHERBROOKE", "province": "QC", "country": "CA", "postalCode": "J1L2P4", "twitter": "None", "instagram": "None", "facebook": "None", "youtube": "None", "website": "None", "summary": "None", "logo": "None", "latitude": 45.40716149533295, "longitude": -71.96663998599115}, "867212581RR0001": {"name": "AU RENDEZ-VOUS DES AINES DE ROXTON FALLS", "designationCode": "C", "categoryCode": "09", "address": "115 RUE DE LA RIVIERE", "city": "ROXTON FALLS", "province": "QC", "country": "CA", "postalCode": "J0H1E0", "twitter": "None", "instagram": "None", "facebook": "None", "youtube": "None", "website": "None", "summary": "None", "logo": "None", "latitude": 45.56783865474055, "longitude": -72.52052788628926}, "129942470RR0001": {"name": "AU SECOND LIEU", "designationCode": "C", "categoryCode": "09", "address": "3200, BOUL. GRANDE-ALLEE", "city": "SAINT-HUBERT", "province": "QC", "country": "CA", "postalCode": "J4T2S5", "twitter": "None", "instagram": "None", "facebook": "None", "youtube": "None", "website": "None", "summary": "None", "logo": "None", "latitude": 45.49782804356862, "longitude": -73.47802842521199}, "893172726RR0001": {"name": "AU TRAIT D'UNION QU\u00c9BEC", "designationCode": "C", "categoryCode": "09", "address": "9340, BOUL. HENRI-BOURASSA", "city": "QU\u00c9BEC", "province": "QC", "country": "CA", "postalCode": "G1G4E6", "twitter": "None", "instagram": "None", "facebook": "None", "youtube": "None", "website": "None", "summary": "None", "logo": "None", "latitude": 46.86917287789248, "longitude": -71.27578356492025}, "890449473RR0001": {"name": "AUBE DE LA PAIX (1993) INC.", "designationCode": "C", "categoryCode": "57", "address": "1390 RUE SETLAKWE", "city": "THETFORD MINES", "province": "QC", "country": "CA", "postalCode": "G6G6Z2", "twitter": "None", "instagram": "None", "facebook": "None", "youtube": "None", "website": "None", "summary": "None", "logo": "None", "latitude": 46.112747041058455, "longitude": -71.28904928155129}, "881158620RR0001": {"name": "AUBERGE CHEZ MON PERE", "designationCode": "C", "categoryCode": "59", "address": "119, CHEMIN PRINCIPAL", "city": "SAINT-ELZEAR", "province": "QC", "country": "CA", "postalCode": "G0C2W0", "twitter": "None", "instagram": "None", "facebook": "None", "youtube": "None", "website": "None", "summary": "None", "logo": "None", "latitude": 48.15866860502644, "longitude": -65.40366024839868}, "118796325RR0001": {"name": "AUBERGE COMMUNAUTAIRE SUD-OUEST", "designationCode": "C", "categoryCode": "09", "address": "5947 BOULEVARD MONK", "city": "MONTREAL", "province": "QC", "country": "CA", "postalCode": "H4E3H5", "twitter": "None", "instagram": "None", "facebook": "None", "youtube": "None", "website": "None", "summary": "None", "logo": "None", "latitude": 45.45908235192455, "longitude": -73.59627651667708}, "864261839RR0001": {"name": "AUBERGE DE LA BASILIQUE SAINTE-ANNE", "designationCode": "C", "categoryCode": "49", "address": "10018 AVENUE ROYALE", "city": "SAINTE-ANNE-DE-BEAUPRE", "province": "QC", "country": "CA", "postalCode": "G0A3C0", "twitter": "None", "instagram": "None", "facebook": "None", "youtube": "None", "website": "None", "summary": "None", "logo": "None", "latitude": 47.025011014946315, "longitude": -70.92776782093631}, "132278607RR0001": {"name": "AUBERGE MADELEINE", "designationCode": "C", "categoryCode": "01", "address": "5035 RUE DE LA ROCHE", "city": "MONTREAL", "province": "QC", "country": "CA", "postalCode": "H2J3K1", "twitter": "None", "instagram": "None", "facebook": "None", "youtube": "None", "website": "None", "summary": "None", "logo": "None", "latitude": 45.53139519207678, "longitude": -73.584179440591}, "140005265RR0001": {"name": "AUBERGE SHALOM POUR FEMMES", "designationCode": "C", "categoryCode": "01", "address": "P.O. BOX 386 SUCC SNOWDON", "city": "MONTR\u00c9AL", "province": "QC", "country": "CA", "postalCode": "H3X3T6", "twitter": "None", "instagram": "None", "facebook": "None", "youtube": "None", "website": "None", "summary": "None", "logo": "None", "latitude": 45.48034331254028, "longitude": -73.62887745429128}, "106737521RR0001": {"name": "AUBERGE SOUS MON TOIT INC.", "designationCode": "C", "categoryCode": "01", "address": "317 RUE CHAPAIS", "city": "GRANBY", "province": "QC", "country": "CA", "postalCode": "J2G7E7", "twitter": "None", "instagram": "None", "facebook": "None", "youtube": "None", "website": "None", "summary": "None", "logo": "None", "latitude": 45.388420930347905, "longitude": -72.73753841407483}, "106737539RR0001": {"name": "AUBERGE TRANSITION", "designationCode": "C", "categoryCode": "09", "address": "CP 266 SUCC N D G", "city": "MONTREAL", "province": "QC", "country": "CA", "postalCode": "H4A3P6", "twitter": "None", "instagram": "None", "facebook": "None", "youtube": "None", "website": "None", "summary": "None", "logo": "None", "latitude": 45.47400000000006, "longitude": -73.61589949999993}, "118796408RR0001": {"name": "AUBURN BIBLE CHAPEL", "designationCode": "C", "categoryCode": "39", "address": "911 ARMOUR RD", "city": "PETERBOROUGH", "province": "ON", "country": "CA", "postalCode": "K9H2A7", "twitter": "None", "instagram": "None", "facebook": "None", "youtube": "None", "website": "None", "summary": "None", "logo": "None", "latitude": 44.324396591724884, "longitude": -78.30977013315778}, "106737604RR0001": {"name": "AUBURN PASTORAL CHARGE", "designationCode": "C", "categoryCode": "44", "address": "BOX 15", "city": "AUBURN", "province": "ON", "country": "CA", "postalCode": "N0M1E0", "twitter": "None", "instagram": "None", "facebook": "None", "youtube": "None", "website": "None", "summary": "None", "logo": "None", "latitude": 43.77100000000007, "longitude": -81.53011999999995}, "118796432RR0001": {"name": "AUBURN RETIREMENT VILLAGE OF PETERBOROUGH INC.", "designationCode": "C", "categoryCode": "01", "address": "931 ARMOUR ROAD NORTH", "city": "PETERBOROUGH", "province": "ON", "country": "CA", "postalCode": "K9H7H1", "twitter": "None", "instagram": "None", "facebook": "None", "youtube": "None", "website": "None", "summary": "None", "logo": "None", "latitude": 44.32571981181839, "longitude": -78.30997943277114}, "118796416RR0001": {"name": "AUBURNDALE PASTORAL CHARGE", "designationCode": "C", "categoryCode": "44", "address": "P.O. BOX 3193", "city": "WAINWRIGHT", "province": "AB", "country": "CA", "postalCode": "T9W1T2", "twitter": "None", "instagram": "None", "facebook": "None", "youtube": "None", "website": "None", "summary": "None", "logo": "None", "latitude": 52.84339800000005, "longitude": -110.85204049999993}, "878890060RR0001": {"name": "AUDAIN FOUNDATION", "designationCode": "B", "categoryCode": "03", "address": "900-1333 BROADWAY W", "city": "VANCOUVER", "province": "BC", "country": "CA", "postalCode": "V6H4C2", "twitter": "None", "instagram": "None", "facebook": "None", "youtube": "None", "website": "None", "summary": "None", "logo": "None", "latitude": 49.2636048443685, "longitude": -123.13446441433003}, "762071298RR0001": {"name": "AUDEAMUS", "designationCode": "C", "categoryCode": "11", "address": "1546 ROLLIN RD", "city": "SAINT-PASCAL-BAYLON", "province": "ON", "country": "CA", "postalCode": "K0A3N0", "twitter": "None", "instagram": "None", "facebook": "None", "youtube": "None", "website": "None", "summary": "None", "logo": "None", "latitude": 45.50649071315575, "longitude": -75.14399722556259}, "851604165RR0001": {"name": "AUDITIES FOUNDATION", "designationCode": "C", "categoryCode": "22", "address": "27 HORSE SHOE BEND", "city": "CALGARY", "province": "AB", "country": "CA", "postalCode": "T3R1C8", "twitter": "None", "instagram": "None", "facebook": "None", "youtube": "None", "website": "None", "summary": "None", "logo": "None", "latitude": 51.20715300000006, "longitude": -114.28072999999993}, "828269928RR0001": {"name": "AUDREY GUNTHER MEMORIAL SCHOLARSHIP TRUST", "designationCode": "C", "categoryCode": "25", "address": "#200 - 602, 11TH AVE. S.W.", "city": "CALGARY", "province": "AB", "country": "CA", "postalCode": "T2R1J8", "twitter": "None", "instagram": "None", "facebook": "None", "youtube": "None", "website": "None", "summary": "None", "logo": "None", "latitude": 51.042715820250855, "longitude": -114.07604159103731}, "118796499RR0002": {"name": "AUDREY S. HELLYER CHARITABLE FOUNDATION", "designationCode": "B", "categoryCode": "03", "address": "99 DAVIS ST W", "city": "SIMCOE", "province": "ON", "country": "CA", "postalCode": "N3Y2R5", "twitter": "None", "instagram": "None", "facebook": "None", "youtube": "None", "website": "None", "summary": "None", "logo": "None", "latitude": 42.852291924519506, "longitude": -80.31541773925207}, "106737836RR0001": {"name": "AUGSBURG EVANGELICAL LUTHERAN CHURCH", "designationCode": "C", "categoryCode": "32", "address": "224 MILL STREET SOUTH", "city": "BRAMPTON", "province": "ON", "country": "CA", "postalCode": "L6Y1T8", "twitter": "None", "instagram": "None", "facebook": "None", "youtube": "None", "website": "None", "summary": "None", "logo": "None", "latitude": 43.673650552339865, "longitude": -79.7467937870912}, "816612543RR0001": {"name": "AUGUST AND FLORENTINE SCHOLTZ AND HENRY KUNZE CHARITY FUND", "designationCode": "B", "categoryCode": "03", "address": "SUITE 1730                    700-2ND STREET S.W.", "city": "CALGARY", "province": "AB", "country": "CA", "postalCode": "T2P2W1", "twitter": "None", "instagram": "None", "facebook": "None", "youtube": "None", "website": "None", "summary": "None", "logo": "None", "latitude": 51.04652413015677, "longitude": -114.06781156103735}, "860918770RR0001": {"name": "AUGUSTA PACIFIC FOUNDATION", "designationCode": "B", "categoryCode": "03", "address": "SUITE 1700                    1140 WEST PENDER ST", "city": "VANCOUVER", "province": "BC", "country": "CA", "postalCode": "V6E4G1", "twitter": "None", "instagram": "None", "facebook": "None", "youtube": "None", "website": "None", "summary": "None", "logo": "None", "latitude": 49.28790194751592, "longitude": -123.12183137235255}, "132029240RR0001": {"name": "AUGUSTA TOWNSHIP LIBRARY BOARD", "designationCode": "C", "categoryCode": "50", "address": "4500 CTY RD #15", "city": "BROCKVILLE", "province": "ON", "country": "CA", "postalCode": "K6V5T2", "twitter": "None", "instagram": "None", "facebook": "None", "youtube": "None", "website": "None", "summary": "None", "logo": "None", "latitude": 44.652525000000054, "longitude": -75.67165699999994}, "828816074RR0001": {"name": "AUGUSTANA CHAPLAINCY COUNCIL", "designationCode": "C", "categoryCode": "49", "address": "4901 46 AVE", "city": "CAMROSE", "province": "AB", "country": "CA", "postalCode": "T4V2R3", "twitter": "None", "instagram": "None", "facebook": "None", "youtube": "None", "website": "None", "summary": "None", "logo": "None", "latitude": 53.01423407337767, "longitude": -112.82430642662233}, "118796515RR0001": {"name": "AUGUSTANA LUTHERAN CHURCH", "designationCode": "C", "categoryCode": "32", "address": "1201 BROADWAY AVENUE", "city": "SASKATOON", "province": "SK", "country": "CA", "postalCode": "S7H2A4", "twitter": "None", "instagram": "None", "facebook": "None", "youtube": "None", "website": "None", "summary": "None", "logo": "None", "latitude": 52.113382994171616, "longitude": -106.65666926501844}, "775313521RR0002": {"name": "AUGUSTINE COLLEGE TRUST", "designationCode": "C", "categoryCode": "20", "address": "163 FIFTH AVENUE", "city": "OTTAWA", "province": "ON", "country": "CA", "postalCode": "K1S2M8", "twitter": "None", "instagram": "None", "facebook": "None", "youtube": "None", "website": "None", "summary": "None", "logo": "None", "latitude": 45.40118141078527, "longitude": -75.68877457911582}, "890213374RR0001": {"name": "AUGUSTINE HOUSE SOCIETY", "designationCode": "C", "categoryCode": "01", "address": "3820 ARTHUR DR", "city": "DELTA", "province": "BC", "country": "CA", "postalCode": "V4K5E6", "twitter": "None", "instagram": "None", "facebook": "None", "youtube": "None", "website": "None", "summary": "None", "logo": "None", "latitude": 49.072813583703464, "longitude": -123.07843539038687}, "130362676RR0001": {"name": "AUGUSTINE UNITED CHURCH,", "designationCode": "C", "categoryCode": "44", "address": "444 RIVER AVE", "city": "WINNIPEG", "province": "MB", "country": "CA", "postalCode": "R3L0C7", "twitter": "None", "instagram": "None", "facebook": "None", "youtube": "None", "website": "None", "summary": "None", "logo": "None", "latitude": 49.87938711183575, "longitude": -97.14566415124943}, "118796572RR0001": {"name": "AUGUSTINIAN FATHERS (ONTARIO) INC.", "designationCode": "C", "categoryCode": "46", "address": "PO BOX 550 MARYLAKE           KING CITY", "city": "KING CITY", "province": "ON", "country": "CA", "postalCode": "L7B1A7", "twitter": "None", "instagram": "None", "facebook": "None", "youtube": "None", "website": "None", "summary": "None", "logo": "None", "latitude": 43.920870000000036, "longitude": -79.52655999999996}, "118796580RR0001": {"name": "AUGUSTINIAN MONASTERY OF BRITISH COLUMBIA", "designationCode": "C", "categoryCode": "46", "address": "3900 ARTHUR DRIVE", "city": "DELTA", "province": "BC", "country": "CA", "postalCode": "V4K3N5", "twitter": "None", "instagram": "None", "facebook": "None", "youtube": "None", "website": "None", "summary": "None", "logo": "None", "latitude": 49.07484653733623, "longitude": -123.0790586010453}, "884655325RR0001": {"name": "AUJOURD'HUI L'ESPOIR", "designationCode": "C", "categoryCode": "47", "address": "6640, 3E AVENUE OUEST", "city": "CHARLESBOURG", "province": "QC", "country": "CA", "postalCode": "G1H6H4", "twitter": "None", "instagram": "None", "facebook": "None", "youtube": "None", "website": "None", "summary": "None", "logo": "None", "latitude": 46.853218214553586, "longitude": -71.26410146514529}, "132579830RR0001": {"name": "AULD'S COVE VOLUNTEER FIRE DEPARTMENT", "designationCode": "C", "categoryCode": "59", "address": "305 PHILPOTT STREET           APT 12", "city": "PORT HAWKESBURY", "province": "NS", "country": "CA", "postalCode": "B9A2B7", "twitter": "None", "instagram": "None", "facebook": "None", "youtube": "None", "website": "None", "summary": "None", "logo": "None", "latitude": 45.61934393672452, "longitude": -61.360222860955574}, "864192992RR0001": {"name": "AULTSVILLE THEATRE", "designationCode": "C", "categoryCode": "22", "address": "2 BELMONT STREET              WINDMILL POINT", "city": "CORNWALL", "province": "ON", "country": "CA", "postalCode": "K6H4Z1", "twitter": "None", "instagram": "None", "facebook": "None", "youtube": "None", "website": "None", "summary": "None", "logo": "None", "latitude": 45.018936631576715, "longitude": -74.70337039471605}, "101094266RR0001": {"name": "AUMKARA INC.", "designationCode": "C", "categoryCode": "47", "address": "56 CH DU MONT-CATHERINE", "city": "SAINTE-AGATHE-DES-MONTS", "province": "QC", "country": "CA", "postalCode": "J8C0L1", "twitter": "None", "instagram": "None", "facebook": "None", "youtube": "None", "website": "None", "summary": "None", "logo": "None", "latitude": 46.05038644604402, "longitude": -74.25005508396326}, "885099218RR0001": {"name": "AUMONERIE COMMUNAUTAIRE DU QUEBEC", "designationCode": "C", "categoryCode": "59", "address": "590 RUE SAINT-JOSEPH E", "city": "QUEBEC", "province": "QC", "country": "CA", "postalCode": "G1K3B8", "twitter": "None", "instagram": "None", "facebook": "None", "youtube": "None", "website": "None", "summary": "None", "logo": "None", "latitude": 46.81484084098895, "longitude": -71.22257853179629}, "891189144RR0001": {"name": "AUNE KOIVULA CHILDREN'S FUND", "designationCode": "B", "categoryCode": "21", "address": "35 OLD ORCHARD GROVE", "city": "TORONTO", "province": "ON", "country": "CA", "postalCode": "M5M2C8", "twitter": "None", "instagram": "None", "facebook": "None", "youtube": "None", "website": "None", "summary": "None", "logo": "None", "latitude": 43.73417688591389, "longitude": -79.40723503774024}, "123041683RR0001": {"name": "AUNT LEAH'S INDEPENDENT LIFESKILLS SOCIETY", "designationCode": "C", "categoryCode": "59", "address": "816-20TH ST", "city": "NEW WESTMINSTER", "province": "BC", "country": "CA", "postalCode": "V3M4W8", "twitter": "None", "instagram": "None", "facebook": "None", "youtube": "None", "website": "None", "summary": "None", "logo": "None", "latitude": 49.2034127651727, "longitude": -122.94921664938111}, "118796630RR0001": {"name": "AURA CHAMBER CHOIR SOCIETY", "designationCode": "C", "categoryCode": "22", "address": "2202 32 AVE", "city": "VERNON", "province": "BC", "country": "CA", "postalCode": "V1T2K3", "twitter": "None", "instagram": "None", "facebook": "None", "youtube": "None", "website": "None", "summary": "None", "logo": "None", "latitude": 50.26532850678068, "longitude": -119.26135308090484}, "845833565RR0001": {"name": "AUREA FOUNDATION", "designationCode": "A", "categoryCode": "23", "address": "120 ADELAIDE STREET WEST      SUITE 2150", "city": "TORONTO", "province": "ON", "country": "CA", "postalCode": "M5H1T1", "twitter": "None", "instagram": "None", "facebook": "None", "youtube": "None", "website": "None", "summary": "None", "logo": "None", "latitude": 43.649477136880044, "longitude": -79.38292947726339}, "120737077RR0001": {"name": "AURORA BOREALIS COUNCIL INC", "designationCode": "C", "categoryCode": "22", "address": "BOX 118", "city": "SNOW LAKE", "province": "MB", "country": "CA", "postalCode": "R0B1M0", "twitter": "None", "instagram": "None", "facebook": "None", "youtube": "None", "website": "None", "summary": "None", "logo": "None", "latitude": 54.87465000000003, "longitude": -100.01448999999997}, "132515883RR0001": {"name": "AURORA CEMETERY CORPORATION", "designationCode": "C", "categoryCode": "59", "address": "14253 YONGE ST", "city": "AURORA", "province": "ON", "country": "CA", "postalCode": "L4G0P2", "twitter": "None", "instagram": "None", "facebook": "None", "youtube": "None", "website": "None", "summary": "None", "logo": "None", "latitude": 43.97599380246271, "longitude": -79.46189458982852}, "107807224RR0001": {"name": "AURORA CHILDREN'S CENTRE INC.", "designationCode": "C", "categoryCode": "01", "address": "185 INDUSTRIAL PARKWAY NORTH", "city": "AURORA", "province": "ON", "country": "CA", "postalCode": "L4G4C4", "twitter": "None", "instagram": "None", "facebook": "None", "youtube": "None", "website": "None", "summary": "None", "logo": "None", "latitude": 44.01095467174137, "longitude": -79.46105301091967}, "118790609RR0001": {"name": "AURORA COLLEGE", "designationCode": "C", "categoryCode": "20", "address": "PO BOX 1290", "city": "FORT SMITH", "province": "NT", "country": "CA", "postalCode": "X0E0P0", "twitter": "None", "instagram": "None", "facebook": "None", "youtube": "None", "website": "None", "summary": "None", "logo": "None", "latitude": 60.01262014865944, "longitude": -112.05264672940851}, "140803883RR0001": {"name": "AURORA CORNERSTONE CHURCH", "designationCode": "C", "categoryCode": "36", "address": "390 INDUSTRIAL PARKWAY SOUTH", "city": "AURORA", "province": "ON", "country": "CA", "postalCode": "L4G3V7", "twitter": "None", "instagram": "None", "facebook": "None", "youtube": "None", "website": "None", "summary": "None", "logo": "None", "latitude": 43.9839877146978, "longitude": -79.45523385004863}, "119238426RR0001": {"name": "AURORA FAMILY THERAPY CENTRE INC.", "designationCode": "C", "categoryCode": "20", "address": "515 PORTAGE AVENUE", "city": "WINNIPEG", "province": "MB", "country": "CA", "postalCode": "R3B2E9", "twitter": "None", "instagram": "None", "facebook": "None", "youtube": "None", "website": "None", "summary": "None", "logo": "None", "latitude": 49.89031476164195, "longitude": -97.15288240290808}, "801045584RR0001": {"name": "AURORA FOOD PANTRY", "designationCode": "C", "categoryCode": "01", "address": "350 INDUSTRIAL PARKWAY SOUTH  UNIT 101", "city": "AURORA", "province": "ON", "country": "CA", "postalCode": "L4G3V7", "twitter": "None", "instagram": "None", "facebook": "None", "youtube": "None", "website": "None", "summary": "None", "logo": "None", "latitude": 43.98553370304105, "longitude": -79.45460716521387}, "132003849RR0001": {"name": "AURORA HISTORICAL SOCIETY", "designationCode": "C", "categoryCode": "50", "address": "15372 YONGE ST.", "city": "AURORA", "province": "ON", "country": "CA", "postalCode": "L4G1N8", "twitter": "None", "instagram": "None", "facebook": "None", "youtube": "None", "website": "None", "summary": "None", "logo": "None", "latitude": 44.00284800721335, "longitude": -79.4683690437415}}