{"130826332RR0001": {"name": "MAIN STREET BAPTIST CHURCH,", "designationCode": "C", "categoryCode": "31", "address": "6151 MAIN ST", "city": "NIAGARA FALLS", "province": "ON", "country": "CA", "postalCode": "L2G6A3", "twitter": "None", "instagram": "None", "facebook": "None", "youtube": "None", "website": "None", "summary": "None", "logo": "None", "latitude": 43.08529921313994, "longitude": -79.09047079436189}, "119028322RR0001": {"name": "MAIN STREET CHURCH OF THE NAZARENE", "designationCode": "C", "categoryCode": "39", "address": "363 MAIN ST", "city": "TORONTO", "province": "ON", "country": "CA", "postalCode": "M4C4X6", "twitter": "None", "instagram": "None", "facebook": "None", "youtube": "None", "website": "None", "summary": "None", "logo": "None", "latitude": 43.690318679439045, "longitude": -79.30274928737967}, "861936672RR0001": {"name": "MAIN STREET COMMUNITY SERVICES", "designationCode": "C", "categoryCode": "09", "address": "1453 MAIN STREET, BOX 432", "city": "STITTSVILLE", "province": "ON", "country": "CA", "postalCode": "K2S1A6", "twitter": "None", "instagram": "None", "facebook": "None", "youtube": "None", "website": "None", "summary": "None", "logo": "None", "latitude": 45.254629995528, "longitude": -75.91623006333275}, "107655094RR0001": {"name": "MAIN STREET PROJECT INC.", "designationCode": "C", "categoryCode": "59", "address": "75 MARTHA ST", "city": "WINNIPEG", "province": "MB", "country": "CA", "postalCode": "R3B1A4", "twitter": "None", "instagram": "None", "facebook": "None", "youtube": "None", "website": "None", "summary": "None", "logo": "None", "latitude": 49.902783957527895, "longitude": -97.13386247013695}, "107655110RR0001": {"name": "MAIN STREET UNITED CHURCH", "designationCode": "C", "categoryCode": "44", "address": "133 ONTARIO RD                PO BOX 40", "city": "MITCHELL", "province": "ON", "country": "CA", "postalCode": "N0K1N0", "twitter": "None", "instagram": "None", "facebook": "None", "youtube": "None", "website": "None", "summary": "None", "logo": "None", "latitude": 43.466650174331825, "longitude": -81.19463900510723}, "895946978RR0001": {"name": "MAIN ZEN CENTRE/CENTRE ZEN DE LA MAIN", "designationCode": "C", "categoryCode": "39", "address": "4620 RUE SAINT-DOMINIQUE", "city": "MONTREAL", "province": "QC", "country": "CA", "postalCode": "H2T1T5", "twitter": "None", "instagram": "None", "facebook": "None", "youtube": "None", "website": "None", "summary": "None", "logo": "None", "latitude": 45.52144174963943, "longitude": -73.58774333348711}, "127358257RR0001": {"name": "MAIN-FORTE MONTREAL", "designationCode": "C", "categoryCode": "09", "address": "6602 PAPINEAU", "city": "MONTREAL", "province": "QC", "country": "CA", "postalCode": "H2G2X2", "twitter": "None", "instagram": "None", "facebook": "None", "youtube": "None", "website": "None", "summary": "None", "logo": "None", "latitude": 45.54397289895563, "longitude": -73.5984337198337}, "120047212RR0001": {"name": "MAINFILM", "designationCode": "C", "categoryCode": "22", "address": "750-3981 BOUL ST-LAURENT", "city": "MONTREAL", "province": "QC", "country": "CA", "postalCode": "H2W1Y5", "twitter": "None", "instagram": "None", "facebook": "None", "youtube": "None", "website": "None", "summary": "None", "logo": "None", "latitude": 45.516619287004296, "longitude": -73.57857904175094}, "138724430RR0001": {"name": "MAINLAND BC MILITARY FAMILY RESOURCE CENTRE SOCIETY", "designationCode": "C", "categoryCode": "09", "address": "39 CBG HEADQUARTERS           4050 WEST 4TH AVE", "city": "VANCOUVER", "province": "BC", "country": "CA", "postalCode": "V6R1P6", "twitter": "None", "instagram": "None", "facebook": "None", "youtube": "None", "website": "None", "summary": "None", "logo": "None", "latitude": 49.26860338332386, "longitude": -123.19495714501168}, "119028249RR0001": {"name": "MAINLAND ENHANCEMENT OF SALMONOID SPECIES SOCIETY", "designationCode": "C", "categoryCode": "54", "address": "ECHO BAY", "city": "SIMOOM SOUND", "province": "BC", "country": "CA", "postalCode": "V0P1S0", "twitter": "None", "instagram": "None", "facebook": "None", "youtube": "None", "website": "None", "summary": "None", "logo": "None", "latitude": 50.400132000000056, "longitude": -125.87497549999993}, "876763103RR0001": {"name": "MAINLAND SOUTH HERITAGE SOCIETY", "designationCode": "C", "categoryCode": "52", "address": "211 - 339 HERRING COVE RD", "city": "HALIFAX", "province": "NS", "country": "CA", "postalCode": "B3R1V5", "twitter": "None", "instagram": "None", "facebook": "None", "youtube": "None", "website": "None", "summary": "None", "logo": "None", "latitude": 44.61420860756523, "longitude": -63.616266845720794}, "890415599RR0001": {"name": "MAINLINE DIST MUSIC FESTIVAL INDIAN HEAD WOLSELEY GRENFELL", "designationCode": "C", "categoryCode": "22", "address": "BOX 37005                     4623 ALBERT", "city": "REGINA", "province": "SK", "country": "CA", "postalCode": "S4S7K3", "twitter": "None", "instagram": "None", "facebook": "None", "youtube": "None", "website": "None", "summary": "None", "logo": "None", "latitude": 50.405764994088784, "longitude": -104.6174945317962}, "127327054RR0001": {"name": "MAINLINE THEATRE / THEATRE MAINLINE", "designationCode": "C", "categoryCode": "22", "address": "3997 BOUL. ST-LAURENT", "city": "MONTREAL", "province": "QC", "country": "CA", "postalCode": "H2W1Y4", "twitter": "None", "instagram": "None", "facebook": "None", "youtube": "None", "website": "None", "summary": "None", "logo": "None", "latitude": 45.51678031253954, "longitude": -73.57895254175095}, "118888429RR0001": {"name": "MAINPRIZE REGIONAL PARK AUTHORITY", "designationCode": "C", "categoryCode": "52", "address": "P O BOX 488", "city": "MIDALE", "province": "SK", "country": "CA", "postalCode": "S0C1S0", "twitter": "None", "instagram": "None", "facebook": "None", "youtube": "None", "website": "None", "summary": "None", "logo": "None"}, "894498542RR0001": {"name": "MAINS BSL", "designationCode": "C", "categoryCode": "19", "address": "201 - 192 RUE SAINT-GERMAIN E", "city": "RIMOUSKI", "province": "QC", "country": "CA", "postalCode": "G5L1A8", "twitter": "None", "instagram": "None", "facebook": "None", "youtube": "None", "website": "None", "summary": "None", "logo": "None", "latitude": 48.47709934662457, "longitude": -68.50950125823549}, "886545482RR0001": {"name": "MAINS DE L'ESPOIR DE CHARLEVOIX", "designationCode": "C", "categoryCode": "09", "address": "367 ST-ETIENNE                BUREAU 317", "city": "LA MALBAIE", "province": "QC", "country": "CA", "postalCode": "G5A1M3", "twitter": "None", "instagram": "None", "facebook": "None", "youtube": "None", "website": "None", "summary": "None", "logo": "None", "latitude": 47.65423718847008, "longitude": -70.14977797108924}, "863270989RR0001": {"name": "MAINS SECOURABLES", "designationCode": "C", "categoryCode": "09", "address": "9162A RUE PERINAULT", "city": "SAINT-LEONARD", "province": "QC", "country": "CA", "postalCode": "H1P2L7", "twitter": "None", "instagram": "None", "facebook": "None", "youtube": "None", "website": "None", "summary": "None", "logo": "None", "latitude": 45.59856187561992, "longitude": -73.60594400694357}, "119258440RR0001": {"name": "MAINSTAY HOUSING", "designationCode": "C", "categoryCode": "59", "address": "550 QUEEN ST E                SUITE 150", "city": "TORONTO", "province": "ON", "country": "CA", "postalCode": "M5A1V2", "twitter": "None", "instagram": "None", "facebook": "None", "youtube": "None", "website": "None", "summary": "None", "logo": "None", "latitude": 43.65726609965939, "longitude": -79.35712975757393}, "119028298RR0001": {"name": "MAINSTREAM : AN UNSHELTERED WORKSHOP", "designationCode": "C", "categoryCode": "20", "address": "263 PELHAM RD", "city": "ST CATHARINES", "province": "ON", "country": "CA", "postalCode": "L2S1X7", "twitter": "None", "instagram": "None", "facebook": "None", "youtube": "None", "website": "None", "summary": "None", "logo": "None", "latitude": 43.13139337965281, "longitude": -79.25741894959339}, "885911412RR0001": {"name": "MAINSTREAM FOUNDATION", "designationCode": "A", "categoryCode": "03", "address": "240, 4664 LOUGHEED HIGHWAY", "city": "BURNABY", "province": "BC", "country": "CA", "postalCode": "V5C5T5", "twitter": "None", "instagram": "None", "facebook": "None", "youtube": "None", "website": "None", "summary": "None", "logo": "None", "latitude": 49.26619753448027, "longitude": -122.99816292881867}, "856263140RR0001": {"name": "MAINSTREAMS ENVIRONMENTAL SOCIETY", "designationCode": "C", "categoryCode": "52", "address": "436 FORTIER ST", "city": "KIMBERLEY", "province": "BC", "country": "CA", "postalCode": "V1A1N6", "twitter": "None", "instagram": "None", "facebook": "None", "youtube": "None", "website": "None", "summary": "None", "logo": "None", "latitude": 49.67489669718401, "longitude": -115.97998346153861}, "132961178RR0001": {"name": "MAINSTREET COMMUNITY CHURCH", "designationCode": "C", "categoryCode": "39", "address": "1580 BERNARD AVE", "city": "KELOWNA", "province": "BC", "country": "CA", "postalCode": "V1Y6R9", "twitter": "None", "instagram": "None", "facebook": "None", "youtube": "None", "website": "None", "summary": "None", "logo": "None", "latitude": 49.88630046047076, "longitude": -119.46386245322873}, "107656175RR0001": {"name": "MAISON \"HALTE-SECOURS\"", "designationCode": "C", "categoryCode": "01", "address": "C.P. 55", "city": "DOLBEAU-MISTASSINI", "province": "QC", "country": "CA", "postalCode": "G8L2P9", "twitter": "None", "instagram": "None", "facebook": "None", "youtube": "None", "website": "None", "summary": "None", "logo": "None", "latitude": 48.88193100000005, "longitude": -72.23158249999993}, "140932914RR0001": {"name": "MAISON ACCUEIL-SAGESSE", "designationCode": "C", "categoryCode": "01", "address": "424 CH DE MONTREAL", "city": "OTTAWA", "province": "ON", "country": "CA", "postalCode": "K1K0V3", "twitter": "None", "instagram": "None", "facebook": "None", "youtube": "None", "website": "None", "summary": "None", "logo": "None", "latitude": 45.44016627168355, "longitude": -75.64961242864578}, "888453792RR0001": {"name": "MAISON ALCIDE-CL\u00c9MENT", "designationCode": "C", "categoryCode": "09", "address": "132 RUE SAINT-JACQUES", "city": "GATINEAU", "province": "QC", "country": "CA", "postalCode": "J8X2Z4", "twitter": "None", "instagram": "None", "facebook": "None", "youtube": "None", "website": "None", "summary": "None", "logo": "None", "latitude": 45.429869965029724, "longitude": -75.71938225670856}, "803464478RR0001": {"name": "MAISON ALICE-DESMARAIS", "designationCode": "C", "categoryCode": "09", "address": "C.P. 103 SUCC. BUREAU-CHEF", "city": "GRANBY", "province": "QC", "country": "CA", "postalCode": "J2G8E2", "twitter": "None", "instagram": "None", "facebook": "None", "youtube": "None", "website": "None", "summary": "None", "logo": "None", "latitude": 45.39837300000005, "longitude": -72.72281149999993}, "854430287RR0001": {"name": "MAISON ALOIS ALZHEIMER DES LAURENTIDES", "designationCode": "C", "categoryCode": "01", "address": "651 5E RUE", "city": "SAINT-JEROME", "province": "QC", "country": "CA", "postalCode": "J7Z2W8", "twitter": "None", "instagram": "None", "facebook": "None", "youtube": "None", "website": "None", "summary": "None", "logo": "None", "latitude": 45.76572943909048, "longitude": -73.99391007995256}, "107655144RR0001": {"name": "MAISON ALTERNATIVE DE DEVELOPPEMENT HUMAIN (M.A.D.H.) INC.", "designationCode": "C", "categoryCode": "09", "address": "C.P. 747 1990 DESSAULES", "city": "ST-HYACINTHE", "province": "QC", "country": "CA", "postalCode": "J2S7P5", "twitter": "None", "instagram": "None", "facebook": "None", "youtube": "None", "website": "None", "summary": "None", "logo": "None", "latitude": 45.62498616126142, "longitude": -72.9508061626464}, "107655169RR0001": {"name": "MAISON AMITIE DE LA HAUTE-GATINEAU", "designationCode": "C", "categoryCode": "01", "address": "108, RUE CHRIST-ROI", "city": "MANIWAKI", "province": "QC", "country": "CA", "postalCode": "J9E1C3", "twitter": "None", "instagram": "None", "facebook": "None", "youtube": "None", "website": "None", "summary": "None", "logo": "None", "latitude": 46.38425749711446, "longitude": -75.98431958228981}, "136740933RR0001": {"name": "MAISON ANDRE BESSETTE", "designationCode": "C", "categoryCode": "01", "address": "497 DES ERABLES", "city": "THETFORD MINES", "province": "QC", "country": "CA", "postalCode": "G6G1H4", "twitter": "None", "instagram": "None", "facebook": "None", "youtube": "None", "website": "None", "summary": "None", "logo": "None", "latitude": 46.10953707689412, "longitude": -71.30703940357192}, "142105493RR0001": {"name": "MAISON ANITA LEBEL", "designationCode": "C", "categoryCode": "09", "address": "77, AVENUE MANCE", "city": "BAIE-COMEAU", "province": "QC", "country": "CA", "postalCode": "G4Z1N1", "twitter": "None", "instagram": "None", "facebook": "None", "youtube": "None", "website": "None", "summary": "None", "logo": "None", "latitude": 49.2197304532574, "longitude": -68.15223136219632}, "107655193RR0001": {"name": "MAISON BALDWIN HOUSE", "designationCode": "C", "categoryCode": "09", "address": "40 FOURTH ST W", "city": "CORNWALL", "province": "ON", "country": "CA", "postalCode": "K6J2R6", "twitter": "None", "instagram": "None", "facebook": "None", "youtube": "None", "website": "None", "summary": "None", "logo": "None", "latitude": 45.020691053551964, "longitude": -74.73224461711588}, "131026106RR0001": {"name": "MAISON CARIGNAN INC", "designationCode": "C", "categoryCode": "01", "address": "7515 BOUL PARENT", "city": "TROS-RIVIERES", "province": "QC", "country": "CA", "postalCode": "G9A5E1", "twitter": "None", "instagram": "None", "facebook": "None", "youtube": "None", "website": "None", "summary": "None", "logo": "None", "latitude": 46.37632200000006, "longitude": -72.66579649999993}, "120585682RR0001": {"name": "MAISON CATHERINE DE LONGPRE", "designationCode": "C", "categoryCode": "10", "address": "1120, 18E RUE OUEST CP 638", "city": "SAINT-GEORGES DE BEAUCE", "province": "QC", "country": "CA", "postalCode": "G5Y6N1", "twitter": "None", "instagram": "None", "facebook": "None", "youtube": "None", "website": "None", "summary": "None", "logo": "None", "latitude": 46.110128938686444, "longitude": -70.68344777938691}, "134703073RR0001": {"name": "MAISON CLOTHILDE", "designationCode": "C", "categoryCode": "09", "address": "341 DE LA MADONE", "city": "MONT-LAURIER", "province": "QC", "country": "CA", "postalCode": "J9L1S1", "twitter": "None", "instagram": "None", "facebook": "None", "youtube": "None", "website": "None", "summary": "None", "logo": "None", "latitude": 46.55084182988044, "longitude": -75.50301163004204}, "132867300RR0001": {"name": "MAISON COLOMBE-VEILLEUX", "designationCode": "C", "categoryCode": "11", "address": "1832, BOUL. WALLBERG", "city": "DOLBEAU", "province": "QC", "country": "CA", "postalCode": "G8L1H9", "twitter": "None", "instagram": "None", "facebook": "None", "youtube": "None", "website": "None", "summary": "None", "logo": "None", "latitude": 48.88276543493553, "longitude": -72.23534794157196}, "896162005RR0001": {"name": "MAISON COMMUNAUTAIRE MISSINAK RESSOURCE D'H\u00c9BERGEMENT ET DE RESSOURCEMENT POUR FEMMES AUTOCHTONES ET LEURS FAMILLES", "designationCode": "C", "categoryCode": "01", "address": "CASE POSTALE 34030", "city": "QU\u00c9BEC", "province": "QC", "country": "CA", "postalCode": "G1G6P2", "twitter": "None", "instagram": "None", "facebook": "None", "youtube": "None", "website": "None", "summary": "None", "logo": "None", "latitude": 46.87673100000005, "longitude": -71.28341899999994}, "867089682RR0001": {"name": "MAISON COUP DE POUCE T -R", "designationCode": "C", "categoryCode": "09", "address": "5593 JEAN-PAUL-LAVERGNE", "city": "TROIS-RIVI\u00c8RES", "province": "QC", "country": "CA", "postalCode": "G8Y3Y5", "twitter": "None", "instagram": "None", "facebook": "None", "youtube": "None", "website": "None", "summary": "None", "logo": "None", "latitude": 46.357147991113195, "longitude": -72.6067898005943}, "129974242RR0001": {"name": "MAISON CROSS ROADS", "designationCode": "C", "categoryCode": "59", "address": "5262 RUE NOTRE-DAME O", "city": "MONTREAL", "province": "QC", "country": "CA", "postalCode": "H4C1T5", "twitter": "None", "instagram": "None", "facebook": "None", "youtube": "None", "website": "None", "summary": "None", "logo": "None", "latitude": 45.469135279473825, "longitude": -73.59384086704375}, "868974692RR0001": {"name": "MAISON D'\u00c9DITION PAULINES", "designationCode": "C", "categoryCode": "50", "address": "5610 RUE BEAUBIEN E", "city": "MONTREAL", "province": "QC", "country": "CA", "postalCode": "H1T1X5", "twitter": "None", "instagram": "None", "facebook": "None", "youtube": "None", "website": "None", "summary": "None", "logo": "None", "latitude": 45.57809610990252, "longitude": -73.56655072534495}, "129934006RR0001": {"name": "MAISON D'ACCUEIL ET D'HEBERGEMENT \"LA CHAMBREE\"", "designationCode": "C", "categoryCode": "01", "address": "C. P. 574", "city": "JONQUIERE", "province": "QC", "country": "CA", "postalCode": "G7X7W4", "twitter": "None", "instagram": "None", "facebook": "None", "youtube": "None", "website": "None", "summary": "None", "logo": "None", "latitude": 48.41346300000005, "longitude": -71.25355249999993}, "132748807RR0001": {"name": "MAISON D'ACCUEIL LA TRAVERSE", "designationCode": "C", "categoryCode": "09", "address": "CP 491", "city": "JOLIETTE", "province": "QC", "country": "CA", "postalCode": "J6E3Z9", "twitter": "None", "instagram": "None", "facebook": "None", "youtube": "None", "website": "None", "summary": "None", "logo": "None", "latitude": 46.02356700000006, "longitude": -73.44196099999994}, "107655334RR0001": {"name": "MAISON D'ACCUEIL LE JOINS TOI", "designationCode": "C", "categoryCode": "59", "address": "479 RUE PRINCIPALE", "city": "GRANBY", "province": "QC", "country": "CA", "postalCode": "J2G2W9", "twitter": "None", "instagram": "None", "facebook": "None", "youtube": "None", "website": "None", "summary": "None", "logo": "None", "latitude": 45.404512689162566, "longitude": -72.73619707825044}, "107655367RR0001": {"name": "MAISON D'ACCUEIL LE MITAN INC.", "designationCode": "C", "categoryCode": "09", "address": "92 RUE BLAINVILLE E", "city": "STE-THERESE-DE-BLAINVILLE", "province": "QC", "country": "CA", "postalCode": "J7E1L8", "twitter": "None", "instagram": "None", "facebook": "None", "youtube": "None", "website": "None", "summary": "None", "logo": "None", "latitude": 45.639170431617295, "longitude": -73.83418660949849}, "876497009RR0001": {"name": "MAISON D'ACCUEIL MUTCHMORE", "designationCode": "C", "categoryCode": "09", "address": "142 RUE MUTCHMORE", "city": "GATINEAU SECTEUR HULL", "province": "QC", "country": "CA", "postalCode": "J8Y3T7", "twitter": "None", "instagram": "None", "facebook": "None", "youtube": "None", "website": "None", "summary": "None", "logo": "None", "latitude": 45.45477166556059, "longitude": -75.73790182595664}, "896843331RR0001": {"name": "MAISON D'ACCUEIL POUR SANS-ABRI DE CHICOUTIMI INC.", "designationCode": "C", "categoryCode": "09", "address": "299 RUE LAFONTAINE", "city": "CHICOUTIMI", "province": "QC", "country": "CA", "postalCode": "G7H4T7", "twitter": "None", "instagram": "None", "facebook": "None", "youtube": "None", "website": "None", "summary": "None", "logo": "None", "latitude": 48.42706200000005, "longitude": -71.06002549999994}, "120822812RR0001": {"name": "MAISON D'AIDE ET D'HEBERGEMENT L'AID'ELLE INC", "designationCode": "C", "categoryCode": "09", "address": "C.P. 6183", "city": "GASP\u00c9", "province": "QC", "country": "CA", "postalCode": "G4X2R5", "twitter": "None", "instagram": "None", "facebook": "None", "youtube": "None", "website": "None", "summary": "None", "logo": "None", "latitude": 48.82559100000006, "longitude": -64.50168949999993}, "130245921RR0001": {"name": "MAISON D'AIDE ET D'HEBERGEMENT L'EMERGENCE INC.", "designationCode": "C", "categoryCode": "09", "address": "C.P. 399", "city": "MARIA", "province": "QC", "country": "CA", "postalCode": "G0C1Y0", "twitter": "None", "instagram": "None", "facebook": "None", "youtube": "None", "website": "None", "summary": "None", "logo": "None", "latitude": 45.47824143344527, "longitude": -73.58234902974667}, "107655961RR0001": {"name": "MAISON D'AIDE ET D'HEBERGEMENT LA RE-SOURCE DE CHATEAUGUAY", "designationCode": "C", "categoryCode": "09", "address": "CP 66017", "city": "CHATEAUGUAY", "province": "QC", "country": "CA", "postalCode": "J6J5W8", "twitter": "None", "instagram": "None", "facebook": "None", "youtube": "None", "website": "None", "summary": "None", "logo": "None", "latitude": 45.380750000000035, "longitude": -73.73786624999997}, "894640242RR0001": {"name": "MAISON D'AIDE VILLA ST-LEONARD", "designationCode": "C", "categoryCode": "57", "address": "1333 GRAND RANG", "city": "SAINT-RAYMOND", "province": "QC", "country": "CA", "postalCode": "G3L4K1", "twitter": "None", "instagram": "None", "facebook": "None", "youtube": "None", "website": "None", "summary": "None", "logo": "None", "latitude": 46.855842326417985, "longitude": -71.81807422338305}, "119028447RR0001": {"name": "MAISON D'AMITIE", "designationCode": "C", "categoryCode": "01", "address": "40 COBOURG ST", "city": "OTTAWA", "province": "ON", "country": "CA", "postalCode": "K1N8Z6", "twitter": "None", "instagram": "None", "facebook": "None", "youtube": "None", "website": "None", "summary": "None", "logo": "None", "latitude": 45.43513221201476, "longitude": -75.68109349601795}, "103462966RR0001": {"name": "MAISON D'ANIMATION POPULAIRE DE SOREL INCORPOREE", "designationCode": "C", "categoryCode": "59", "address": "71 RUE DE RAMEZAY             BUREAU 209", "city": "SOREL-TRACY", "province": "QC", "country": "CA", "postalCode": "J3P3Z1", "twitter": "None", "instagram": "None", "facebook": "None", "youtube": "None", "website": "None", "summary": "None", "logo": "None", "latitude": 46.044942202060085, "longitude": -73.10901753771158}, "119028611RR0001": {"name": "MAISON D'ENTRAIDE L'ARC-EN-CIEL INC.", "designationCode": "C", "categoryCode": "57", "address": "346 DU PARVIS, C.P.30010", "city": "QU\u00c9BEC", "province": "QC", "country": "CA", "postalCode": "G1K8Y1", "twitter": "None", "instagram": "None", "facebook": "None", "youtube": "None", "website": "None", "summary": "None", "logo": "None"}, "870302635RR0001": {"name": "MAISON D'ESPOIR DE L'OUTAOUAIS", "designationCode": "C", "categoryCode": "39", "address": "419 RUE MOZART", "city": "GATINEAU", "province": "QC", "country": "CA", "postalCode": "J9J3C3", "twitter": "None", "instagram": "None", "facebook": "None", "youtube": "None", "website": "None", "summary": "None", "logo": "None", "latitude": 45.42513997807146, "longitude": -75.87611203958657}, "890964653RR0001": {"name": "MAISON D'H\u00c9BERGEMENT JEUNESSE LA PARENTH\u00c8SE", "designationCode": "C", "categoryCode": "01", "address": "582 RUE DU BOIS\u00c9", "city": "SAINT-J\u00c9R\u00d4ME", "province": "QC", "country": "CA", "postalCode": "J7Z0C7", "twitter": "None", "instagram": "None", "facebook": "None", "youtube": "None", "website": "None", "summary": "None", "logo": "None", "latitude": 45.75215865583708, "longitude": -73.97753277462638}, "119010841RR0001": {"name": "MAISON D'H\u00c9BERGEMENT LE RIVAGE DE LA BAIE INC.", "designationCode": "C", "categoryCode": "09", "address": "CP 245", "city": "LA BAIE", "province": "QC", "country": "CA", "postalCode": "G7B3R4", "twitter": "None", "instagram": "None", "facebook": "None", "youtube": "None", "website": "None", "summary": "None", "logo": "None", "latitude": 48.28750800000006, "longitude": -70.92716299999994}, "132448978RR0001": {"name": "MAISON D'HEBERGEMENT \"LE NID\" POUR FEMMES VICTIMES DE VIOLEN", "designationCode": "C", "categoryCode": "09", "address": "C.P. 1591", "city": "VAL-D'OR", "province": "QC", "country": "CA", "postalCode": "J9P5Y8", "twitter": "None", "instagram": "None", "facebook": "None", "youtube": "None", "website": "None", "summary": "None", "logo": "None", "latitude": 48.10161300000006, "longitude": -77.78872249999993}, "140004367RR0001": {"name": "MAISON D'HEBERGEMENT ACCUEIL COMMUNAUTAIRE JEUNESSE DES BASSES LAURENTIDES INC", "designationCode": "C", "categoryCode": "09", "address": "400 RUE BOILEAU", "city": "ST-EUSTACHE", "province": "QC", "country": "CA", "postalCode": "J7R4R7", "twitter": "None", "instagram": "None", "facebook": "None", "youtube": "None", "website": "None", "summary": "None", "logo": "None", "latitude": 45.55825991144912, "longitude": -73.91358676770149}, "891548455RR0001": {"name": "MAISON D'HEBERGEMENT ACCUEIL JEUNESSE LANAUDIERE INC.", "designationCode": "C", "categoryCode": "01", "address": "1094 BOUL MANSEAU", "city": "JOLIETTE", "province": "QC", "country": "CA", "postalCode": "J6E3G8", "twitter": "None", "instagram": "None", "facebook": "None", "youtube": "None", "website": "None", "summary": "None", "logo": "None", "latitude": 46.01769773440465, "longitude": -73.45047872733551}, "898160825RR0001": {"name": "MAISON D'HEBERGEMENT ET DE TRANSITION L'EGIDE", "designationCode": "C", "categoryCode": "09", "address": "C.P. 34 SUCC. LA PRAIRIE", "city": "LA PRAIRIE", "province": "QC", "country": "CA", "postalCode": "J5R3Y1", "twitter": "None", "instagram": "None", "facebook": "None", "youtube": "None", "website": "None", "summary": "None", "logo": "None", "latitude": 45.41745300000005, "longitude": -73.48807249999993}, "858849995RR0001": {"name": "MAISON D'HEBERGEMENT JEUNESSE ESPACE VIVANT LIVING ROOM", "designationCode": "C", "categoryCode": "09", "address": "265 RUE HANSON", "city": "COWANSVILLE", "province": "QC", "country": "CA", "postalCode": "J2K3E8", "twitter": "None", "instagram": "None", "facebook": "None", "youtube": "None", "website": "None", "summary": "None", "logo": "None", "latitude": 45.213426062727216, "longitude": -72.76934190429306}, "103463600RR0001": {"name": "MAISON D'HEBERGEMENT JEUNESSE ROLLAND GAUVREAU INC.", "designationCode": "C", "categoryCode": "01", "address": "638 BASE-DE-ROC", "city": "JOLIETTE", "province": "QC", "country": "CA", "postalCode": "J6E5P7", "twitter": "None", "instagram": "None", "facebook": "None", "youtube": "None", "website": "None", "summary": "None", "logo": "None", "latitude": 46.01544060923868, "longitude": -73.43239812972493}, "107655953RR0001": {"name": "MAISON D'HEBERGEMENT L'AQUARELLE INC.", "designationCode": "C", "categoryCode": "09", "address": "516, 4E RUE", "city": "CHIBOUGAMAU", "province": "QC", "country": "CA", "postalCode": "G8P1S3", "twitter": "None", "instagram": "None", "facebook": "None", "youtube": "None", "website": "None", "summary": "None", "logo": "None", "latitude": 49.912680510675806, "longitude": -74.36429147155059}, "120294251RR0001": {"name": "MAISON D'HEBERGEMENT L'ENVOLEE", "designationCode": "C", "categoryCode": "01", "address": "1620, RUE DES PATRIOTES", "city": "LAVAL", "province": "QC", "country": "CA", "postalCode": "H7L2N6", "twitter": "None", "instagram": "None", "facebook": "None", "youtube": "None", "website": "None", "summary": "None", "logo": "None", "latitude": 45.61283432806277, "longitude": -73.78167605978436}, "896509833RR0001": {"name": "MAISON D'HEBERGEMENT L'EQUINOXE", "designationCode": "C", "categoryCode": "01", "address": "C.P. 6005", "city": "VILLE-MARIE", "province": "QC", "country": "CA", "postalCode": "J9V2E9", "twitter": "None", "instagram": "None", "facebook": "None", "youtube": "None", "website": "None", "summary": "None", "logo": "None", "latitude": 47.33101500000005, "longitude": -79.43626249999993}, "868208513RR0001": {"name": "MAISON D'HEBERGEMENT LA VOLTE-FACE", "designationCode": "C", "categoryCode": "01", "address": "C.P. 38", "city": "VICTORIAVILLE", "province": "QC", "country": "CA", "postalCode": "G6P6S4", "twitter": "None", "instagram": "None", "facebook": "None", "youtube": "None", "website": "None", "summary": "None", "logo": "None", "latitude": 46.02877952468262, "longitude": -71.94789807258684}, "131719759RR0001": {"name": "MAISON D'HEBERGEMENT POUR PERSONNES EN DIFFICULTE DE GRANBY INC", "designationCode": "C", "categoryCode": "01", "address": "436 RUE HORNER", "city": "GRANBY", "province": "QC", "country": "CA", "postalCode": "J2G3T5", "twitter": "None", "instagram": "None", "facebook": "None", "youtube": "None", "website": "None", "summary": "None", "logo": "None", "latitude": 45.39639557227784, "longitude": -72.73613052539099}, "131597130RR0001": {"name": "MAISON D'HEBERGEMENT R S S M", "designationCode": "C", "categoryCode": "10", "address": "3 RUE CAIRNS", "city": "GRANBY", "province": "QC", "country": "CA", "postalCode": "J2G6P9", "twitter": "None", "instagram": "None", "facebook": "None", "youtube": "None", "website": "None", "summary": "None", "logo": "None", "latitude": 45.39603634390312, "longitude": -72.71893478296492}, "140823592RR0001": {"name": "MAISON D'HEBERGEMENT S O S JEUNESSE", "designationCode": "C", "categoryCode": "01", "address": "2196 RUE BONNEAU", "city": "JONQUIERE", "province": "QC", "country": "CA", "postalCode": "G7S4B2", "twitter": "None", "instagram": "None", "facebook": "None", "youtube": "None", "website": "None", "summary": "None", "logo": "None", "latitude": 48.436421164868094, "longitude": -71.13755701705246}, "129192498RR0001": {"name": "MAISON D'HEBERGEMENT SIMONE-MONET-CHARTRAND", "designationCode": "C", "categoryCode": "01", "address": "CP 34", "city": "CHAMBLY", "province": "QC", "country": "CA", "postalCode": "J3L4B1", "twitter": "None", "instagram": "None", "facebook": "None", "youtube": "None", "website": "None", "summary": "None", "logo": "None", "latitude": 45.450807000000054, "longitude": -73.29085099999993}, "136882214RR0001": {"name": "MAISON D'INTEGRATION NORLAC INC", "designationCode": "C", "categoryCode": "09", "address": "162 4E AVENUE", "city": "DOLBEAU-MISTASSINI", "province": "QC", "country": "CA", "postalCode": "G8L2S6", "twitter": "None", "instagram": "None", "facebook": "None", "youtube": "None", "website": "None", "summary": "None", "logo": "None", "latitude": 48.87735591476733, "longitude": -72.2243044773503}, "107655920RR0001": {"name": "MAISON D'INTERVENTION VIVRE", "designationCode": "C", "categoryCode": "01", "address": "1807 RUE DUKE", "city": "SAINT-HUBERT", "province": "QC", "country": "CA", "postalCode": "J4T2A5", "twitter": "None", "instagram": "None", "facebook": "None", "youtube": "None", "website": "None", "summary": "None", "logo": "None", "latitude": 45.500341116856085, "longitude": -73.47612697336825}, "891883969RR0001": {"name": "MAISON DE BALLET-THEATRE REFLET", "designationCode": "C", "categoryCode": "22", "address": "3 - 3481 BOUL DU SOUVENIR", "city": "LAVAL", "province": "QC", "country": "CA", "postalCode": "H7V1X3", "twitter": "None", "instagram": "None", "facebook": "None", "youtube": "None", "website": "None", "summary": "None", "logo": "None", "latitude": 45.55113243161731, "longitude": -73.74757485804139}, "107458176RR0001": {"name": "MAISON DE DIEU QUEBEC / GURUDWARA SAHIB QUEBEC", "designationCode": "C", "categoryCode": "62", "address": "2183 WELLINGTON STREET", "city": "MONTREAL", "province": "QC", "country": "CA", "postalCode": "H3K1X1", "twitter": "None", "instagram": "None", "facebook": "None", "youtube": "None", "website": "None", "summary": "None", "logo": "None", "latitude": 45.476696671388986, "longitude": -73.55983257328744}, "870814969RR0001": {"name": "MAISON DE JEUNES DE SAINT-LEONARD", "designationCode": "C", "categoryCode": "09", "address": "C.P. 53 SUCCURSALE JEAN-TALON", "city": "SAINT-LEONARD", "province": "QC", "country": "CA", "postalCode": "H1S2Z1", "twitter": "None", "instagram": "None", "facebook": "None", "youtube": "None", "website": "None", "summary": "None", "logo": "None", "latitude": 45.58218820629318, "longitude": -73.58052829407441}, "119028488RR0001": {"name": "MAISON DE JEUNES DE SOREL INC.", "designationCode": "C", "categoryCode": "09", "address": "95 CH. DES PATRIOTES", "city": "SOREL-TRACY", "province": "QC", "country": "CA", "postalCode": "J3P2K9", "twitter": "None", "instagram": "None", "facebook": "None", "youtube": "None", "website": "None", "summary": "None", "logo": "None", "latitude": 46.032414726566365, "longitude": -73.11604014350348}, "894729854RR0001": {"name": "MAISON DE JEUNES DE ST-PRIME", "designationCode": "C", "categoryCode": "09", "address": "150 SAINT-HILAIRE", "city": "ST-PRIME", "province": "QC", "country": "CA", "postalCode": "G8J0B4", "twitter": "None", "instagram": "None", "facebook": "None", "youtube": "None", "website": "None", "summary": "None", "logo": "None", "latitude": 48.5937043838874, "longitude": -72.33887910805356}, "138661855RR0001": {"name": "MAISON DE JEUNES DES QUATRE LIEUX", "designationCode": "C", "categoryCode": "09", "address": "2002, RUE UNION               CP 870", "city": "ST-C\u00c9SAIRE", "province": "QC", "country": "CA", "postalCode": "J0L1T0", "twitter": "None", "instagram": "None", "facebook": "None", "youtube": "None", "website": "None", "summary": "None", "logo": "None", "latitude": 45.4120725004327, "longitude": -73.01392260782504}, "126363274RR0001": {"name": "MAISON DE JEUNES L'\u00c9VEIL JEUNESSE DE LOUISEVILLE INC.", "designationCode": "C", "categoryCode": "09", "address": "CP 42 SUCC BUREAU-CHEF", "city": "LOUISEVILLE", "province": "QC", "country": "CA", "postalCode": "J5V2L6", "twitter": "None", "instagram": "None", "facebook": "None", "youtube": "None", "website": "None", "summary": "None", "logo": "None", "latitude": 46.255596000000054, "longitude": -72.94740199999994}, "888620895RR0001": {"name": "MAISON DE JEUNES L'EXODE", "designationCode": "C", "categoryCode": "09", "address": "2 - 31 AV DU MOULIN", "city": "SAINT-THOMAS-DIDYME", "province": "QC", "country": "CA", "postalCode": "G0W1P0", "twitter": "None", "instagram": "None", "facebook": "None", "youtube": "None", "website": "None", "summary": "None", "logo": "None", "latitude": 48.90922280792325, "longitude": -72.66368975171689}, "898631866RR0001": {"name": "MAISON DE JEUNES L'OLIVIER DES ETCHEMINS", "designationCode": "C", "categoryCode": "09", "address": "2105, 25E AVENUE", "city": "ST-PROSPER", "province": "QC", "country": "CA", "postalCode": "G0M1Y0", "twitter": "None", "instagram": "None", "facebook": "None", "youtube": "None", "website": "None", "summary": "None", "logo": "None", "latitude": 46.21612289863823, "longitude": -70.48605189917225}, "130493109RR0001": {"name": "MAISON DE JEUNES LE POINT DE MIRE", "designationCode": "C", "categoryCode": "09", "address": "3882 RUE WELLINGTON", "city": "VERDUN", "province": "QC", "country": "CA", "postalCode": "H4G1V2", "twitter": "None", "instagram": "None", "facebook": "None", "youtube": "None", "website": "None", "summary": "None", "logo": "None", "latitude": 45.46511834471119, "longitude": -73.56677268731625}, "892579244RR0001": {"name": "MAISON DE JEUNES LE TRANSIT", "designationCode": "C", "categoryCode": "09", "address": "75, RUE THUNEY", "city": "TROIS-RIVIERES", "province": "QC", "country": "CA", "postalCode": "G8T2N7", "twitter": "None", "instagram": "None", "facebook": "None", "youtube": "None", "website": "None", "summary": "None", "logo": "None", "latitude": 46.36914626729746, "longitude": -72.53271509132085}, "103463543RR0001": {"name": "MAISON DE JEUNES RIVI\u00c8RE DU NORD", "designationCode": "C", "categoryCode": "09", "address": "655 FILION C.P.141", "city": "SAINT-J\u00c9R\u00d4ME", "province": "QC", "country": "CA", "postalCode": "J7Z5T7", "twitter": "None", "instagram": "None", "facebook": "None", "youtube": "None", "website": "None", "summary": "None", "logo": "None", "latitude": 45.78851576106505, "longitude": -73.98863212963802}, "131406936RR0001": {"name": "MAISON DE JEUNES SAC-ADO", "designationCode": "C", "categoryCode": "09", "address": "3025 RUE DE LYON", "city": "LONGUEUIL", "province": "QC", "country": "CA", "postalCode": "J4L3R6", "twitter": "None", "instagram": "None", "facebook": "None", "youtube": "None", "website": "None", "summary": "None", "logo": "None", "latitude": 45.51340672773955, "longitude": -73.45993135983039}, "140901737RR0001": {"name": "MAISON DE JEUNES: L'OUVERTURE", "designationCode": "C", "categoryCode": "29", "address": "6425 BOULEVARD LEGER          SS04", "city": "MONTREAL NORD", "province": "QC", "country": "CA", "postalCode": "H1G6J7", "twitter": "None", "instagram": "None", "facebook": "None", "youtube": "None", "website": "None", "summary": "None", "logo": "None", "latitude": 45.62322191623829, "longitude": -73.62251675235113}, "131968398RR0001": {"name": "MAISON DE JEUNES: PLACE JEUNESSE BERTHIER", "designationCode": "C", "categoryCode": "09", "address": "301, RUE MELCHERS", "city": "BERTHIERVILLE", "province": "QC", "country": "CA", "postalCode": "J0K1A0", "twitter": "None", "instagram": "None", "facebook": "None", "youtube": "None", "website": "None", "summary": "None", "logo": "None", "latitude": 46.08604086620705, "longitude": -73.17565421983369}, "103463147RR0001": {"name": "MAISON DE JOB", "designationCode": "C", "categoryCode": "57", "address": "12057, RUE DE L'HOPITAL", "city": "QUEBEC", "province": "QC", "country": "CA", "postalCode": "G2A2T6", "twitter": "None", "instagram": "None", "facebook": "None", "youtube": "None", "website": "None", "summary": "None", "logo": "None", "latitude": 46.855064024669836, "longitude": -71.37186930881727}, "887702264RR0001": {"name": "MAISON DE L'AMITIE DE HULL", "designationCode": "C", "categoryCode": "09", "address": "58 HANSON", "city": "GATINEAU", "province": "QC", "country": "CA", "postalCode": "J8Y3M5", "twitter": "None", "instagram": "None", "facebook": "None", "youtube": "None", "website": "None", "summary": "None", "logo": "None", "latitude": 45.42798006939232, "longitude": -75.7277167539386}, "119028538RR0001": {"name": "MAISON DE L'AMITIE DE MONTREAL MONTREAL HOUSE OF FRIENDSHIP", "designationCode": "C", "categoryCode": "56", "address": "120 DULUTH AVENUE EST", "city": "MONTREAL", "province": "QC", "country": "CA", "postalCode": "H2W1H1", "twitter": "None", "instagram": "None", "facebook": "None", "youtube": "None", "website": "None", "summary": "None", "logo": "None", "latitude": 45.51806356396797, "longitude": -73.57833540769819}, "130491582RR0001": {"name": "MAISON DE L'ESPOIR SAGUENAY LAC ST-JEAN INC", "designationCode": "C", "categoryCode": "57", "address": "3170 CHEMIN DU PLATEAU N", "city": "LA BAIE", "province": "QC", "country": "CA", "postalCode": "G7B0G9", "twitter": "None", "instagram": "None", "facebook": "None", "youtube": "None", "website": "None", "summary": "None", "logo": "None", "latitude": 48.37427974101244, "longitude": -70.98088780397077}, "888356672RR0001": {"name": "MAISON DE L'IMMACULEE-CONCEPTION,", "designationCode": "C", "categoryCode": "20", "address": "25 RUE JARRY OUEST", "city": "MONTREAL", "province": "QC", "country": "CA", "postalCode": "H2P1S6", "twitter": "None", "instagram": "None", "facebook": "None", "youtube": "None", "website": "None", "summary": "None", "logo": "None", "latitude": 45.53849931447277, "longitude": -73.63160199685467}, "893211219RR0001": {"name": "MAISON DE LA CULTURE DE BELLECHASSE", "designationCode": "C", "categoryCode": "22", "address": "75, ROUTE SAINT-GERARD", "city": "SAINT-DAMIEN-DE-BUCKLAND", "province": "QC", "country": "CA", "postalCode": "G0R2Y0", "twitter": "None", "instagram": "None", "facebook": "None", "youtube": "None", "website": "None", "summary": "None", "logo": "None", "latitude": 46.628944748264686, "longitude": -70.66690194597736}, "120851332RR0001": {"name": "MAISON DE LA FAMILLE \u00c9VEIL-NAISSANCE", "designationCode": "C", "categoryCode": "11", "address": "415 AVENUE F.X. BOUCHARD", "city": "ROBERVAL", "province": "QC", "country": "CA", "postalCode": "G8H3R1", "twitter": "None", "instagram": "None", "facebook": "None", "youtube": "None", "website": "None", "summary": "None", "logo": "None", "latitude": 48.51595403886544, "longitude": -72.22623332390782}, "898449947RR0001": {"name": "MAISON DE LA FAMILLE AUX QUATRE VENTS", "designationCode": "C", "categoryCode": "09", "address": "85, RUE IBERVILLE             CP 907", "city": "BERTHIERVILLE", "province": "QC", "country": "CA", "postalCode": "J0K1A0", "twitter": "None", "instagram": "None", "facebook": "None", "youtube": "None", "website": "None", "summary": "None", "logo": "None", "latitude": 46.08463962196332, "longitude": -73.17248504636724}, "136337128RR0001": {"name": "MAISON DE LA FAMILLE BEAUCE-ETCHEMINS", "designationCode": "C", "categoryCode": "09", "address": "565 161E RUE", "city": "SAINT-GEORGES", "province": "QC", "country": "CA", "postalCode": "G5Y2H6", "twitter": "None", "instagram": "None", "facebook": "None", "youtube": "None", "website": "None", "summary": "None", "logo": "None", "latitude": 46.10144370886942, "longitude": -70.65232947879261}, "866349723RR0001": {"name": "MAISON DE LA FAMILLE CHUTES CHAUDI\u00c8RE", "designationCode": "C", "categoryCode": "09", "address": "2225 BOUL. DE LA RIVE-SUD", "city": "SAINT-ROMUALD", "province": "QC", "country": "CA", "postalCode": "G6W2S3", "twitter": "None", "instagram": "None", "facebook": "None", "youtube": "None", "website": "None", "summary": "None", "logo": "None", "latitude": 46.75478524646544, "longitude": -71.2337936065843}, "830416525RR0001": {"name": "MAISON DE LA FAMILLE COEUR \u00c0 RIVI\u00c8RE", "designationCode": "C", "categoryCode": "09", "address": "9140, BOULEVARD PERRAS", "city": "MONTREAL", "province": "QC", "country": "CA", "postalCode": "H1E7E4", "twitter": "None", "instagram": "None", "facebook": "None", "youtube": "None", "website": "None", "summary": "None", "logo": "None", "latitude": 45.65034236966949, "longitude": -73.57774184952996}, "891779431RR0001": {"name": "MAISON DE LA FAMILLE DE BELLECHASSE", "designationCode": "C", "categoryCode": "09", "address": "132, RUE AUB\u00c9", "city": "ST-LAZARE", "province": "QC", "country": "CA", "postalCode": "G0R3J0", "twitter": "None", "instagram": "None", "facebook": "None", "youtube": "None", "website": "None", "summary": "None", "logo": "None", "latitude": 46.65520924591718, "longitude": -70.80426503078668}, "871214490RR0001": {"name": "MAISON DE LA FAMILLE DE BOIS-DES-FILION", "designationCode": "C", "categoryCode": "09", "address": "395 BOUL ADOLPHE-CHAPLEAU", "city": "BOIS-DES-FILION", "province": "QC", "country": "CA", "postalCode": "J6Z1H5", "twitter": "None", "instagram": "None", "facebook": "None", "youtube": "None", "website": "None", "summary": "None", "logo": "None", "latitude": 45.67310275735095, "longitude": -73.74986721141616}}