{"139321897RR0001": {"name": "A.B.E.A.B.C. ADULT BASIC EDUCATION ASSOCIATION OF BRITISH COLUMBIA", "designationCode": "C", "categoryCode": "21", "address": "5476 45TH AVENUE", "city": "DELTA", "province": "BC", "country": "CA", "postalCode": "V4K1L4", "twitter": "None", "instagram": "None", "facebook": "None", "youtube": "None", "website": "None", "summary": "None", "logo": "None", "latitude": 49.08538649235397, "longitude": -123.06987402844942}, "899613871RR0001": {"name": "A.C.E.D. - The Association for Cultural and Educational Development / A.C.E.D. - L'association pour le d\u00e9veloppement culturel et \u00e9ducationnel", "designationCode": "C", "categoryCode": "21", "address": "30 GOULBURN AVE", "city": "OTTAWA", "province": "ON", "country": "CA", "postalCode": "K1N8C8", "twitter": "None", "instagram": "None", "facebook": "None", "youtube": "None", "website": "None", "summary": "None", "logo": "None", "latitude": 45.42710778267649, "longitude": -75.6755969603265}, "809446933RR0001": {"name": "A.C.M.E. Arts Society", "designationCode": "C", "categoryCode": "20", "address": "24 - 20875 88 AVE", "city": "LANGLEY", "province": "BC", "country": "CA", "postalCode": "V1M3K1", "twitter": "None", "instagram": "None", "facebook": "None", "youtube": "None", "website": "None", "summary": "None", "logo": "None", "latitude": 49.1627934676841, "longitude": -122.64554246863639}, "780805693RR0001": {"name": "A.C.T.S.(Apostles' Church of Today Saints)", "designationCode": "C", "categoryCode": "36", "address": "4729 50 ST", "city": "LLOYDMINSTER", "province": "SK", "country": "CA", "postalCode": "S9V0M6", "twitter": "None", "instagram": "None", "facebook": "None", "youtube": "None", "website": "None", "summary": "None", "logo": "None", "latitude": 53.28343553952927, "longitude": -110.00015061226844}, "119088680RR0001": {"name": "A.D. PENNER FAMILY FOUNDATION INC.", "designationCode": "B", "categoryCode": "03", "address": "208 MAIN STREET", "city": "STEINBACH", "province": "MB", "country": "CA", "postalCode": "R5G1Y6", "twitter": "None", "instagram": "None", "facebook": "None", "youtube": "None", "website": "None", "summary": "None", "logo": "None", "latitude": 49.52836307372373, "longitude": -96.6883846564701}, "887711018RR0001": {"name": "A.E. (TED) AND DEANNA M. TURTON CHARITABLE FOUNDATION", "designationCode": "B", "categoryCode": "03", "address": "1600-333 SEYMOUR STREET", "city": "VANCOUVER", "province": "BC", "country": "CA", "postalCode": "V6B0A4", "twitter": "None", "instagram": "None", "facebook": "None", "youtube": "None", "website": "None", "summary": "None", "logo": "None", "latitude": 49.28514037942167, "longitude": -123.11218777257757}, "100071927RR0001": {"name": "A.F.S. INTERCULTURE CANADA", "designationCode": "C", "categoryCode": "21", "address": "1425 RENE-LEVESQUE O          BUR 1100", "city": "MONTREAL", "province": "QC", "country": "CA", "postalCode": "H3G1T7", "twitter": "None", "instagram": "None", "facebook": "None", "youtube": "None", "website": "None", "summary": "None", "logo": "None", "latitude": 45.495059310866075, "longitude": -73.57396546367339}, "118778570RR0001": {"name": "A.G. HUNTSMAN FOUNDATION", "designationCode": "B", "categoryCode": "21", "address": "BEDFORD INST. OF OCEANOGRAPHY PO BOX 1006", "city": "DARTMOUTH", "province": "NS", "country": "CA", "postalCode": "B2Y4A2", "twitter": "None", "instagram": "None", "facebook": "None", "youtube": "None", "website": "None", "summary": "None", "logo": "None", "latitude": 44.67403500000006, "longitude": -63.57535099999993}, "853726487RR0001": {"name": "A.J. McLellan Elementary School Parent Advisory Council", "designationCode": "C", "categoryCode": "21", "address": "16545 61 AVENUE", "city": "SURREY", "province": "BC", "country": "CA", "postalCode": "V3S5V4", "twitter": "None", "instagram": "None", "facebook": "None", "youtube": "None", "website": "None", "summary": "None", "logo": "None", "latitude": 49.11342751485941, "longitude": -122.76350002553522}, "805832318RR0001": {"name": "A.L. Gray Foundation", "designationCode": "B", "categoryCode": "03", "address": "4888 SELKIRK ST", "city": "VANCOUVER", "province": "BC", "country": "CA", "postalCode": "V6H3A3", "twitter": "None", "instagram": "None", "facebook": "None", "youtube": "None", "website": "None", "summary": "None", "logo": "None", "latitude": 49.24181791118931, "longitude": -123.13226887702707}, "140746447RR0001": {"name": "A.L.E.S.E. ABATTONS LES \u00c9CHELONS SOCIO-\u00c9CONOMIQUES", "designationCode": "C", "categoryCode": "09", "address": "56 RUE DU PONT                LOCAL 5", "city": "AMQUI", "province": "QC", "country": "CA", "postalCode": "G5J2P5", "twitter": "None", "instagram": "None", "facebook": "None", "youtube": "None", "website": "None", "summary": "None", "logo": "None", "latitude": 48.46591184984709, "longitude": -67.43047695920133}, "810051003RR0001": {"name": "A.M. Foundation", "designationCode": "B", "categoryCode": "03", "address": "19 SAGUENAY AVENUE,", "city": "TORONTO", "province": "ON", "country": "CA", "postalCode": "M5N2Y5", "twitter": "None", "instagram": "None", "facebook": "None", "youtube": "None", "website": "None", "summary": "None", "logo": "None", "latitude": 43.71845080296025, "longitude": -79.42068702703577}, "863709978RR0001": {"name": "A.P.E. DU BOIS-JOLI", "designationCode": "C", "categoryCode": "21", "address": "785 - 49TH STREET", "city": "TSAWWASSEN", "province": "BC", "country": "CA", "postalCode": "V4M2P3", "twitter": "None", "instagram": "None", "facebook": "None", "youtube": "None", "website": "None", "summary": "None", "logo": "None", "latitude": 49.01742560724813, "longitude": -123.08813580521058}, "883312415RR0001": {"name": "A.P.E.D.A.H. ET PLUS BEAUCE-ETCHEMINS (ASSOCIATION DE PARENTS D'ENFANTS AYANT UN DEFICIT DE L'ATTENTION AVEC OU SANS HYPERACTIVITE OU UN AUTRE TROUBLE NEUROLOGIQUE)", "designationCode": "C", "categoryCode": "11", "address": "2640 BOUL DIONNE", "city": "SAINT-GEORGES", "province": "QC", "country": "CA", "postalCode": "G5Y3X8", "twitter": "None", "instagram": "None", "facebook": "None", "youtube": "None", "website": "None", "summary": "None", "logo": "None", "latitude": 46.11151055311927, "longitude": -70.67174053335417}, "889515839RR0001": {"name": "A.P.E.L.C. (ASSOCIATION POUR LA PROTECTION DE L'ENVIRONNEMENT DU LAC CLOUTIER)", "designationCode": "C", "categoryCode": "52", "address": "C.P. 4254", "city": "SAINTE-BEATRIX", "province": "QC", "country": "CA", "postalCode": "J0K1Y0", "twitter": "None", "instagram": "None", "facebook": "None", "youtube": "None", "website": "None", "summary": "None", "logo": "None", "latitude": 46.09702438917811, "longitude": -73.53014214777427}, "118788983RR0001": {"name": "A.R.C.A.D.", "designationCode": "C", "categoryCode": "59", "address": "200 - 2000 BOUL SAINT-JOSEPH E", "city": "MONTREAL", "province": "QC", "country": "CA", "postalCode": "H2H1E4", "twitter": "None", "instagram": "None", "facebook": "None", "youtube": "None", "website": "None", "summary": "None", "logo": "None", "latitude": 45.53524373780687, "longitude": -73.57940882206022}, "118789494RR0001": {"name": "A.R.H.S./E.B. CHANDLER BAND & CHOIR PARENTS ASSOCIATION", "designationCode": "C", "categoryCode": "22", "address": "190 WILLOW STREET", "city": "AMHERST", "province": "NS", "country": "CA", "postalCode": "B4H3W5", "twitter": "None", "instagram": "None", "facebook": "None", "youtube": "None", "website": "None", "summary": "None", "logo": "None", "latitude": 45.829856698366505, "longitude": -64.18861173731976}, "106734809RR0001": {"name": "A.S.T.C. SCIENCE WORLD SOCIETY", "designationCode": "C", "categoryCode": "22", "address": "1455 QUEBEC STREET", "city": "VANCOUVER", "province": "BC", "country": "CA", "postalCode": "V6A3Z7", "twitter": "None", "instagram": "None", "facebook": "None", "youtube": "None", "website": "None", "summary": "None", "logo": "None", "latitude": 49.273224563342424, "longitude": -123.10186343551823}, "888759941RR0001": {"name": "A.V. ROE CANADA AVIATION MUSEUM ASSOCIATION", "designationCode": "C", "categoryCode": "50", "address": "20, 229 AVRO LANE NW", "city": "CALGARY", "province": "AB", "country": "CA", "postalCode": "T3Z3S6", "twitter": "None", "instagram": "None", "facebook": "None", "youtube": "None", "website": "None", "summary": "None", "logo": "None", "latitude": 51.101443173466436, "longitude": -114.37052772309366}, "118797703RR0001": {"name": "A.W.A.R.E.-ASSISTING WITH AWARENESS REGARDING EMPLOYMENT SOCIETY", "designationCode": "C", "categoryCode": "59", "address": "544 COLUMBIA ST.", "city": "NEW WESTMINSTER", "province": "BC", "country": "CA", "postalCode": "V3L1B1", "twitter": "None", "instagram": "None", "facebook": "None", "youtube": "None", "website": "None", "summary": "None", "logo": "None", "latitude": 49.20341004105846, "longitude": -122.90741876031524}, "118797729RR0001": {"name": "A.W.B. CHARITABLE FOUNDATION", "designationCode": "B", "categoryCode": "03", "address": "400 - 469 KING ST W", "city": "TORONTO", "province": "ON", "country": "CA", "postalCode": "M5V1K4", "twitter": "None", "instagram": "None", "facebook": "None", "youtube": "None", "website": "None", "summary": "None", "logo": "None"}, "806652996RR0001": {"name": "A&Y Foundation", "designationCode": "B", "categoryCode": "03", "address": "445 HEATH ST E", "city": "EAST YORK", "province": "ON", "country": "CA", "postalCode": "M4G1B6", "twitter": "None", "instagram": "None", "facebook": "None", "youtube": "None", "website": "None", "summary": "None", "logo": "None", "latitude": 43.6947677510244, "longitude": -79.37199884318198}, "863683975RR0001": {"name": "A-Mataw-Mikosit Awasisak Teen Support and Daycare Centre Inc.", "designationCode": "C", "categoryCode": "01", "address": "420 LISGAR ST                 RM# 170 - BOX 610", "city": "BALCARRES", "province": "SK", "country": "CA", "postalCode": "S0G0C0", "twitter": "None", "instagram": "None", "facebook": "None", "youtube": "None", "website": "None", "summary": "None", "logo": "None", "latitude": 50.80651384721014, "longitude": -103.54758130213898}, "815152848RR0001": {"name": "A-Supreme Foundation", "designationCode": "C", "categoryCode": "09", "address": "103-845 WILSON AVE", "city": "TORONTO", "province": "ON", "country": "CA", "postalCode": "M3K1E6", "twitter": "None", "instagram": "None", "facebook": "None", "youtube": "None", "website": "None", "summary": "None", "logo": "None", "latitude": 43.73106580930822, "longitude": -79.46470690576496}, "841054208RR0001": {"name": "Aalto-Lee Foundation", "designationCode": "B", "categoryCode": "03", "address": "P.O.BOX 49123 THREE BENTALL C.2700 - 595 BURRARD STREET", "city": "VANCOUVER", "province": "BC", "country": "CA", "postalCode": "V7X1J2", "twitter": "None", "instagram": "None", "facebook": "None", "youtube": "None", "website": "None", "summary": "None", "logo": "None", "latitude": 49.285749245109116, "longitude": -123.11912667060957}, "811546969RR0001": {"name": "Aanandit Aid To Nepal", "designationCode": "C", "categoryCode": "09", "address": "19 KELLER LANE,", "city": "UXBRIDGE", "province": "ON", "country": "CA", "postalCode": "L9P1Z4", "twitter": "None", "instagram": "None", "facebook": "None", "youtube": "None", "website": "None", "summary": "None", "logo": "None", "latitude": 44.09956547735031, "longitude": -79.12342277699231}, "890961626RR0001": {"name": "Aanischaaukamikw - Aanischaaukamikw Cree Cultural Institute - Institut culturel Cri Aanischaaukamikw", "designationCode": "C", "categoryCode": "22", "address": "205 OPEMISKA MESKINO          POST OFFICE BOX 1168", "city": "OUJ\u00c9-BOUGOUMOU", "province": "QC", "country": "CA", "postalCode": "G0W3C0", "twitter": "None", "instagram": "None", "facebook": "None", "youtube": "None", "website": "None", "summary": "None", "logo": "None", "latitude": 49.92398038349551, "longitude": -74.82159905604586}, "839386620RR0001": {"name": "Aaqitauvik Healing Centre", "designationCode": "C", "categoryCode": "57", "address": "P.O. BOX 39", "city": "QUAQTAQ", "province": "QC", "country": "CA", "postalCode": "J0M1J0", "twitter": "None", "instagram": "None", "facebook": "None", "youtube": "None", "website": "None", "summary": "None", "logo": "None", "latitude": 61.04531000000003, "longitude": -69.62776999999994}, "821092772RR0001": {"name": "Aaron's Apple Inc.", "designationCode": "C", "categoryCode": "11", "address": "300A WILSON AVE", "city": "NORTH YORK", "province": "ON", "country": "CA", "postalCode": "M3H1S8", "twitter": "None", "instagram": "None", "facebook": "None", "youtube": "None", "website": "None", "summary": "None", "logo": "None", "latitude": 43.737125821841914, "longitude": -79.43561299493338}, "865876205RR0001": {"name": "Aashpeyimuuwin Association", "designationCode": "C", "categoryCode": "39", "address": "P.O. BOX 1231                 144 MAIN STREET", "city": "MISTISSINI", "province": "QC", "country": "CA", "postalCode": "G0W1C0", "twitter": "None", "instagram": "None", "facebook": "None", "youtube": "None", "website": "None", "summary": "None", "logo": "None", "latitude": 50.41726271621671, "longitude": -73.87044104938134}, "828752576RR0001": {"name": "Abandoned Cat Rescue Ltd.", "designationCode": "C", "categoryCode": "54", "address": "60 MARX FARM RD", "city": "SALISBURY WEST", "province": "NB", "country": "CA", "postalCode": "E4J3G7", "twitter": "None", "instagram": "None", "facebook": "None", "youtube": "None", "website": "None", "summary": "None", "logo": "None", "latitude": 46.15091700000005, "longitude": -65.15045899999993}, "777650326RR0001": {"name": "Abba's Home Ministries", "designationCode": "C", "categoryCode": "01", "address": "3 BRIARWOOD CRT", "city": "NORTH BAY", "province": "ON", "country": "CA", "postalCode": "P1C1M1", "twitter": "None", "instagram": "None", "facebook": "None", "youtube": "None", "website": "None", "summary": "None", "logo": "None", "latitude": 46.34457546047074, "longitude": -79.44631478143572}, "106679053RR0001": {"name": "Abbaye Val Notre-Dame", "designationCode": "C", "categoryCode": "46", "address": "250 CH DE LA MONTAGNE COUPEE", "city": "ST- JEAN-DE-MATHA", "province": "QC", "country": "CA", "postalCode": "J0K2S0", "twitter": "None", "instagram": "None", "facebook": "None", "youtube": "None", "website": "None", "summary": "None", "logo": "None", "latitude": 46.1923515851171, "longitude": -73.51306407458551}, "833492804RR0001": {"name": "Abbey of the Long Cedar Canoe Society", "designationCode": "A", "categoryCode": "03", "address": "302-1230 HARO ST", "city": "VANCOUVER", "province": "BC", "country": "CA", "postalCode": "V6E4J9", "twitter": "None", "instagram": "None", "facebook": "None", "youtube": "None", "website": "None", "summary": "None", "logo": "None", "latitude": 49.28556376989453, "longitude": -123.12849909342697}, "836125666RR0001": {"name": "Abbey Gardens Community Trust", "designationCode": "C", "categoryCode": "59", "address": "1012 GARDEN GATE DRIVE", "city": "HALIBURTON", "province": "ON", "country": "CA", "postalCode": "K0M1S0", "twitter": "None", "instagram": "None", "facebook": "None", "youtube": "None", "website": "None", "summary": "None", "logo": "None", "latitude": 44.973636000000056, "longitude": -78.50579299999994}, "888376597RR0001": {"name": "Abbotsford Association for Healthy Aging", "designationCode": "C", "categoryCode": "09", "address": "2720 MAPLE ST", "city": "ABBOTSFORD", "province": "BC", "country": "CA", "postalCode": "V2S3Y6", "twitter": "None", "instagram": "None", "facebook": "None", "youtube": "None", "website": "None", "summary": "None", "logo": "None", "latitude": 49.05158399999999, "longitude": -122.2838001142886}, "816693956RR0001": {"name": "Abbotsford Celebration Christian Fellowship", "designationCode": "C", "categoryCode": "36", "address": "PO BOX 2336, STATION A", "city": "ABBOTSFORD", "province": "BC", "country": "CA", "postalCode": "V2T4H6", "twitter": "None", "instagram": "None", "facebook": "None", "youtube": "None", "website": "None", "summary": "None", "logo": "None", "latitude": 49.041078000000056, "longitude": -122.33724649999994}, "849844493RR0001": {"name": "Abbotsford Concert Band Society", "designationCode": "C", "categoryCode": "22", "address": "P.O. BOX 143", "city": "ABBOTSFORD", "province": "BC", "country": "CA", "postalCode": "V2T6Z5", "twitter": "None", "instagram": "None", "facebook": "None", "youtube": "None", "website": "None", "summary": "None", "logo": "None", "latitude": 49.05161700000005, "longitude": -122.32930399999994}, "846696227RR0001": {"name": "Abbotsford Cultural Centre", "designationCode": "C", "categoryCode": "22", "address": "32388 VETERANS WAY", "city": "ABBOTSFORD", "province": "BC", "country": "CA", "postalCode": "V2T0B3", "twitter": "None", "instagram": "None", "facebook": "None", "youtube": "None", "website": "None", "summary": "None", "logo": "None"}, "798832697RR0001": {"name": "Abbotsford Hospice Foundation", "designationCode": "A", "categoryCode": "03", "address": "32780 MARSHALL ROAD", "city": "ABBOTSFORD", "province": "BC", "country": "CA", "postalCode": "V2S1K5", "twitter": "None", "instagram": "None", "facebook": "None", "youtube": "None", "website": "None", "summary": "None", "logo": "None", "latitude": 49.03805995696939, "longitude": -122.31622562129273}, "823648092RR0001": {"name": "Abbotsford Vision Church", "designationCode": "C", "categoryCode": "39", "address": "33218 MARSHALL RD", "city": "ABBOTSFORD", "province": "BC", "country": "CA", "postalCode": "V2S1K5", "twitter": "None", "instagram": "None", "facebook": "None", "youtube": "None", "website": "None", "summary": "None", "logo": "None", "latitude": 49.0382974773503, "longitude": -122.30428241756594}, "892853565RR0001": {"name": "Abbottsfield Recreation Centre Society", "designationCode": "C", "categoryCode": "56", "address": "PO BOX 20045 RPO BEVERLY", "city": "EDMONTON", "province": "AB", "country": "CA", "postalCode": "T5W5E6", "twitter": "None", "instagram": "None", "facebook": "None", "youtube": "None", "website": "None", "summary": "None", "logo": "None", "latitude": 53.57172085808644, "longitude": -113.37534064551632}, "815202999RR0001": {"name": "Abegweit Conservation Society", "designationCode": "C", "categoryCode": "59", "address": "11222 ST PETERS RD            RR 1", "city": "MOUNT STEWART", "province": "PE", "country": "CA", "postalCode": "C0A1T0", "twitter": "None", "instagram": "None", "facebook": "None", "youtube": "None", "website": "None", "summary": "None", "logo": "None", "latitude": 46.36934274051796, "longitude": -62.8743527482239}, "807120274RR0001": {"name": "Aberdeen Hall Senior School Society", "designationCode": "C", "categoryCode": "23", "address": "950 ACADEMY WAY", "city": "KELOWNA", "province": "BC", "country": "CA", "postalCode": "V1V3A4", "twitter": "None", "instagram": "None", "facebook": "None", "youtube": "None", "website": "None", "summary": "None", "logo": "None", "latitude": 49.934868620607, "longitude": -119.40110777433699}, "857641153RR0001": {"name": "Aberdeen Health Foundation Society", "designationCode": "A", "categoryCode": "13", "address": "835 EAST RIVER ROAD", "city": "NEW GLASGOW", "province": "NS", "country": "CA", "postalCode": "B2H3S6", "twitter": "None", "instagram": "None", "facebook": "None", "youtube": "None", "website": "None", "summary": "None", "logo": "None", "latitude": 45.572537761501415, "longitude": -62.64252221776251}, "845514025RR0001": {"name": "Abilitas Foundation", "designationCode": "A", "categoryCode": "03", "address": "PO BOX 4114 RPO SUMAS WAY", "city": "ABBOTSFORD", "province": "BC", "country": "CA", "postalCode": "V2S8R1", "twitter": "None", "instagram": "None", "facebook": "None", "youtube": "None", "website": "None", "summary": "None", "logo": "None", "latitude": 49.03426274300448, "longitude": -122.26672619159442}, "814799730RR0001": {"name": "Abilities Centre Foundation", "designationCode": "A", "categoryCode": "03", "address": "1 TORONTO STREET              SUITE 808", "city": "TORONTO", "province": "ON", "country": "CA", "postalCode": "M5C2Y6", "twitter": "None", "instagram": "None", "facebook": "None", "youtube": "None", "website": "None", "summary": "None", "logo": "None", "latitude": 43.64988730558597, "longitude": -79.37604079929623}, "826197394RR0001": {"name": "Ability First Ottawa Inc.", "designationCode": "C", "categoryCode": "09", "address": "B - 70 BONGARD AVE", "city": "NEPEAN", "province": "ON", "country": "CA", "postalCode": "K2E7Z9", "twitter": "None", "instagram": "None", "facebook": "None", "youtube": "None", "website": "None", "summary": "None", "logo": "None", "latitude": 45.33175878902445, "longitude": -75.71478185910925}, "774322721RR0001": {"name": "Abinoojii Obimaatiziwin", "designationCode": "C", "categoryCode": "09", "address": "1 APARTMENT DRIVE             WAUZHUSHK ONIGUM NATION", "city": "KENORA", "province": "ON", "country": "CA", "postalCode": "P9N3X8", "twitter": "None", "instagram": "None", "facebook": "None", "youtube": "None", "website": "None", "summary": "None", "logo": "None", "latitude": 49.77125700000006, "longitude": -94.48912249999994}, "841564016RR0001": {"name": "Able Sail Kingston Learn to Sail Program Inc.", "designationCode": "C", "categoryCode": "56", "address": "1 MAITLAND STREET", "city": "KINGSTON", "province": "ON", "country": "CA", "postalCode": "K7L2V3", "twitter": "None", "instagram": "None", "facebook": "None", "youtube": "None", "website": "None", "summary": "None", "logo": "None", "latitude": 44.222871920047446, "longitude": -76.48726756518005}, "855301115RR0001": {"name": "Ablesail Network of Canada/R\u00e9seauVoile Adapt\u00e9e du Canada", "designationCode": "A", "categoryCode": "03", "address": "15 - 4380 SOUTH SERVICE RD", "city": "BURLINGTON", "province": "ON", "country": "CA", "postalCode": "L7L5Y6", "twitter": "None", "instagram": "None", "facebook": "None", "youtube": "None", "website": "None", "summary": "None", "logo": "None", "latitude": 43.37524002911324, "longitude": -79.77758312401212}, "107820474RR0001": {"name": "AbleLiving Services Inc.", "designationCode": "C", "categoryCode": "01", "address": "125 REDFERN AVE", "city": "HAMILTON", "province": "ON", "country": "CA", "postalCode": "L9C7W9", "twitter": "None", "instagram": "None", "facebook": "None", "youtube": "None", "website": "None", "summary": "None", "logo": "None", "latitude": 43.24085920422751, "longitude": -79.91953122013263}, "817502883RR0001": {"name": "Aboriginal Bible Academy", "designationCode": "C", "categoryCode": "20", "address": "POST OFFICE BOX 478", "city": "DESERONTO", "province": "ON", "country": "CA", "postalCode": "K0K1X0", "twitter": "None", "instagram": "None", "facebook": "None", "youtube": "None", "website": "None", "summary": "None", "logo": "None", "latitude": 44.24640750000001, "longitude": -77.06454975}, "787922723RR0001": {"name": "Aboriginal Coalition to end Homelessness Society", "designationCode": "C", "categoryCode": "59", "address": "465 SWIFT ST", "city": "VICTORIA", "province": "BC", "country": "CA", "postalCode": "V8W1S2", "twitter": "None", "instagram": "None", "facebook": "None", "youtube": "None", "website": "None", "summary": "None", "logo": "None", "latitude": 48.42953459449483, "longitude": -123.37008779364074}, "847902277RR0001": {"name": "Aboriginal Friendship Centre of Calgary", "designationCode": "C", "categoryCode": "09", "address": "101, 427-51 AVENUE SE", "city": "CALGARY", "province": "AB", "country": "CA", "postalCode": "T2H0M8", "twitter": "None", "instagram": "None", "facebook": "None", "youtube": "None", "website": "None", "summary": "None", "logo": "None", "latitude": 51.007424524525625, "longitude": -114.05538063918864}, "850019308RR0001": {"name": "Aboriginal Help Centre", "designationCode": "C", "categoryCode": "01", "address": "609 RUE GALT", "city": "VERDUN", "province": "QC", "country": "CA", "postalCode": "H4G2P6", "twitter": "None", "instagram": "None", "facebook": "None", "youtube": "None", "website": "None", "summary": "None", "logo": "None", "latitude": 45.462146489324205, "longitude": -73.57175971717929}, "891518748RR0001": {"name": "Aboriginal Peoples Alliance (North Ontario)", "designationCode": "C", "categoryCode": "59", "address": "173 RAILWAY STREET", "city": "COCHRANE", "province": "ON", "country": "CA", "postalCode": "P0L1C0", "twitter": "None", "instagram": "None", "facebook": "None", "youtube": "None", "website": "None", "summary": "None", "logo": "None", "latitude": 49.06086420094023, "longitude": -81.0245101674492}, "824583611RR0001": {"name": "Abosamso Orphanage and Charity International", "designationCode": "C", "categoryCode": "01", "address": "517-101 KENDLETON DRIVE", "city": "TORONTO", "province": "ON", "country": "CA", "postalCode": "M9V1V1", "twitter": "None", "instagram": "None", "facebook": "None", "youtube": "None", "website": "None", "summary": "None", "logo": "None", "latitude": 43.7380186458824, "longitude": -79.58183270765826}, "855913869RR0001": {"name": "Abounding Grace Baptist Church", "designationCode": "C", "categoryCode": "39", "address": "32-1145 INLET STREET", "city": "COQUITLAM", "province": "BC", "country": "CA", "postalCode": "V3B6E8", "twitter": "None", "instagram": "None", "facebook": "None", "youtube": "None", "website": "None", "summary": "None", "logo": "None", "latitude": 49.28194103067464, "longitude": -122.78324733733241}, "714022522RR0001": {"name": "Abraham Perlmutter Family Foundation/Fondation de la famille Abraham Perlmutter", "designationCode": "A", "categoryCode": "03", "address": "5670 AV DUROCHER", "city": "OUTREMONT", "province": "QC", "country": "CA", "postalCode": "H2V3Y2", "twitter": "None", "instagram": "None", "facebook": "None", "youtube": "None", "website": "None", "summary": "None", "logo": "None", "latitude": 45.52148376406614, "longitude": -73.60483557481666}, "839660826RR0001": {"name": "Abri Marguerite Inc.", "designationCode": "C", "categoryCode": "09", "address": "N5072-431 AV TACH\u00c9", "city": "WINNIPEG", "province": "MB", "country": "CA", "postalCode": "R2H2A6", "twitter": "None", "instagram": "None", "facebook": "None", "youtube": "None", "website": "None", "summary": "None", "logo": "None", "latitude": 49.88564767415895, "longitude": -97.12384608220292}, "783737927RR0001": {"name": "Absolute Concept", "designationCode": "C", "categoryCode": "09", "address": "242 - 415 OAKDALE RD", "city": "NORTH YORK", "province": "ON", "country": "CA", "postalCode": "M3N1W7", "twitter": "None", "instagram": "None", "facebook": "None", "youtube": "None", "website": "None", "summary": "None", "logo": "None", "latitude": 43.749175735501176, "longitude": -79.52695388784711}, "833508237RR0001": {"name": "Absolute Results Foundation", "designationCode": "A", "categoryCode": "03", "address": "104 - 19353 22 AVE", "city": "SURREY", "province": "BC", "country": "CA", "postalCode": "V3Z3S6", "twitter": "None", "instagram": "None", "facebook": "None", "youtube": "None", "website": "None", "summary": "None", "logo": "None", "latitude": 49.04207153318128, "longitude": -122.68790002553521}, "843797085RR0001": {"name": "Absolute Success Children's Foundation", "designationCode": "A", "categoryCode": "03", "address": "227 KENT STREET WEST,", "city": "LINDSAY", "province": "ON", "country": "CA", "postalCode": "K9V2Z1", "twitter": "None", "instagram": "None", "facebook": "None", "youtube": "None", "website": "None", "summary": "None", "logo": "None", "latitude": 44.35334205211051, "longitude": -78.7438438054998}, "118933746RR0001": {"name": "Abundant Life Center Miramichi Ltd.", "designationCode": "C", "categoryCode": "39", "address": "981-ROUTE 415 HIGHWAY", "city": "WARWICK SETTLEMENT", "province": "NB", "country": "CA", "postalCode": "E9E1Y6", "twitter": "None", "instagram": "None", "facebook": "None", "youtube": "None", "website": "None", "summary": "None", "logo": "None", "latitude": 46.87896265031849, "longitude": -65.80920882988048}, "835050840RR0001": {"name": "Abundant Life Chinese Baptist Church", "designationCode": "C", "categoryCode": "39", "address": "29 MILLVIEW PARK SW", "city": "CALGARY", "province": "AB", "country": "CA", "postalCode": "T2Y4A8", "twitter": "None", "instagram": "None", "facebook": "None", "youtube": "None", "website": "None", "summary": "None", "logo": "None", "latitude": 50.918477018870114, "longitude": -114.0980075585436}, "889791729RR0001": {"name": "Abundant Life Church of Grande Prairie", "designationCode": "C", "categoryCode": "39", "address": "PO BOX 144                    STATION MAIN", "city": "GRANDE PRAIRIE", "province": "AB", "country": "CA", "postalCode": "T8V3A1", "twitter": "None", "instagram": "None", "facebook": "None", "youtube": "None", "website": "None", "summary": "None", "logo": "None", "latitude": 55.171122000000054, "longitude": -118.79491399999993}, "814807624RR0001": {"name": "Abundant Life Church Society", "designationCode": "C", "categoryCode": "31", "address": "3325 49 ST SW", "city": "CALGARY", "province": "AB", "country": "CA", "postalCode": "T3E6M6", "twitter": "None", "instagram": "None", "facebook": "None", "youtube": "None", "website": "None", "summary": "None", "logo": "None", "latitude": 51.02521702176875, "longitude": -114.15816963099094}, "779431121RR0001": {"name": "Abundant Life Evangelical Missionary Church", "designationCode": "C", "categoryCode": "39", "address": "306 CONCORD AVE", "city": "TORONTO", "province": "ON", "country": "CA", "postalCode": "M6H2P6", "twitter": "None", "instagram": "None", "facebook": "None", "youtube": "None", "website": "None", "summary": "None", "logo": "None", "latitude": 43.66224781626179, "longitude": -79.42708358785839}, "815534193RR0001": {"name": "Abundant Life Rescue Society", "designationCode": "C", "categoryCode": "49", "address": "106 ARBOUR SUMMIT CLOSE NW", "city": "CALGARY", "province": "AB", "country": "CA", "postalCode": "T3G3W2", "twitter": "None", "instagram": "None", "facebook": "None", "youtube": "None", "website": "None", "summary": "None", "logo": "None", "latitude": 51.13574948681404, "longitude": -114.18691789771488}, "883414328RR0001": {"name": "Abundant Life Spiritual Healing Centre of Sudbury Inc.", "designationCode": "B", "categoryCode": "43", "address": "360 PERREAULT STREET", "city": "SUDBURY", "province": "ON", "country": "CA", "postalCode": "P3B2M7", "twitter": "None", "instagram": "None", "facebook": "None", "youtube": "None", "website": "None", "summary": "None", "logo": "None", "latitude": 46.50685545657561, "longitude": -80.9829225}, "757384698RR0001": {"name": "Abundant Life Tabernacle United Pentecostal Church (Whitby)", "designationCode": "C", "categoryCode": "39", "address": "32 FLORENCE DR", "city": "WHITBY", "province": "ON", "country": "CA", "postalCode": "L1R0K2", "twitter": "None", "instagram": "None", "facebook": "None", "youtube": "None", "website": "None", "summary": "None", "logo": "None", "latitude": 43.93127221275329, "longitude": -78.96073861217809}, "132813098RR0001": {"name": "Abundant Springs Community Church of Pincher Creek, AB", "designationCode": "C", "categoryCode": "36", "address": "PO BOX 1288                   968 KETTLES ST", "city": "PINCHER CREEK", "province": "AB", "country": "CA", "postalCode": "T0K1W0", "twitter": "None", "instagram": "None", "facebook": "None", "youtube": "None", "website": "None", "summary": "None", "logo": "None", "latitude": 49.48485651067582, "longitude": -113.9372552828207}, "869299206RR0001": {"name": "Acacia Spring Charitable Foundation", "designationCode": "A", "categoryCode": "03", "address": "605 57TH AVE W", "city": "VANCOUVER", "province": "BC", "country": "CA", "postalCode": "V6P1R8", "twitter": "None", "instagram": "None", "facebook": "None", "youtube": "None", "website": "None", "summary": "None", "logo": "None", "latitude": 49.21916617849925, "longitude": -123.11869920811253}, "846270841RR0001": {"name": "Acacia Spring Society", "designationCode": "C", "categoryCode": "09", "address": "SUITE 1250 - 1500 WEST GEORGIABOX 62", "city": "VANCOUVER", "province": "BC", "country": "CA", "postalCode": "V6G2Z6", "twitter": "None", "instagram": "None", "facebook": "None", "youtube": "None", "website": "None", "summary": "None", "logo": "None", "latitude": 49.29029700000005, "longitude": -123.13028599999993}, "840791305RR0001": {"name": "Acad\u00e9mie de danse folklorique L'Aigle Blanc / White Eagle Folk Dance Academy, Akademia Bialego Orla", "designationCode": "C", "categoryCode": "22", "address": "1229 DORION", "city": "MONTR\u00c9AL", "province": "QC", "country": "CA", "postalCode": "H2K4A2", "twitter": "None", "instagram": "None", "facebook": "None", "youtube": "None", "website": "None", "summary": "None", "logo": "None", "latitude": 45.52316012989782, "longitude": -73.5502604516995}, "851483057RR0001": {"name": "Acad\u00e9mie de musique Fortissimo inc./Music Academy FortissimoInc.", "designationCode": "C", "categoryCode": "22", "address": "4875 RUE PANNETON", "city": "LAVAL", "province": "QC", "country": "CA", "postalCode": "H7R6H1", "twitter": "None", "instagram": "None", "facebook": "None", "youtube": "None", "website": "None", "summary": "None", "logo": "None", "latitude": 45.55365326282541, "longitude": -73.85859406330412}, "828388470RR0001": {"name": "Acad\u00e9mie de Rockland / Rockland Academy", "designationCode": "C", "categoryCode": "20", "address": "8720 COUNTY RD 17", "city": "ROCKLAND", "province": "ON", "country": "CA", "postalCode": "K4K1T2", "twitter": "None", "instagram": "None", "facebook": "None", "youtube": "None", "website": "None", "summary": "None", "logo": "None", "latitude": 45.55704078691151, "longitude": -75.27263355724357}, "826330987RR0001": {"name": "Acad\u00e9mie des arts - Trouve ta voie", "designationCode": "C", "categoryCode": "59", "address": "624 RUE LEONARD", "city": "ST-EUSTACHE", "province": "QC", "country": "CA", "postalCode": "J7R6J5", "twitter": "None", "instagram": "None", "facebook": "None", "youtube": "None", "website": "None", "summary": "None", "logo": "None", "latitude": 45.574902608921555, "longitude": -73.92776073729017}, "826806572RR0001": {"name": "Acad\u00e9mie des beaux-arts de Montr\u00e9al Inc./Montreal Fine Arts Academy Inc.", "designationCode": "C", "categoryCode": "22", "address": "6524 RUE SAINT-HUBERT", "city": "MONTREAL", "province": "QC", "country": "CA", "postalCode": "H2S2M3", "twitter": "None", "instagram": "None", "facebook": "None", "youtube": "None", "website": "None", "summary": "None", "logo": "None", "latitude": 45.53641573853093, "longitude": -73.60370429352517}, "130374697RR0001": {"name": "Acad\u00e9mie des Sacr\u00e9s-Coeurs", "designationCode": "C", "categoryCode": "20", "address": "1575 CHEMIN DES VINGT", "city": "ST-BRUNO", "province": "QC", "country": "CA", "postalCode": "J3V4P6", "twitter": "None", "instagram": "None", "facebook": "None", "youtube": "None", "website": "None", "summary": "None", "logo": "None", "latitude": 45.54100101863899, "longitude": -73.29389448551503}, "842386518RR0001": {"name": "Acad\u00e9mie du Tr\u00e9sor - Treasure Academy", "designationCode": "C", "categoryCode": "21", "address": "210, RUE JOSEPH-PARIZEAU", "city": "SHERBROOKE", "province": "QC", "country": "CA", "postalCode": "J1N3N8", "twitter": "None", "instagram": "None", "facebook": "None", "youtube": "None", "website": "None", "summary": "None", "logo": "None", "latitude": 45.3377399003406, "longitude": -72.01899718844142}, "886188507RR0001": {"name": "Acad\u00e9mie Islamique du Manitoba Inc./Islamic Academy of Manitoba Inc.", "designationCode": "B", "categoryCode": "20", "address": "389 DESCHAMBAULT", "city": "WINNIPEG", "province": "MB", "country": "CA", "postalCode": "R2H0J9", "twitter": "None", "instagram": "None", "facebook": "None", "youtube": "None", "website": "None", "summary": "None", "logo": "None"}, "893649707RR0001": {"name": "Acad\u00e9mie Taryag d'Arizal/Taryag Academy of Arizal", "designationCode": "C", "categoryCode": "20", "address": "497 OUTREMONT ST", "city": "MONTREAL", "province": "QC", "country": "CA", "postalCode": "H2V3M4", "twitter": "None", "instagram": "None", "facebook": "None", "youtube": "None", "website": "None", "summary": "None", "logo": "None", "latitude": 45.518463250360576, "longitude": -73.6076823852214}, "140002825RR0001": {"name": "Acad\u00e9mie Y\u00e9shiva Yavn\u00e9", "designationCode": "C", "categoryCode": "20", "address": "7946 WAVELL", "city": "COTE ST-LUC", "province": "QC", "country": "CA", "postalCode": "H4W1L7", "twitter": "None", "instagram": "None", "facebook": "None", "youtube": "None", "website": "None", "summary": "None", "logo": "None", "latitude": 45.461170351924565, "longitude": -73.6645510799239}, "831754106RR0001": {"name": "Acad\u00e9mie Z\u00e9nith", "designationCode": "C", "categoryCode": "20", "address": "3063 RUE DE LYON", "city": "LONGUEUIL", "province": "QC", "country": "CA", "postalCode": "J4L3R8", "twitter": "None", "instagram": "None", "facebook": "None", "youtube": "None", "website": "None", "summary": "None", "logo": "None", "latitude": 45.51308361838528, "longitude": -73.45903174756195}, "703751693RR0001": {"name": "Academia Stella Maris (Metcalfe) Inc.", "designationCode": "C", "categoryCode": "20", "address": "116 LAROSE LANE", "city": "EMBRUN", "province": "ON", "country": "CA", "postalCode": "K0A1W0", "twitter": "None", "instagram": "None", "facebook": "None", "youtube": "None", "website": "None", "summary": "None", "logo": "None", "latitude": 45.28881347259278, "longitude": -75.21142191108783}, "855102588RR0001": {"name": "Academics without Borders / Universitaires sans fronti\u00e8res", "designationCode": "C", "categoryCode": "23", "address": "5221 RUE CARTIER", "city": "MONTREAL", "province": "QC", "country": "CA", "postalCode": "H2H1X6", "twitter": "None", "instagram": "None", "facebook": "None", "youtube": "None", "website": "None", "summary": "None", "logo": "None", "latitude": 45.53727803886543, "longitude": -73.58176753981772}, "805558400RR0001": {"name": "Academos Cybermentorat", "designationCode": "C", "categoryCode": "21", "address": "400 - 296 RUE SAINT-PAUL O", "city": "MONTREAL", "province": "QC", "country": "CA", "postalCode": "H2Y2A3", "twitter": "None", "instagram": "None", "facebook": "None", "youtube": "None", "website": "None", "summary": "None", "logo": "None", "latitude": 45.50274725611937, "longitude": -73.55527287194032}, "865012843RR0001": {"name": "Academy of Sacred Knowledge", "designationCode": "C", "categoryCode": "60", "address": "51 PRINCE ST N", "city": "CHATHAM", "province": "ON", "country": "CA", "postalCode": "N7M4J7", "twitter": "None", "instagram": "None", "facebook": "None", "youtube": "None", "website": "None", "summary": "None", "logo": "None", "latitude": 42.40910301777362, "longitude": -82.17868383954664}, "127411296RR0001": {"name": "Acadia Centre for Social and Business Entrepreneurship - ACSBE", "designationCode": "C", "categoryCode": "20", "address": "PO BOX 142", "city": "WOLFVILLE", "province": "NS", "country": "CA", "postalCode": "B4P2R6", "twitter": "None", "instagram": "None", "facebook": "None", "youtube": "None", "website": "None", "summary": "None", "logo": "None", "latitude": 45.08906100000006, "longitude": -64.36810699999994}, "816260616RR0001": {"name": "Acadia Charitable Trust", "designationCode": "B", "categoryCode": "45", "address": "1401 PRINCESS AVE", "city": "BRANDON", "province": "MB", "country": "CA", "postalCode": "R7A7L7", "twitter": "None", "instagram": "None", "facebook": "None", "youtube": "None", "website": "None", "summary": "None", "logo": "None", "latitude": 49.84694947489748, "longitude": -99.957294}, "106681711RR0001": {"name": "Acadia Foundation", "designationCode": "C", "categoryCode": "09", "address": "PO BAG 1001                   GD", "city": "CONSORT", "province": "AB", "country": "CA", "postalCode": "T0C1B0", "twitter": "None", "instagram": "None", "facebook": "None", "youtube": "None", "website": "None", "summary": "None", "logo": "None", "latitude": 51.97709700000001, "longitude": -110.57295375000001}, "804650083RR0001": {"name": "Acadia Recreation Club Society", "designationCode": "B", "categoryCode": "56", "address": "650 SACKVILLE DRIVE", "city": "LOWER SACKVILLE", "province": "NS", "country": "CA", "postalCode": "B4C2S3", "twitter": "None", "instagram": "None", "facebook": "None", "youtube": "None", "website": "None", "summary": "None", "logo": "None", "latitude": 44.76943679681474, "longitude": -63.68851484459562}, "891963647RR0001": {"name": "Acappella Sounds Chapter of Sweet Adelines", "designationCode": "C", "categoryCode": "22", "address": "36 FABRE ST", "city": "DOLLARD DES ORMEAUX", "province": "QC", "country": "CA", "postalCode": "H9B1P1", "twitter": "None", "instagram": "None", "facebook": "None", "youtube": "None", "website": "None", "summary": "None", "logo": "None", "latitude": 45.488160891742275, "longitude": -73.7923287218825}, "835078445RR0001": {"name": "Acc\u00e8s au savoir", "designationCode": "C", "categoryCode": "21", "address": "890 RUE AMUNDSEN", "city": "BOUCHERVILLE", "province": "QC", "country": "CA", "postalCode": "J4B7S3", "twitter": "None", "instagram": "None", "facebook": "None", "youtube": "None", "website": "None", "summary": "None", "logo": "None", "latitude": 45.60358594419768, "longitude": -73.42904066515656}, "803048677RR0001": {"name": "Acc\u00e8s micro-cr\u00e9dit Gasp\u00e9sie", "designationCode": "C", "categoryCode": "59", "address": "183, AVENUE GRAND PR\u00c9", "city": "BONAVENTURE", "province": "QC", "country": "CA", "postalCode": "G0C1E0", "twitter": "None", "instagram": "None", "facebook": "None", "youtube": "None", "website": "None", "summary": "None", "logo": "None", "latitude": 48.05020289676259, "longitude": -65.48280637789246}, "130522642RR0001": {"name": "Acc\u00e8s B\u00e9n\u00e9volat", "designationCode": "C", "categoryCode": "59", "address": "2544 BOUL ROSEMONT", "city": "MONTREAL", "province": "QC", "country": "CA", "postalCode": "H1Y1K4", "twitter": "None", "instagram": "None", "facebook": "None", "youtube": "None", "website": "None", "summary": "None", "logo": "None", "latitude": 45.547034563967955, "longitude": -73.58573888216297}, "779789296RR0001": {"name": "Acc\u00e8s Soins Alternatifs Mont\u00e9r\u00e9gie", "designationCode": "C", "categoryCode": "11", "address": "222 - 145 BOUL SAINT-JOSEPH", "city": "SAINT-JEAN-SUR-RICHELIEU", "province": "QC", "country": "CA", "postalCode": "J3B1W5", "twitter": "None", "instagram": "None", "facebook": "None", "youtube": "None", "website": "None", "summary": "None", "logo": "None", "latitude": 45.31443753101689, "longitude": -73.25961155398464}, "816667497RR0001": {"name": "Acceptional Foundation", "designationCode": "A", "categoryCode": "03", "address": "5456 SPRUCE AVE", "city": "BURLINGTON", "province": "ON", "country": "CA", "postalCode": "L7L1N9", "twitter": "None", "instagram": "None", "facebook": "None", "youtube": "None", "website": "None", "summary": "None", "logo": "None", "latitude": 43.375766197328225, "longitude": -79.73561294641938}}