{"811094705RR0001": {"name": "Township of Langley Professional Firefighter`s Local 4550 Charitable Society", "designationCode": "A", "categoryCode": "03", "address": "27318 FRASER HWY", "city": "ALDERGROVE", "province": "BC", "country": "CA", "postalCode": "V4W3P8", "twitter": "None", "instagram": "None", "facebook": "None", "youtube": "None", "website": "None", "summary": "None", "logo": "None", "latitude": 49.057845498990396, "longitude": -122.46760510796928}, "847193919RR0001": {"name": "Toy and Collecting Museum Inc.", "designationCode": "B", "categoryCode": "50", "address": "267 CLOVERDALE AVENUE", "city": "HAMILTON", "province": "ON", "country": "CA", "postalCode": "L8K4M5", "twitter": "None", "instagram": "None", "facebook": "None", "youtube": "None", "website": "None", "summary": "None", "logo": "None", "latitude": 43.22348315875128, "longitude": -79.81225935717602}, "820314961RR0001": {"name": "Toy Guns Dance Theatre Ltd.", "designationCode": "C", "categoryCode": "22", "address": "11024 82 AVE NW", "city": "EDMONTON", "province": "AB", "country": "CA", "postalCode": "T6G0T2", "twitter": "None", "instagram": "None", "facebook": "None", "youtube": "None", "website": "None", "summary": "None", "logo": "None", "latitude": 53.51819646047074, "longitude": -113.51634202553522}, "827974239RR0001": {"name": "Toys for Tots", "designationCode": "C", "categoryCode": "09", "address": "515 RICHMOND ST               PO BOX 1904 STATION B", "city": "LONDON", "province": "ON", "country": "CA", "postalCode": "N6A5J4", "twitter": "None", "instagram": "None", "facebook": "None", "youtube": "None", "website": "None", "summary": "None", "logo": "None", "latitude": 42.98709600000001, "longitude": -81.25073856261164}, "108138306RR0001": {"name": "Tr\u00eave pour elles (Centre d'aide et de lutte contre les agressions \u00e0 caract\u00e8re sexuel) inc.", "designationCode": "C", "categoryCode": "09", "address": "C.P. 56, 574 C.P. ONTARIO", "city": "MONTREAL", "province": "QC", "country": "CA", "postalCode": "H1W3Z3", "twitter": "None", "instagram": "None", "facebook": "None", "youtube": "None", "website": "None", "summary": "None", "logo": "None", "latitude": 45.54463841191758, "longitude": -73.54510981772454}, "119268118RR0001": {"name": "Tracadie United Baptist Church", "designationCode": "C", "categoryCode": "31", "address": "POST OFFICE BOX 175", "city": "MONASTERY", "province": "NS", "country": "CA", "postalCode": "B0H1W0", "twitter": "None", "instagram": "None", "facebook": "None", "youtube": "None", "website": "None", "summary": "None", "logo": "None", "latitude": 45.60697500000006, "longitude": -61.61470999999993}, "827875519RR0001": {"name": "Tradebank Foundation of Canada", "designationCode": "B", "categoryCode": "03", "address": "589 BARTON STREET             SUITE 204", "city": "STONEY CREEK", "province": "ON", "country": "CA", "postalCode": "L8E6E4", "twitter": "None", "instagram": "None", "facebook": "None", "youtube": "None", "website": "None", "summary": "None", "logo": "None", "latitude": 43.22343105248409, "longitude": -79.70433602371754}, "824745434RR0001": {"name": "Trades 4 Life International", "designationCode": "C", "categoryCode": "20", "address": "10303 109 AVE", "city": "FORT ST. JOHN", "province": "BC", "country": "CA", "postalCode": "V1J4N5", "twitter": "None", "instagram": "None", "facebook": "None", "youtube": "None", "website": "None", "summary": "None", "logo": "None", "latitude": 56.254290539529244, "longitude": -120.85275060935425}, "844107235RR0001": {"name": "Traditional Anglican Church of Canada", "designationCode": "C", "categoryCode": "30", "address": "136 WILLIAM ST", "city": "PARRY SOUND", "province": "ON", "country": "CA", "postalCode": "P2A1W2", "twitter": "None", "instagram": "None", "facebook": "None", "youtube": "None", "website": "None", "summary": "None", "logo": "None", "latitude": 45.3600191626464, "longitude": -80.01932165142232}, "850449919RR0001": {"name": "Traditional Anglican Parish of St. Bride", "designationCode": "C", "categoryCode": "30", "address": "20895 CAMWOOD AVE", "city": "MAPLE RIDGE", "province": "BC", "country": "CA", "postalCode": "V2X2N9", "twitter": "None", "instagram": "None", "facebook": "None", "youtube": "None", "website": "None", "summary": "None", "logo": "None", "latitude": 49.21687349321932, "longitude": -122.64279291618097}, "891253668RR0001": {"name": "Traditional Knowledge and Language Enrichment Society", "designationCode": "C", "categoryCode": "20", "address": "7825 MISSION RD", "city": "CRANBROOK", "province": "BC", "country": "CA", "postalCode": "V1C7E5", "twitter": "None", "instagram": "None", "facebook": "None", "youtube": "None", "website": "None", "summary": "None", "logo": "None", "latitude": 49.56873226482553, "longitude": -115.75879038917708}, "832535181RR0001": {"name": "Traditional Old Catholic Church", "designationCode": "C", "categoryCode": "39", "address": "11 DARLINGSIDE DRIVE", "city": "SCARBOROUGH", "province": "ON", "country": "CA", "postalCode": "M1E3N7", "twitter": "None", "instagram": "None", "facebook": "None", "youtube": "None", "website": "None", "summary": "None", "logo": "None", "latitude": 43.76133026227715, "longitude": -79.18189465433652}, "827824202RR0001": {"name": "Traditions, Arts & Origines / Traditions, Arts & Origins", "designationCode": "C", "categoryCode": "09", "address": "8145 RUE BIRNAM", "city": "MONTREAL", "province": "QC", "country": "CA", "postalCode": "H3N2T8", "twitter": "None", "instagram": "None", "facebook": "None", "youtube": "None", "website": "None", "summary": "None", "logo": "None", "latitude": 45.528492928126184, "longitude": -73.63841400054825}, "859011355RR0001": {"name": "Trafalgar Township Historical Society", "designationCode": "C", "categoryCode": "50", "address": "2200 SAWGRASS DR", "city": "OAKVILLE", "province": "ON", "country": "CA", "postalCode": "L6H6M8", "twitter": "None", "instagram": "None", "facebook": "None", "youtube": "None", "website": "None", "summary": "None", "logo": "None", "latitude": 43.478450530094186, "longitude": -79.71342380408541}, "108135690RR0001": {"name": "Trail Alliance Church of The Christian and Missionary Alliance in Canada", "designationCode": "C", "categoryCode": "39", "address": "3365 LABURNUM DR", "city": "TRAIL", "province": "BC", "country": "CA", "postalCode": "V1R2S8", "twitter": "None", "instagram": "None", "facebook": "None", "youtube": "None", "website": "None", "summary": "None", "logo": "None", "latitude": 49.10041528368609, "longitude": -117.67241052813229}, "834768020RR0001": {"name": "Trails Charitable Foundation", "designationCode": "B", "categoryCode": "03", "address": "P.O. BOX 2680", "city": "SMITHERS", "province": "BC", "country": "CA", "postalCode": "V0J2N0", "twitter": "None", "instagram": "None", "facebook": "None", "youtube": "None", "website": "None", "summary": "None", "logo": "None", "latitude": 54.78312000000005, "longitude": -127.16847999999999}, "852227503RR0001": {"name": "Train des mots", "designationCode": "C", "categoryCode": "21", "address": "124 CHEMIN LAVIGNE", "city": "ST-\u00c9TIENNE-DE-BOLTON", "province": "QC", "country": "CA", "postalCode": "J0E2E0", "twitter": "None", "instagram": "None", "facebook": "None", "youtube": "None", "website": "None", "summary": "None", "logo": "None", "latitude": 45.249842745484486, "longitude": -72.34913820263701}, "108137431RR0001": {"name": "Trajet Inc.", "designationCode": "C", "categoryCode": "59", "address": "3566 RUE BELANGER EST", "city": "MONTREAL", "province": "QC", "country": "CA", "postalCode": "H1X1A7", "twitter": "None", "instagram": "None", "facebook": "None", "youtube": "None", "website": "None", "summary": "None", "logo": "None", "latitude": 45.5599144546137, "longitude": -73.59165760808484}, "829708403RR0001": {"name": "Trans Canada Trail Foundation - Sentier Transcanadien Fondation", "designationCode": "A", "categoryCode": "03", "address": "300 - 321 RUE DE LA COMMUNE O", "city": "MONTREAL", "province": "QC", "country": "CA", "postalCode": "H2Y2E1", "twitter": "None", "instagram": "None", "facebook": "None", "youtube": "None", "website": "None", "summary": "None", "logo": "None", "latitude": 45.501981279124365, "longitude": -73.55380820038366}, "819304536RR0001": {"name": "Transcendence Foundation", "designationCode": "B", "categoryCode": "03", "address": "1250-1500 WEST GEORGIA STREET BOX 62", "city": "VANCOUVER", "province": "BC", "country": "CA", "postalCode": "V6G2Z6", "twitter": "None", "instagram": "None", "facebook": "None", "youtube": "None", "website": "None", "summary": "None", "logo": "None", "latitude": 49.290187500000016, "longitude": -123.130035}, "840711154RR0001": {"name": "Transcona Literacy Centre Inc.", "designationCode": "C", "categoryCode": "29", "address": "260 REDONDA STREET", "city": "WINNIPEG", "province": "MB", "country": "CA", "postalCode": "R2C1L6", "twitter": "None", "instagram": "None", "facebook": "None", "youtube": "None", "website": "None", "summary": "None", "logo": "None", "latitude": 49.89877310891712, "longitude": -96.97978664008112}, "869018002RR0001": {"name": "Transcona Trails Inc.", "designationCode": "C", "categoryCode": "56", "address": "408 JACQUES AVE", "city": "WINNIPEG", "province": "MB", "country": "CA", "postalCode": "R3W1N5", "twitter": "None", "instagram": "None", "facebook": "None", "youtube": "None", "website": "None", "summary": "None", "logo": "None", "latitude": 49.9232244884588, "longitude": -97.0379608097409}, "118863943RR0001": {"name": "Transfiguration of Our Lord Jesus Christ Ukrainian Catholic Church", "designationCode": "C", "categoryCode": "38", "address": "629 MCINTOSH ST.", "city": "THUNDER BAY", "province": "ON", "country": "CA", "postalCode": "P7C3A3", "twitter": "None", "instagram": "None", "facebook": "None", "youtube": "None", "website": "None", "summary": "None", "logo": "None", "latitude": 48.39320064057362, "longitude": -89.23135958272252}, "107910259RR0098": {"name": "Transfiguration of Our Lord Parish", "designationCode": "C", "categoryCode": "38", "address": "45 LUDSTONE DRIVE", "city": "ETOBICOKE", "province": "ON", "country": "CA", "postalCode": "M9R2J2", "twitter": "None", "instagram": "None", "facebook": "None", "youtube": "None", "website": "None", "summary": "None", "logo": "None", "latitude": 43.691554899763695, "longitude": -79.56420770578234}, "889614368RR0001": {"name": "Transformation in Progress", "designationCode": "C", "categoryCode": "20", "address": "JAMES C. SMITH                P.O. BOX  68", "city": "SHARBOT LAKE", "province": "ON", "country": "CA", "postalCode": "K0H2P0", "twitter": "None", "instagram": "None", "facebook": "None", "youtube": "None", "website": "None", "summary": "None", "logo": "None", "latitude": 44.760228000000055, "longitude": -76.67030599999994}, "812889285RR0001": {"name": "Transformation Centre Assembly of God Church", "designationCode": "C", "categoryCode": "39", "address": "56-5536 MONTEVIDEO ROAD", "city": "MISSISSAUGA", "province": "ON", "country": "CA", "postalCode": "L5N2P4", "twitter": "None", "instagram": "None", "facebook": "None", "youtube": "None", "website": "None", "summary": "None", "logo": "None", "latitude": 43.58085991644076, "longitude": -79.75268182497568}, "840357933RR0001": {"name": "Transformation Christian Centre", "designationCode": "C", "categoryCode": "39", "address": "10704 CITY PKY", "city": "SURREY", "province": "BC", "country": "CA", "postalCode": "V3T4C7", "twitter": "None", "instagram": "None", "facebook": "None", "youtube": "None", "website": "None", "summary": "None", "logo": "None", "latitude": 49.19717700000001, "longitude": -122.84875090784243}, "810356717RR0001": {"name": "Transformation Church", "designationCode": "C", "categoryCode": "39", "address": "303 PRUDEN ST", "city": "THUNDER BAY", "province": "ON", "country": "CA", "postalCode": "P7C2K2", "twitter": "None", "instagram": "None", "facebook": "None", "youtube": "None", "website": "None", "summary": "None", "logo": "None", "latitude": 48.39097486262903, "longitude": -89.24255486704376}, "801145764RR0001": {"name": "Transformation Community Church Inc.", "designationCode": "C", "categoryCode": "39", "address": "44 EAST LAKE DR", "city": "WINNIPEG", "province": "MB", "country": "CA", "postalCode": "R3T4V5", "twitter": "None", "instagram": "None", "facebook": "None", "youtube": "None", "website": "None", "summary": "None", "logo": "None", "latitude": 49.810728951411065, "longitude": -97.15966229254421}, "785444290RR0001": {"name": "Transformation Worship Centre", "designationCode": "C", "categoryCode": "39", "address": "97 FENNELL CRES", "city": "LONDON", "province": "ON", "country": "CA", "postalCode": "N6E2E2", "twitter": "None", "instagram": "None", "facebook": "None", "youtube": "None", "website": "None", "summary": "None", "logo": "None", "latitude": 42.929402457960585, "longitude": -81.23482028810082}, "891429722RR0001": {"name": "Transformations Canada Inc.", "designationCode": "C", "categoryCode": "23", "address": "PO BOX 22016                  RPO BRANTFORD EAST", "city": "BRANTFORD", "province": "ON", "country": "CA", "postalCode": "N3S7V1", "twitter": "None", "instagram": "None", "facebook": "None", "youtube": "None", "website": "None", "summary": "None", "logo": "None", "latitude": 43.14136200000006, "longitude": -80.26173349999993}, "806378931RR0001": {"name": "Transforming Faith Worship Centre", "designationCode": "C", "categoryCode": "39", "address": "BUILDING B 6951 DERRY ROAD    PO BOX 40054", "city": "MILTON", "province": "ON", "country": "CA", "postalCode": "L9T7W4", "twitter": "None", "instagram": "None", "facebook": "None", "youtube": "None", "website": "None", "summary": "None", "logo": "None", "latitude": 43.49620622462455, "longitude": -79.87274316803556}, "801030404RR0001": {"name": "Transforming Life Centre / Centre transformateur de vie", "designationCode": "C", "categoryCode": "39", "address": "156 CLEOPATRA DRIVE", "city": "OTTAWA", "province": "ON", "country": "CA", "postalCode": "K2G5X2", "twitter": "None", "instagram": "None", "facebook": "None", "youtube": "None", "website": "None", "summary": "None", "logo": "None", "latitude": 45.33034335553124, "longitude": -75.72774221054286}, "892604281RR0001": {"name": "Transparency International Canada Inc.", "designationCode": "C", "categoryCode": "29", "address": "4700 KEELE ST", "city": "NORTH YORK", "province": "ON", "country": "CA", "postalCode": "M3J1P3", "twitter": "None", "instagram": "None", "facebook": "None", "youtube": "None", "website": "None", "summary": "None", "logo": "None", "latitude": 43.77448979818479, "longitude": -79.4939737399481}, "835240128RR0001": {"name": "Transplant Advocate Association", "designationCode": "C", "categoryCode": "11", "address": "P.O. BOX 3 KINGSTON MAIN", "city": "KINGSTON", "province": "ON", "country": "CA", "postalCode": "K7L4V6", "twitter": "None", "instagram": "None", "facebook": "None", "youtube": "None", "website": "None", "summary": "None", "logo": "None", "latitude": 44.23153200000006, "longitude": -76.47933049999993}, "887929644RR0001": {"name": "Transplant Research Foundation of BC", "designationCode": "A", "categoryCode": "13", "address": "555-12TH AVE W                WEST TOWER 3RD FLR", "city": "VANCOUVER", "province": "BC", "country": "CA", "postalCode": "V5Z3X7", "twitter": "None", "instagram": "None", "facebook": "None", "youtube": "None", "website": "None", "summary": "None", "logo": "None", "latitude": 49.26043952654483, "longitude": -123.1163112783773}, "130968647RR0001": {"name": "Transport adapt\u00e9 et collectif de la C\u00f4te-de-Gasp\u00e9 inc.", "designationCode": "C", "categoryCode": "09", "address": "1384 BOULEVARD HALDIMAND      CASIER POSTALE 6178", "city": "GASP\u00c9", "province": "QC", "country": "CA", "postalCode": "G4X2R7", "twitter": "None", "instagram": "None", "facebook": "None", "youtube": "None", "website": "None", "summary": "None", "logo": "None", "latitude": 48.77756045051609, "longitude": -64.44196000429916}, "131779118RR0001": {"name": "Transport adapt\u00e9 et collectif des Anses Inc.", "designationCode": "C", "categoryCode": "09", "address": "103-129 BOUL. RENE-LEVESQUE O", "city": "CHANDLER", "province": "QC", "country": "CA", "postalCode": "G0C1K0", "twitter": "None", "instagram": "None", "facebook": "None", "youtube": "None", "website": "None", "summary": "None", "logo": "None", "latitude": 48.349062427722174, "longitude": -64.68300116319466}, "802502914RR0001": {"name": "Transport collectif Malartic", "designationCode": "C", "categoryCode": "59", "address": "866 RUE ROYALE                SUITE 104", "city": "MALARTIC", "province": "QC", "country": "CA", "postalCode": "J0Y1Z0", "twitter": "None", "instagram": "None", "facebook": "None", "youtube": "None", "website": "None", "summary": "None", "logo": "None", "latitude": 48.13604933971953, "longitude": -78.12650644004275}, "815619564RR0001": {"name": "Transport Adapt\u00e9 du Haut-Richelieu (TAHR)", "designationCode": "C", "categoryCode": "09", "address": "1 - 245 6E AV", "city": "SAINT-JEAN-SUR-RICHELIEU", "province": "QC", "country": "CA", "postalCode": "J2X0C6", "twitter": "None", "instagram": "None", "facebook": "None", "youtube": "None", "website": "None", "summary": "None", "logo": "None", "latitude": 45.30900265230252, "longitude": -73.23345380683801}, "804816940RR0001": {"name": "Transport Adapt\u00e9 L'Islet-Sud", "designationCode": "C", "categoryCode": "09", "address": "210-35, RUE PRINCIPALE", "city": "ST-PAMPHILE", "province": "QC", "country": "CA", "postalCode": "G0R3X0", "twitter": "None", "instagram": "None", "facebook": "None", "youtube": "None", "website": "None", "summary": "None", "logo": "None", "latitude": 46.961174936955686, "longitude": -69.7792799446877}, "844530758RR0001": {"name": "Transportation Emergency Rescue Committee Canada", "designationCode": "C", "categoryCode": "59", "address": "112 ADELAIDE ST", "city": "SEELEY'S BAY", "province": "ON", "country": "CA", "postalCode": "K0H2N0", "twitter": "None", "instagram": "None", "facebook": "None", "youtube": "None", "website": "None", "summary": "None", "logo": "None", "latitude": 44.47722480379696, "longitude": -76.2339547900054}, "844409656RR0001": {"name": "Traquair Family Foundation", "designationCode": "B", "categoryCode": "03", "address": "41 KENNEDY PARK ROAD", "city": "TORONTO", "province": "ON", "country": "CA", "postalCode": "M6P3H2", "twitter": "None", "instagram": "None", "facebook": "None", "youtube": "None", "website": "None", "summary": "None", "logo": "None", "latitude": 43.65300840911184, "longitude": -79.47348086398534}, "805554375RR0001": {"name": "Travail de rue le TRAJET", "designationCode": "C", "categoryCode": "09", "address": "759 RUE SAINT-PIERRE", "city": "TERREBONNE", "province": "QC", "country": "CA", "postalCode": "J6W1E3", "twitter": "None", "instagram": "None", "facebook": "None", "youtube": "None", "website": "None", "summary": "None", "logo": "None", "latitude": 45.69276329615091, "longitude": -73.6345761283686}, "841336068RR0001": {"name": "Travail de rue, secteur Brandon", "designationCode": "C", "categoryCode": "09", "address": "19 RUE ST-GABRIEL", "city": "ST-GABRIEL", "province": "QC", "country": "CA", "postalCode": "J0K2N0", "twitter": "None", "instagram": "None", "facebook": "None", "youtube": "None", "website": "None", "summary": "None", "logo": "None", "latitude": 46.33255238210835, "longitude": -73.38205513284264}, "869805226RR0001": {"name": "Travail de Rue Lavaltrie", "designationCode": "C", "categoryCode": "09", "address": "C.P. 93", "city": "LAVALTRIE", "province": "QC", "country": "CA", "postalCode": "J5T4A9", "twitter": "None", "instagram": "None", "facebook": "None", "youtube": "None", "website": "None", "summary": "None", "logo": "None", "latitude": 45.89407678092224, "longitude": -73.29722057796464}, "107820524RR0001": {"name": "Traverse Independence Not-For-Profit", "designationCode": "C", "categoryCode": "01", "address": "1-1382 WEBER STREET E", "city": "KITCHENER", "province": "ON", "country": "CA", "postalCode": "N2A1C4", "twitter": "None", "instagram": "None", "facebook": "None", "youtube": "None", "website": "None", "summary": "None", "logo": "None", "latitude": 43.43309825540957, "longitude": -80.44032223766554}, "826471088RR0001": {"name": "Treasure Chest Ministries Ltd.", "designationCode": "C", "categoryCode": "47", "address": "40 WINDERMERE DRIVE", "city": "SPRUCE GROVE", "province": "AB", "country": "CA", "postalCode": "T7X1P6", "twitter": "None", "instagram": "None", "facebook": "None", "youtube": "None", "website": "None", "summary": "None", "logo": "None", "latitude": 53.54972260502644, "longitude": -113.90407614472856}, "827417544RR0001": {"name": "Treasure Keepers Children's Centre Inc.", "designationCode": "C", "categoryCode": "01", "address": "PO BOX 99", "city": "LA BROQUERIE", "province": "MB", "country": "CA", "postalCode": "R0A0W0", "twitter": "None", "instagram": "None", "facebook": "None", "youtube": "None", "website": "None", "summary": "None", "logo": "None", "latitude": 49.52287000000007, "longitude": -96.51056999999997}, "846720647RR0001": {"name": "Trees for Hamilton", "designationCode": "C", "categoryCode": "52", "address": "2808 GOVERNOR'S ROAD          RR2", "city": "LYNDEN", "province": "ON", "country": "CA", "postalCode": "L0R1T0", "twitter": "None", "instagram": "None", "facebook": "None", "youtube": "None", "website": "None", "summary": "None", "logo": "None", "latitude": 43.238075757083934, "longitude": -80.09022533109253}, "831072616RR0001": {"name": "Treherne and Area Donor's Choice", "designationCode": "A", "categoryCode": "03", "address": "PO BOX 258", "city": "TREHERNE", "province": "MB", "country": "CA", "postalCode": "R0G2V0", "twitter": "None", "instagram": "None", "facebook": "None", "youtube": "None", "website": "None", "summary": "None", "logo": "None", "latitude": 49.635710000000074, "longitude": -98.69734999999997}, "854837556RR0001": {"name": "Treitel Foundation / Fondation Treitel", "designationCode": "B", "categoryCode": "03", "address": "4740 VEZINA", "city": "MONTREAL", "province": "QC", "country": "CA", "postalCode": "H3W1B8", "twitter": "None", "instagram": "None", "facebook": "None", "youtube": "None", "website": "None", "summary": "None", "logo": "None", "latitude": 45.49746565500035, "longitude": -73.64278681277067}, "840352066RR0001": {"name": "Trek for Teens Foundation Incorporated", "designationCode": "A", "categoryCode": "03", "address": "8 POULIAS AVENUE,", "city": "RICHMOND HILL", "province": "ON", "country": "CA", "postalCode": "L4E4A1", "twitter": "None", "instagram": "None", "facebook": "None", "youtube": "None", "website": "None", "summary": "None", "logo": "None", "latitude": 43.936876172369914, "longitude": -79.47198762698362}, "106990070RR0001": {"name": "Trellis Foundation: A Legacy of Covenant Bible College", "designationCode": "A", "categoryCode": "20", "address": "1229 WINDERMERE AVE", "city": "WINNIPEG", "province": "MB", "country": "CA", "postalCode": "R3T1A7", "twitter": "None", "instagram": "None", "facebook": "None", "youtube": "None", "website": "None", "summary": "None", "logo": "None", "latitude": 49.84606485541566, "longitude": -97.15904287428579}, "847035375RR0001": {"name": "Tremont Community Cemetery Society", "designationCode": "C", "categoryCode": "59", "address": "800 TREMONT MOUNTAIN RD", "city": "GREENWOOD", "province": "NS", "country": "CA", "postalCode": "B0P1R0", "twitter": "None", "instagram": "None", "facebook": "None", "youtube": "None", "website": "None", "summary": "None", "logo": "None", "latitude": 44.95642890397595, "longitude": -64.93606127918537}, "827966573RR0001": {"name": "Tremplin d'espoir Bujumbura", "designationCode": "C", "categoryCode": "09", "address": "1820 RUE MARTIN APP 3", "city": "NICOLET", "province": "QC", "country": "CA", "postalCode": "J3T1V6", "twitter": "None", "instagram": "None", "facebook": "None", "youtube": "None", "website": "None", "summary": "None", "logo": "None", "latitude": 46.237501342201035, "longitude": -72.59794501399404}, "849992110RR0001": {"name": "Trends: Young Women's Fashion Alliance of Canada / STYLE: L'Alliance des jeunes canadiennes pour la mode", "designationCode": "C", "categoryCode": "29", "address": "36 BRIAR PATH", "city": "BRAMPTON", "province": "ON", "country": "CA", "postalCode": "L6T2A3", "twitter": "None", "instagram": "None", "facebook": "None", "youtube": "None", "website": "None", "summary": "None", "logo": "None", "latitude": 43.71170724839867, "longitude": -79.7204806039299}, "840040745RR0001": {"name": "Trent Centre for Community-Based Education Inc.", "designationCode": "C", "categoryCode": "21", "address": "1600 WEST BANK DRIVE", "city": "PETERBOROUGH", "province": "ON", "country": "CA", "postalCode": "K9J7B8", "twitter": "None", "instagram": "None", "facebook": "None", "youtube": "None", "website": "None", "summary": "None", "logo": "None", "latitude": 44.35258128767253, "longitude": -78.29721696102374}, "856696471RR0001": {"name": "Trent Chaplaincy", "designationCode": "C", "categoryCode": "49", "address": "566 ARMOUR ROAD", "city": "PETERBOROUGH", "province": "ON", "country": "CA", "postalCode": "K9H1Z1", "twitter": "None", "instagram": "None", "facebook": "None", "youtube": "None", "website": "None", "summary": "None", "logo": "None", "latitude": 44.312180215678744, "longitude": -78.30775952210236}, "107445355RR0001": {"name": "Trenton United Church", "designationCode": "C", "categoryCode": "44", "address": "85 DUNDAS ST E", "city": "TRENTON", "province": "ON", "country": "CA", "postalCode": "K8V1K8", "twitter": "None", "instagram": "None", "facebook": "None", "youtube": "None", "website": "None", "summary": "None", "logo": "None", "latitude": 44.10484557285477, "longitude": -77.5685445925616}, "771942323RR0001": {"name": "Trevor Barton Memorial Foundation", "designationCode": "C", "categoryCode": "09", "address": "475 HUNTINGDON DRIVE,", "city": "LONDON", "province": "ON", "country": "CA", "postalCode": "N6C4H9", "twitter": "None", "instagram": "None", "facebook": "None", "youtube": "None", "website": "None", "summary": "None", "logo": "None", "latitude": 42.95752634831786, "longitude": -81.23742916030913}, "837383777RR0001": {"name": "Tri-Cities Off Road Cycling Association", "designationCode": "C", "categoryCode": "56", "address": "PO BOX 18121                  HERITAGE MOUNTAIN", "city": "PORT MOODY", "province": "BC", "country": "CA", "postalCode": "V6B3Z8", "twitter": "None", "instagram": "None", "facebook": "None", "youtube": "None", "website": "None", "summary": "None", "logo": "None", "latitude": 49.29192472003037, "longitude": -122.83512816009114}, "130600679RR0001": {"name": "Tri-City Transitions Society", "designationCode": "C", "categoryCode": "09", "address": "200-2540 SHAUGHNESSY ST", "city": "PORT COQUITLAM", "province": "BC", "country": "CA", "postalCode": "V3C3W4", "twitter": "None", "instagram": "None", "facebook": "None", "youtube": "None", "website": "None", "summary": "None", "logo": "None", "latitude": 49.261636960297864, "longitude": -122.78228098525616}, "871997318RR0001": {"name": "Tri-County Women's Centre Society", "designationCode": "C", "categoryCode": "09", "address": "12 CUMBERLAND STREET", "city": "YARMOUTH", "province": "NS", "country": "CA", "postalCode": "B5A3K3", "twitter": "None", "instagram": "None", "facebook": "None", "youtube": "None", "website": "None", "summary": "None", "logo": "None", "latitude": 43.833754507646056, "longitude": -66.1187787171793}, "814999660RR0001": {"name": "Tribute to Liberty - A Memorial to Victims of Communism Inc.", "designationCode": "C", "categoryCode": "59", "address": "629 MILL PARK DR.", "city": "KITCHENER", "province": "ON", "country": "CA", "postalCode": "N2P1V4", "twitter": "None", "instagram": "None", "facebook": "None", "youtube": "None", "website": "None", "summary": "None", "logo": "None", "latitude": 43.39257426755727, "longitude": -80.41801610834463}, "815391354RR0001": {"name": "Trico Charitable Foundation", "designationCode": "B", "categoryCode": "03", "address": "1005-11TH AVENUE SW", "city": "CALGARY", "province": "AB", "country": "CA", "postalCode": "T2R0G1", "twitter": "None", "instagram": "None", "facebook": "None", "youtube": "None", "website": "None", "summary": "None", "logo": "None", "latitude": 51.04293452120741, "longitude": -114.08446230544173}, "877892760RR0001": {"name": "Trillium Health Partners Volunteers", "designationCode": "C", "categoryCode": "19", "address": "150 SHERWAY DR", "city": "ETOBICOKE", "province": "ON", "country": "CA", "postalCode": "M9C1A5", "twitter": "None", "instagram": "None", "facebook": "None", "youtube": "None", "website": "None", "summary": "None", "logo": "None", "latitude": 43.60878125344766, "longitude": -79.56158671507224}, "831956875RR0001": {"name": "Trinity Asian Christian Church of Edmonton", "designationCode": "C", "categoryCode": "39", "address": "607-42ND AVE NW", "city": "EDMONTON", "province": "AB", "country": "CA", "postalCode": "T6T0W9", "twitter": "None", "instagram": "None", "facebook": "None", "youtube": "None", "website": "None", "summary": "None", "logo": "None", "latitude": 53.479249427798074, "longitude": -113.35242585688215}, "787536481RR0001": {"name": "Trinity Bible Chapel", "designationCode": "C", "categoryCode": "39", "address": "181 GROH AVE                  UNIT 106", "city": "CAMBRIDGE", "province": "ON", "country": "CA", "postalCode": "N3C1Y8", "twitter": "None", "instagram": "None", "facebook": "None", "youtube": "None", "website": "None", "summary": "None", "logo": "None", "latitude": 43.42083626729747, "longitude": -80.31999756578563}, "815211685RR0001": {"name": "Trinity Central Church", "designationCode": "C", "categoryCode": "39", "address": "3756 2ND AVE W", "city": "VANCOUVER", "province": "BC", "country": "CA", "postalCode": "V6R1J9", "twitter": "None", "instagram": "None", "facebook": "None", "youtube": "None", "website": "None", "summary": "None", "logo": "None", "latitude": 49.270410546742625, "longitude": -123.18667047016561}, "890473242RR0001": {"name": "Trinity Chapel", "designationCode": "C", "categoryCode": "39", "address": "CANADIAN FORCES BASE BORDEN", "city": "BORDEN", "province": "ON", "country": "CA", "postalCode": "L0M1C0", "twitter": "None", "instagram": "None", "facebook": "None", "youtube": "None", "website": "None", "summary": "None", "logo": "None", "latitude": 44.30713000000003, "longitude": -79.89294999999998}, "888959178RR0001": {"name": "Trinity Church Port Credit Endowment Fund", "designationCode": "A", "categoryCode": "45", "address": "26 STAVEBANK ROAD NORTH", "city": "MISSISSAUGA", "province": "ON", "country": "CA", "postalCode": "L5G2T5", "twitter": "None", "instagram": "None", "facebook": "None", "youtube": "None", "website": "None", "summary": "None", "logo": "None", "latitude": 43.55310072159404, "longitude": -79.58735766792653}, "820604098RR0001": {"name": "Trinity Covenant Church", "designationCode": "C", "categoryCode": "39", "address": "PO BOX 6704 STN MAIN", "city": "FORT ST. JOHN", "province": "BC", "country": "CA", "postalCode": "V1J4J2", "twitter": "None", "instagram": "None", "facebook": "None", "youtube": "None", "website": "None", "summary": "None", "logo": "None", "latitude": 56.25253500000005, "longitude": -120.84748099999993}, "119270056RR0001": {"name": "Trinity Evangelical Lutheran Church", "designationCode": "C", "categoryCode": "32", "address": "746 COLBORNE ST", "city": "LONDON", "province": "ON", "country": "CA", "postalCode": "N6A3Z7", "twitter": "None", "instagram": "None", "facebook": "None", "youtube": "None", "website": "None", "summary": "None", "logo": "None", "latitude": 42.997504619770275, "longitude": -81.2452925879453}, "807160643RR0001": {"name": "Trinity Global Evangelical Church", "designationCode": "C", "categoryCode": "39", "address": "306 - 2958 TRETHEWEY ST", "city": "ABBOTSFORD", "province": "BC", "country": "CA", "postalCode": "V2T6P6", "twitter": "None", "instagram": "None", "facebook": "None", "youtube": "None", "website": "None", "summary": "None", "logo": "None", "latitude": 49.056265799369946, "longitude": -122.32678630457183}, "119010551RR0001": {"name": "Trinity Grace Church", "designationCode": "C", "categoryCode": "39", "address": "826 EGLINTON AVE E", "city": "TORONTO", "province": "ON", "country": "CA", "postalCode": "M4G2L1", "twitter": "None", "instagram": "None", "facebook": "None", "youtube": "None", "website": "None", "summary": "None", "logo": "None", "latitude": 43.713344146834714, "longitude": -79.36612979462168}, "819151721RR0001": {"name": "Trinity Life Church", "designationCode": "C", "categoryCode": "39", "address": "157 CHILTERN HILL ROAD", "city": "TORONTO", "province": "ON", "country": "CA", "postalCode": "M6C3C3", "twitter": "None", "instagram": "None", "facebook": "None", "youtube": "None", "website": "None", "summary": "None", "logo": "None", "latitude": 43.699822228980295, "longitude": -79.42741920494562}, "134475946RR0001": {"name": "Trinity Lutheran Church", "designationCode": "C", "categoryCode": "32", "address": "BOX 57 GROUP 327              RR 3", "city": "BEAUSEJOUR", "province": "MB", "country": "CA", "postalCode": "R0E0C0", "twitter": "None", "instagram": "None", "facebook": "None", "youtube": "None", "website": "None", "summary": "None", "logo": "None", "latitude": 50.061750000000075, "longitude": -96.50519999999995}, "108140690RR0001": {"name": "Trinity Lutheran Church of Neudorf", "designationCode": "C", "categoryCode": "32", "address": "POST OFFICE BOX 310", "city": "NEUDORF", "province": "SK", "country": "CA", "postalCode": "S0A2T0", "twitter": "None", "instagram": "None", "facebook": "None", "youtube": "None", "website": "None", "summary": "None", "logo": "None", "latitude": 50.71330000000006, "longitude": -103.01216999999997}, "129096574RR0001": {"name": "Trinity Lutheran Church, Brooks, Alberta", "designationCode": "C", "categoryCode": "32", "address": "811 CASSILS RD WEST", "city": "BROOKS", "province": "AB", "country": "CA", "postalCode": "T1R0E4", "twitter": "None", "instagram": "None", "facebook": "None", "youtube": "None", "website": "None", "summary": "None", "logo": "None", "latitude": 50.572009245358075, "longitude": -111.90726128182901}, "799514682RR0001": {"name": "Trinity Orthodox Theological Foundation", "designationCode": "A", "categoryCode": "03", "address": "348 DELORAINE AVE", "city": "NORTH YORK", "province": "ON", "country": "CA", "postalCode": "M5M2B6", "twitter": "None", "instagram": "None", "facebook": "None", "youtube": "None", "website": "None", "summary": "None", "logo": "None", "latitude": 43.731303190691776, "longitude": -79.41695925895893}, "850175415RR0001": {"name": "Trinity Presbyterian Church", "designationCode": "C", "categoryCode": "37", "address": "162 - 2025 CORYDON AVENUE     SUITE 78", "city": "WINNIPEG", "province": "MB", "country": "CA", "postalCode": "R3P0N5", "twitter": "None", "instagram": "None", "facebook": "None", "youtube": "None", "website": "None", "summary": "None", "logo": "None", "latitude": 49.86654052322662, "longitude": -97.21201206688214}, "119270957RR0001": {"name": "Trinity United Church", "designationCode": "C", "categoryCode": "44", "address": "360 HIGHWAY #105              P.O. BOX 35", "city": "KAZABAZUA", "province": "QC", "country": "CA", "postalCode": "J0X1X0", "twitter": "None", "instagram": "None", "facebook": "None", "youtube": "None", "website": "None", "summary": "None", "logo": "None", "latitude": 45.9471446305673, "longitude": -76.01278277082578}, "892852765RR0002": {"name": "Trinity United Church", "designationCode": "C", "categoryCode": "44", "address": "277 IROQUOIS ST W", "city": "MOOSE JAW", "province": "SK", "country": "CA", "postalCode": "S6H5A8", "twitter": "None", "instagram": "None", "facebook": "None", "youtube": "None", "website": "None", "summary": "None", "logo": "None", "latitude": 50.38322002379449, "longitude": -105.54163629848917}, "107796567RR0001": {"name": "Trinity United Church Onslow-Belmont Pastoral Charge", "designationCode": "C", "categoryCode": "44", "address": "415 ONSLOW ROAD", "city": "UPPER ONSLOW", "province": "NS", "country": "CA", "postalCode": "B6L5L2", "twitter": "None", "instagram": "None", "facebook": "None", "youtube": "None", "website": "None", "summary": "None", "logo": "None", "latitude": 45.38783106829579, "longitude": -63.30402307343167}, "119269439RR0001": {"name": "Trinity United Reformed Church of St. Catharines", "designationCode": "C", "categoryCode": "39", "address": "99 SCOTT STREET", "city": "ST. CATHARINES", "province": "ON", "country": "CA", "postalCode": "L2N1G8", "twitter": "None", "instagram": "None", "facebook": "None", "youtube": "None", "website": "None", "summary": "None", "logo": "None", "latitude": 43.179392280367864, "longitude": -79.25579349587372}, "802173377RR0001": {"name": "Trio Arkel Chamber Music Group", "designationCode": "C", "categoryCode": "22", "address": "75 JAMES STREET,", "city": "ETOBICOKE", "province": "ON", "country": "CA", "postalCode": "M8W1L7", "twitter": "None", "instagram": "None", "facebook": "None", "youtube": "None", "website": "None", "summary": "None", "logo": "None", "latitude": 43.58994993698434, "longitude": -79.54114503191187}, "144471190RR0001": {"name": "Trio Hochelaga Inc.", "designationCode": "C", "categoryCode": "22", "address": "3, BOUL. SIMARD, PORTE 102", "city": "SAINT-LAMBERT", "province": "QC", "country": "CA", "postalCode": "J4S1Y8", "twitter": "None", "instagram": "None", "facebook": "None", "youtube": "None", "website": "None", "summary": "None", "logo": "None", "latitude": 45.478052334785176, "longitude": -73.50176178986023}, "138827712RR0001": {"name": "Triport Portneuf", "designationCode": "B", "categoryCode": "59", "address": "160, AV.                      DU COUVENT", "city": "DONNACONA", "province": "QC", "country": "CA", "postalCode": "G3M1P5", "twitter": "None", "instagram": "None", "facebook": "None", "youtube": "None", "website": "None", "summary": "None", "logo": "None", "latitude": 46.672804802383304, "longitude": -71.70888763364873}, "700335698RR0001": {"name": "Tripp/Smith Family Foundation", "designationCode": "B", "categoryCode": "03", "address": "42 BALSAM AVENUE", "city": "TORONTO", "province": "ON", "country": "CA", "postalCode": "M4E3B4", "twitter": "None", "instagram": "None", "facebook": "None", "youtube": "None", "website": "None", "summary": "None", "logo": "None", "latitude": 43.67116051956263, "longitude": -79.28954314573816}, "858063316RR0001": {"name": "Trips for Kids Ottawa", "designationCode": "C", "categoryCode": "56", "address": "27 STINSON AVENUE", "city": "OTTAWA", "province": "ON", "country": "CA", "postalCode": "K2H6N2", "twitter": "None", "instagram": "None", "facebook": "None", "youtube": "None", "website": "None", "summary": "None", "logo": "None", "latitude": 45.323752734404636, "longitude": -75.82108401690822}, "886225317RR0001": {"name": "Trips for Kids Vancouver Society", "designationCode": "C", "categoryCode": "09", "address": "1288 BROUGHTON ST             SUITE 508", "city": "VANCOUVER", "province": "BC", "country": "CA", "postalCode": "V6G2B5", "twitter": "None", "instagram": "None", "facebook": "None", "youtube": "None", "website": "None", "summary": "None", "logo": "None", "latitude": 49.28317275546781, "longitude": -123.13709396153861}, "800864266RR0001": {"name": "Triratna Buddhist Community Vancouver Society", "designationCode": "C", "categoryCode": "35", "address": "205 - 1599 71ST AVE W", "city": "VANCOUVER", "province": "BC", "country": "CA", "postalCode": "V6P3C3", "twitter": "None", "instagram": "None", "facebook": "None", "youtube": "None", "website": "None", "summary": "None", "logo": "None", "latitude": 49.2072064754744, "longitude": -123.14339030780768}, "853503613RR0001": {"name": "Triumphant Ministries Edmonton", "designationCode": "C", "categoryCode": "39", "address": "6720 - 82 AVENUE", "city": "EDMONTON", "province": "AB", "country": "CA", "postalCode": "T6B0E7", "twitter": "None", "instagram": "None", "facebook": "None", "youtube": "None", "website": "None", "summary": "None", "logo": "None", "latitude": 53.518067474897485, "longitude": -113.431122}, "119271559RR0001": {"name": "Triune Arts", "designationCode": "C", "categoryCode": "22", "address": "1804 BEDELL ROAD              RR # 5", "city": "KEMPTVILLE", "province": "ON", "country": "CA", "postalCode": "K0G1J0", "twitter": "None", "instagram": "None", "facebook": "None", "youtube": "None", "website": "None", "summary": "None", "logo": "None", "latitude": 44.97169645793192, "longitude": -75.67847884064317}, "842702573RR0001": {"name": "Triune Pentecostal Church Inc.", "designationCode": "C", "categoryCode": "39", "address": "56 CLUNE PLACE", "city": "WHITBY", "province": "ON", "country": "CA", "postalCode": "L1R2C5", "twitter": "None", "instagram": "None", "facebook": "None", "youtube": "None", "website": "None", "summary": "None", "logo": "None", "latitude": 43.91664280209486, "longitude": -78.94686720537831}, "840047542RR0001": {"name": "Trois tristes tigres", "designationCode": "C", "categoryCode": "22", "address": "56, AVENUE SAINT-CYRIL", "city": "MONTR\u00c9AL", "province": "QC", "country": "CA", "postalCode": "H2V1H8", "twitter": "None", "instagram": "None", "facebook": "None", "youtube": "None", "website": "None", "summary": "None", "logo": "None", "latitude": 45.52090237800803, "longitude": -73.61562981568485}, "880650502RR0001": {"name": "Trott Foundation", "designationCode": "A", "categoryCode": "03", "address": "6362-1 BANK STREET", "city": "GREELY", "province": "ON", "country": "CA", "postalCode": "K4P1J4", "twitter": "None", "instagram": "None", "facebook": "None", "youtube": "None", "website": "None", "summary": "None", "logo": "None", "latitude": 45.254036241082225, "longitude": -75.53829135418889}, "847794310RR0001": {"name": "Trotter Family Foundation", "designationCode": "B", "categoryCode": "03", "address": "1-85 WEST WILMOT STREET", "city": "RICHMOND HILL", "province": "ON", "country": "CA", "postalCode": "L4B1K7", "twitter": "None", "instagram": "None", "facebook": "None", "youtube": "None", "website": "None", "summary": "None", "logo": "None", "latitude": 43.85260654752639, "longitude": -79.38866851750977}, "834899882RR0001": {"name": "Troupe \"Atout Coeur\"", "designationCode": "C", "categoryCode": "11", "address": "12409 ODETTE-OLIGNY", "city": "MONTREAL", "province": "QC", "country": "CA", "postalCode": "H4J2R3", "twitter": "None", "instagram": "None", "facebook": "None", "youtube": "None", "website": "None", "summary": "None", "logo": "None", "latitude": 45.53251107689413, "longitude": -73.72345904276057}}