{"864418991RR0001": {"name": "MONCTON MUSLIM ASSOCIATION INC.", "designationCode": "C", "categoryCode": "60", "address": "99 HIGH STREET", "city": "MONCTON", "province": "NB", "country": "CA", "postalCode": "E1C6B6", "twitter": "None", "instagram": "None", "facebook": "None", "youtube": "None", "website": "None", "summary": "None", "logo": "None", "latitude": 46.087922493479134, "longitude": -64.79019730417232}, "880447016RR0001": {"name": "MONCTON PUBLIC LIBRARY BOARD", "designationCode": "C", "categoryCode": "50", "address": "101-644 MAIN ST", "city": "MONCTON", "province": "NB", "country": "CA", "postalCode": "E1C1E2", "twitter": "None", "instagram": "None", "facebook": "None", "youtube": "None", "website": "None", "summary": "None", "logo": "None", "latitude": 46.089183187864506, "longitude": -64.7747542056381}, "119044394RR0001": {"name": "MONCTON ROTARY CHARITIES 1967", "designationCode": "C", "categoryCode": "65", "address": "P.O. BOX 576", "city": "MONCTON", "province": "NB", "country": "CA", "postalCode": "E1C8L9", "twitter": "None", "instagram": "None", "facebook": "None", "youtube": "None", "website": "None", "summary": "None", "logo": "None", "latitude": 46.08834900000005, "longitude": -64.77824149999994}, "886398197RR0001": {"name": "MONCTON S.P.C.A. CHARITABLE FOUNDATION INC.", "designationCode": "A", "categoryCode": "53", "address": "P.O. BOX 23098", "city": "MONCTON", "province": "NB", "country": "CA", "postalCode": "E1A6S8", "twitter": "None", "instagram": "None", "facebook": "None", "youtube": "None", "website": "None", "summary": "None", "logo": "None", "latitude": 46.08835000000005, "longitude": -64.77823999999998}, "107669848RR0008": {"name": "MONCTON SEVENTH-DAY ADVENTIST CHURCH", "designationCode": "C", "categoryCode": "41", "address": "121 SALISBURY RD", "city": "MONCTON", "province": "NB", "country": "CA", "postalCode": "E1E1A6", "twitter": "None", "instagram": "None", "facebook": "None", "youtube": "None", "website": "None", "summary": "None", "logo": "None", "latitude": 46.0711640413756, "longitude": -64.82144086984238}, "133712570RR0001": {"name": "MONCTON SYMPHONY FOUNDATION INC.", "designationCode": "A", "categoryCode": "23", "address": "PO BOX 56", "city": "MONCTON", "province": "NB", "country": "CA", "postalCode": "E1C8R9", "twitter": "None", "instagram": "None", "facebook": "None", "youtube": "None", "website": "None", "summary": "None", "logo": "None", "latitude": 46.08834900000005, "longitude": -64.77824149999994}, "103747150RR0001": {"name": "MONCTON WEST ROTARY CHARITIES INC.", "designationCode": "C", "categoryCode": "59", "address": "PO BOX 1153", "city": "MONCTON", "province": "NB", "country": "CA", "postalCode": "E1C8P6", "twitter": "None", "instagram": "None", "facebook": "None", "youtube": "None", "website": "None", "summary": "None", "logo": "None", "latitude": 46.08834900000005, "longitude": -64.77824149999994}, "119044444RR0001": {"name": "MONCTON Y.M.C.A. FOUNDATION INC.", "designationCode": "A", "categoryCode": "43", "address": "30 WAR VETERANS AVENUE", "city": "MONCTON", "province": "NB", "country": "CA", "postalCode": "E1C0B3", "twitter": "None", "instagram": "None", "facebook": "None", "youtube": "None", "website": "None", "summary": "None", "logo": "None", "latitude": 46.09319887287214, "longitude": -64.79979985302013}, "119146413RR0001": {"name": "MOND'AMI", "designationCode": "C", "categoryCode": "47", "address": "175 RUE SHERBROOKE EST", "city": "MONTREAL", "province": "QC", "country": "CA", "postalCode": "H2X1C7", "twitter": "None", "instagram": "None", "facebook": "None", "youtube": "None", "website": "None", "summary": "None", "logo": "None", "latitude": 45.51443753733621, "longitude": -73.5686432734143}, "119044451RR0001": {"name": "MONDALIRE UN", "designationCode": "C", "categoryCode": "20", "address": "11951 RUE NOTRE-DAME E", "city": "MONTREAL", "province": "QC", "country": "CA", "postalCode": "H1B2Y5", "twitter": "None", "instagram": "None", "facebook": "None", "youtube": "None", "website": "None", "summary": "None", "logo": "None", "latitude": 45.639057243168814, "longitude": -73.49067483746164}, "817720071RR0001": {"name": "MONDETTA CHARITY FOUNDATION INC.", "designationCode": "C", "categoryCode": "03", "address": "1109 WINNIPEG AVENUE", "city": "WINNIPEG", "province": "MB", "country": "CA", "postalCode": "R3E0S2", "twitter": "None", "instagram": "None", "facebook": "None", "youtube": "None", "website": "None", "summary": "None", "logo": "None", "latitude": 49.90739894312983, "longitude": -97.17531475670856}, "130605801RR0001": {"name": "MONIALES CARMELITES DECHAUSSEES DE QUEBEC", "designationCode": "C", "categoryCode": "46", "address": "4693 ROUTE TEWKESBURY", "city": "STONEHAM ET TEWKESBURY", "province": "QC", "country": "CA", "postalCode": "G3C2L9", "twitter": "None", "instagram": "None", "facebook": "None", "youtube": "None", "website": "None", "summary": "None", "logo": "None", "latitude": 47.037632117585126, "longitude": -71.473103823096}, "890494933RR0001": {"name": "MONIALES DE BETHLEEM ET DE L'ASSOMPTION DE LA VIERGE", "designationCode": "C", "categoryCode": "46", "address": "3095, RUE MARIE REINE DES     COEURS", "city": "ST-THEODORE DE CHERTSEY", "province": "QC", "country": "CA", "postalCode": "J0K3K0", "twitter": "None", "instagram": "None", "facebook": "None", "youtube": "None", "website": "None", "summary": "None", "logo": "None", "latitude": 46.026579983601565, "longitude": -73.93147055455036}, "864162516RR0001": {"name": "MONICA MARTINEAU FAMILY FOUNDATION", "designationCode": "B", "categoryCode": "03", "address": "1752 AUTUMN CRESCENT", "city": "PICKERING", "province": "ON", "country": "CA", "postalCode": "L1V6X3", "twitter": "None", "instagram": "None", "facebook": "None", "youtube": "None", "website": "None", "summary": "None", "logo": "None", "latitude": 43.82283004939701, "longitude": -79.13182635431914}, "131801185RR0001": {"name": "MONITOR HISTORICAL SOCIETY", "designationCode": "C", "categoryCode": "50", "address": "5159 52 STREET                BOX 505", "city": "CONSORT", "province": "AB", "country": "CA", "postalCode": "T0C1B0", "twitter": "None", "instagram": "None", "facebook": "None", "youtube": "None", "website": "None", "summary": "None", "logo": "None", "latitude": 52.01177374854291, "longitude": -110.77822685330952}, "883054223RR0001": {"name": "MONKMAN HOMESTEAD PRESERVATION SOCIETY", "designationCode": "C", "categoryCode": "52", "address": "BOX 371", "city": "GRANDE PRAIRIE", "province": "AB", "country": "CA", "postalCode": "T8V3A5", "twitter": "None", "instagram": "None", "facebook": "None", "youtube": "None", "website": "None", "summary": "None", "logo": "None", "latitude": 55.171122000000054, "longitude": -118.79491399999993}, "119044600RR0001": {"name": "MONO MILLS UNITED CHURCH", "designationCode": "C", "categoryCode": "44", "address": "60 RICHMOND ST", "city": "CALEDON", "province": "ON", "country": "CA", "postalCode": "L7K0A4", "twitter": "None", "instagram": "None", "facebook": "None", "youtube": "None", "website": "None", "summary": "None", "logo": "None", "latitude": 43.945397433810356, "longitude": -79.96638837884475}, "863790051RR0001": {"name": "MONSIGNOR GERARD BREEN CHARITABLE TRUST", "designationCode": "A", "categoryCode": "65", "address": "91 RIBBLESDALE DRIVE", "city": "WHITBY", "province": "ON", "country": "CA", "postalCode": "L1N6Z3", "twitter": "None", "instagram": "None", "facebook": "None", "youtube": "None", "website": "None", "summary": "None", "logo": "None", "latitude": 43.89370369637595, "longitude": -78.92953016495501}, "891034845RR0001": {"name": "MONSIGNOR HABIB KWAITER SCHOLARSHIP FOUNDATION", "designationCode": "C", "categoryCode": "21", "address": "1161 NORTH RIVER RD", "city": "OTTAWA", "province": "ON", "country": "CA", "postalCode": "K1K3W5", "twitter": "None", "instagram": "None", "facebook": "None", "youtube": "None", "website": "None", "summary": "None", "logo": "None", "latitude": 45.420428615644, "longitude": -75.66394182913156}, "889632766RR0001": {"name": "MONSIGNOR JOHN MASTERSON COUNCIL NO 5880 CHARITABLE TRUST", "designationCode": "A", "categoryCode": "65", "address": "P.O. BOX 1445", "city": "PRESCOTT", "province": "ON", "country": "CA", "postalCode": "K0E1T0", "twitter": "None", "instagram": "None", "facebook": "None", "youtube": "None", "website": "None", "summary": "None", "logo": "None", "latitude": 44.72333933695445, "longitude": -75.52230856910072}, "886873793RR0001": {"name": "MONSIGNOR MORRIS ASSEMBLY FOURTH DEGREE KNIGHTS OF COLUMBUS", "designationCode": "A", "categoryCode": "63", "address": "11 HEWKO STREET", "city": "ST CATHARINES", "province": "ON", "country": "CA", "postalCode": "L2N2E2", "twitter": "None", "instagram": "None", "facebook": "None", "youtube": "None", "website": "None", "summary": "None", "logo": "None", "latitude": 43.183926869553915, "longitude": -79.23975489353127}, "893426106RR0001": {"name": "MONT LA SALLE", "designationCode": "C", "categoryCode": "09", "address": "197 RANEE AVENUE", "city": "TORONTO", "province": "ON", "country": "CA", "postalCode": "M6A1N3", "twitter": "None", "instagram": "None", "facebook": "None", "youtube": "None", "website": "None", "summary": "None", "logo": "None", "latitude": 43.72410281652159, "longitude": -79.44460507048882}, "107353955RR0001": {"name": "MONT NEBO EVANGELICAL FREE CHURCH", "designationCode": "C", "categoryCode": "39", "address": "BOX 7", "city": "MONT NEBO", "province": "SK", "country": "CA", "postalCode": "S0J1X0", "twitter": "None", "instagram": "None", "facebook": "None", "youtube": "None", "website": "None", "summary": "None", "logo": "None", "latitude": 53.28503700000006, "longitude": -106.84908349999994}, "125136937RR0001": {"name": "MONT ST JOSEPH FOUNDATION INC", "designationCode": "A", "categoryCode": "13", "address": "777 - 28TH STREET EAST", "city": "PRINCE ALBERT", "province": "SK", "country": "CA", "postalCode": "S6V8C2", "twitter": "None", "instagram": "None", "facebook": "None", "youtube": "None", "website": "None", "summary": "None", "logo": "None", "latitude": 53.18764037178322, "longitude": -105.73242054733458}, "119045318RR0001": {"name": "MONT ST. HILAIRE NATURE CONSERVATION CENTRE - CENTRE DE CONSERVATION DE LA NATURE MONT ST-HILAIRE", "designationCode": "C", "categoryCode": "52", "address": "422, DES MOULINS", "city": "MONT-ST-HILAIRE", "province": "QC", "country": "CA", "postalCode": "J3G4S6", "twitter": "None", "instagram": "None", "facebook": "None", "youtube": "None", "website": "None", "summary": "None", "logo": "None", "latitude": 45.535244395629704, "longitude": -73.15687243826164}, "119045326RR0001": {"name": "MONT ST. JOSEPH AUXILIARY", "designationCode": "C", "categoryCode": "19", "address": "777 - 28 STREET EAST", "city": "PRINCE ALBERT", "province": "SK", "country": "CA", "postalCode": "S6V8C2", "twitter": "None", "instagram": "None", "facebook": "None", "youtube": "None", "website": "None", "summary": "None", "logo": "None", "latitude": 53.18764037178322, "longitude": -105.73242054733458}, "896765591RR0001": {"name": "MONTAGE SUPPORT SERVICES OF METROPOLITAN TORONTO", "designationCode": "C", "categoryCode": "01", "address": "504 OAKWOOD AVE", "city": "YORK", "province": "ON", "country": "CA", "postalCode": "M6E2X1", "twitter": "None", "instagram": "None", "facebook": "None", "youtube": "None", "website": "None", "summary": "None", "logo": "None", "latitude": 43.691590771019705, "longitude": -79.44039328784102}, "826160947RR0001": {"name": "MONTAGUE AND DISTRICT SENIOR CITIZENS FORGET ME NOT INC", "designationCode": "C", "categoryCode": "56", "address": "PO BOX 1323", "city": "SMITHS FALLS", "province": "ON", "country": "CA", "postalCode": "K7A5C7", "twitter": "None", "instagram": "None", "facebook": "None", "youtube": "None", "website": "None", "summary": "None", "logo": "None", "latitude": 44.90257200000005, "longitude": -76.02153199999994}, "119044675RR0001": {"name": "MONTAGUE MEALS-IN-MOTION", "designationCode": "C", "categoryCode": "09", "address": "P.O. BOX 327", "city": "MONTAGUE", "province": "PE", "country": "CA", "postalCode": "C0A1R0", "twitter": "None", "instagram": "None", "facebook": "None", "youtube": "None", "website": "None", "summary": "None", "logo": "None", "latitude": 46.14343222329997, "longitude": -62.75594020244682}, "119044683RR0001": {"name": "MONTAGUE PASTORAL CHARGE", "designationCode": "C", "categoryCode": "44", "address": "BOX 634", "city": "MONTAGUE", "province": "PE", "country": "CA", "postalCode": "C0A1R0", "twitter": "None", "instagram": "None", "facebook": "None", "youtube": "None", "website": "None", "summary": "None", "logo": "None", "latitude": 46.14343222329997, "longitude": -62.75594020244682}, "868969338RR0001": {"name": "MONTAGUE PENTECOSTAL ASSEMBLY", "designationCode": "C", "categoryCode": "36", "address": "PO BOX 457", "city": "MONTAGUE", "province": "PE", "country": "CA", "postalCode": "C0A1R0", "twitter": "None", "instagram": "None", "facebook": "None", "youtube": "None", "website": "None", "summary": "None", "logo": "None", "latitude": 46.14343222329997, "longitude": -62.75594020244682}, "119044691RR0001": {"name": "MONTAGUE PRESBYTERIAN CHURCH", "designationCode": "C", "categoryCode": "37", "address": "RR2", "city": "HUNTER RIVER", "province": "PE", "country": "CA", "postalCode": "C0A1N0", "twitter": "None", "instagram": "None", "facebook": "None", "youtube": "None", "website": "None", "summary": "None", "logo": "None", "latitude": 46.492926000000054, "longitude": -63.36548449999994}, "119044741RR0001": {"name": "MONTCREST SCHOOL", "designationCode": "C", "categoryCode": "20", "address": "4 MONTCREST BLVD.", "city": "TORONTO", "province": "ON", "country": "CA", "postalCode": "M4K1J7", "twitter": "None", "instagram": "None", "facebook": "None", "youtube": "None", "website": "None", "summary": "None", "logo": "None", "latitude": 43.67297313240799, "longitude": -79.35743753886541}, "890176647RR0001": {"name": "MONTE CALVARIO CHURCH", "designationCode": "C", "categoryCode": "36", "address": "P.O. BOX 2853                 STN M.", "city": "CALGARY", "province": "AB", "country": "CA", "postalCode": "T2P3C2", "twitter": "None", "instagram": "None", "facebook": "None", "youtube": "None", "website": "None", "summary": "None", "logo": "None", "latitude": 51.04531500000006, "longitude": -114.06301099999993}, "119288918RR0310": {"name": "MONTEBELLO CONGREGATION OF JEHOVAH'S WITNESSES, ST CATHARINES, ONTARIO", "designationCode": "C", "categoryCode": "61", "address": "63 RODMAN ST.", "city": "ST. CATHARINES", "province": "ON", "country": "CA", "postalCode": "L2R5C9", "twitter": "None", "instagram": "None", "facebook": "None", "youtube": "None", "website": "None", "summary": "None", "logo": "None", "latitude": 43.172764962808, "longitude": -79.24538908814687}, "119288918RR0755": {"name": "MONTEREY PARK CONGREGATION OF JEHOVAH'S WITNESSES, CALGARY, ALBERTA", "designationCode": "C", "categoryCode": "61", "address": "19 TEMPLEMONT WAY NE", "city": "CALGARY", "province": "AB", "country": "CA", "postalCode": "T1Y5C1", "twitter": "None", "instagram": "None", "facebook": "None", "youtube": "None", "website": "None", "summary": "None", "logo": "None", "latitude": 51.092957620030084, "longitude": -113.95026959755326}, "105229124RR0001": {"name": "MONTESSORI ACADEMY OF LONDON,INC.", "designationCode": "C", "categoryCode": "20", "address": "711 WATERLOO STREET", "city": "LONDON", "province": "ON", "country": "CA", "postalCode": "N6A3W1", "twitter": "None", "instagram": "None", "facebook": "None", "youtube": "None", "website": "None", "summary": "None", "logo": "None", "latitude": 42.99546834748115, "longitude": -81.24751240815954}, "864903927RR0001": {"name": "MONTESSORI JEWISH DAY SCHOOL OF TORONTO", "designationCode": "C", "categoryCode": "20", "address": "55 YEOMANS RD", "city": "TORONTO", "province": "ON", "country": "CA", "postalCode": "M3H3J7", "twitter": "None", "instagram": "None", "facebook": "None", "youtube": "None", "website": "None", "summary": "None", "logo": "None", "latitude": 43.749016688614326, "longitude": -79.44086751627398}, "119044758RR0001": {"name": "MONTESSORI SCHOOL OF REGINA INC.", "designationCode": "C", "categoryCode": "20", "address": "4715 MCTAVISH STREET", "city": "REGINA", "province": "SK", "country": "CA", "postalCode": "S4S6H2", "twitter": "None", "instagram": "None", "facebook": "None", "youtube": "None", "website": "None", "summary": "None", "logo": "None", "latitude": 50.404523097852696, "longitude": -104.63379485659502}, "119044766RR0001": {"name": "MONTESSORI SCHOOL OF SUDBURY", "designationCode": "C", "categoryCode": "20", "address": "295 VICTORIA ST", "city": "SUDBURY", "province": "ON", "country": "CA", "postalCode": "P3C1K5", "twitter": "None", "instagram": "None", "facebook": "None", "youtube": "None", "website": "None", "summary": "None", "logo": "None", "latitude": 46.489140341993746, "longitude": -81.0069742830373}, "884741521RR0001": {"name": "MONTESSORI SOCIETY OF CANADA, A M I ALUMNI IN CANADA", "designationCode": "C", "categoryCode": "20", "address": "16150 OLD SIMCOE ROAD", "city": "PORT PERRY", "province": "ON", "country": "CA", "postalCode": "L9L1P3", "twitter": "None", "instagram": "None", "facebook": "None", "youtube": "None", "website": "None", "summary": "None", "logo": "None", "latitude": 44.11248307354726, "longitude": -78.9569790922149}, "119044774RR0002": {"name": "MONTESSORI TRAINING CENTRE SOCIETY OF BRITISH COLUMBIA", "designationCode": "C", "categoryCode": "20", "address": "200-8555 CAMBIE ST", "city": "VANCOUVER", "province": "BC", "country": "CA", "postalCode": "V6P3J9", "twitter": "None", "instagram": "None", "facebook": "None", "youtube": "None", "website": "None", "summary": "None", "logo": "None", "latitude": 49.207519037191986, "longitude": -123.11726244010006}, "860131481RR0001": {"name": "MONTFORT RENAISSANCE INC", "designationCode": "C", "categoryCode": "09", "address": "162 MURRAY STREET", "city": "OTTAWA", "province": "ON", "country": "CA", "postalCode": "K1N5M8", "twitter": "None", "instagram": "None", "facebook": "None", "youtube": "None", "website": "None", "summary": "None", "logo": "None", "latitude": 45.430698647498545, "longitude": -75.69118122771089}, "119044782RR0001": {"name": "MONTICELLO UNITED CHURCH", "designationCode": "C", "categoryCode": "44", "address": "115141 SR 27-28", "city": "GRAND VALLEY", "province": "ON", "country": "CA", "postalCode": "L9W0L4", "twitter": "None", "instagram": "None", "facebook": "None", "youtube": "None", "website": "None", "summary": "None", "logo": "None", "latitude": 44.00040300000006, "longitude": -80.36411299999993}, "133563890RR0001": {"name": "MONTMARTHE CITIZEN'S GOLDEN AGE CLUB", "designationCode": "C", "categoryCode": "09", "address": "PO 483", "city": "MONTMARTRE", "province": "SK", "country": "CA", "postalCode": "S0G3M0", "twitter": "None", "instagram": "None", "facebook": "None", "youtube": "None", "website": "None", "summary": "None", "logo": "None", "latitude": 50.23335000000003, "longitude": -103.45104999999995}, "119044808RR0001": {"name": "MONTMARTRE CANADIEN", "designationCode": "C", "categoryCode": "38", "address": "1679 CH SAINT-LOUIS", "city": "QU\u00c9BEC", "province": "QC", "country": "CA", "postalCode": "G1S1G5", "twitter": "None", "instagram": "None", "facebook": "None", "youtube": "None", "website": "None", "summary": "None", "logo": "None", "latitude": 46.782686211052926, "longitude": -71.24601196192994}, "891323941RR0001": {"name": "MONTNEY MENNONITE CHURCH", "designationCode": "C", "categoryCode": "34", "address": "BOX 156", "city": "MONTNEY", "province": "BC", "country": "CA", "postalCode": "V0C1Y0", "twitter": "None", "instagram": "None", "facebook": "None", "youtube": "None", "website": "None", "summary": "None", "logo": "None", "latitude": 56.355881146236996, "longitude": -120.89121234646359}, "858226772RR0001": {"name": "MONTR\u00c9AL \u00c9GLISE PRESBYT\u00c9RIENNE COR\u00c9ENNE/MONTR\u00c9AL KOREAN PRESBYTERIAN CHURCH", "designationCode": "C", "categoryCode": "37", "address": "6225 AVE GODFREY", "city": "MONTREAL", "province": "QC", "country": "CA", "postalCode": "H4B1K3", "twitter": "None", "instagram": "None", "facebook": "None", "youtube": "None", "website": "None", "summary": "None", "logo": "None", "latitude": 45.46801143992717, "longitude": -73.6268170673435}, "839389608RR0001": {"name": "MONTR\u00c9AL MARCHE POUR LA SANT\u00c9 MENTALE / MONTR\u00c9AL WALKS FOR MENTAL HEALTH", "designationCode": "C", "categoryCode": "19", "address": "5601 RUE SHERBROOKE O.", "city": "MONTR\u00c9AL", "province": "QC", "country": "CA", "postalCode": "H4A1W4", "twitter": "None", "instagram": "None", "facebook": "None", "youtube": "None", "website": "None", "summary": "None", "logo": "None", "latitude": 45.47144992229781, "longitude": -73.61413470734021}, "119045268RR0001": {"name": "MONTR\u00c9AL YOUTH FOR CHRIST / JEUNESSE POUR CHRIST - MONTR\u00c9AL", "designationCode": "C", "categoryCode": "49", "address": "298 AV BROOKHAVEN", "city": "DORVAL", "province": "QC", "country": "CA", "postalCode": "H9S2N4", "twitter": "None", "instagram": "None", "facebook": "None", "youtube": "None", "website": "None", "summary": "None", "logo": "None", "latitude": 45.44427766610887, "longitude": -73.76895571859295}, "119044857RR0001": {"name": "MONTREAL AND OTTAWA CONFERENCE OF THE UNITED CHURCH OF CANADA", "designationCode": "C", "categoryCode": "44", "address": "225-50TH AVENUE", "city": "LACHINE", "province": "QC", "country": "CA", "postalCode": "H8T2T7", "twitter": "None", "instagram": "None", "facebook": "None", "youtube": "None", "website": "None", "summary": "None", "logo": "None", "latitude": 45.43944863696695, "longitude": -73.7115720949562}, "895459501RR0001": {"name": "MONTREAL BAROQUE INC.", "designationCode": "C", "categoryCode": "22", "address": "1097, RUE SAINT-ALEXANDRE", "city": "MONTR\u00c9AL", "province": "QC", "country": "CA", "postalCode": "H2Z1P8", "twitter": "None", "instagram": "None", "facebook": "None", "youtube": "None", "website": "None", "summary": "None", "logo": "None", "latitude": 45.50391503886542, "longitude": -73.56465837217965}, "899138168RR0001": {"name": "MONTREAL BIBLE BAPTIST CHURCH / EGLISE BAPTISTE BIBLIQUE DE MONTREAL", "designationCode": "C", "categoryCode": "31", "address": "3865 LEVESQUE BLVD OUEST", "city": "CHOMEDEY", "province": "QC", "country": "CA", "postalCode": "H7V1G8", "twitter": "None", "instagram": "None", "facebook": "None", "youtube": "None", "website": "None", "summary": "None", "logo": "None", "latitude": 45.53420937414155, "longitude": -73.74063362629114}, "860081520RR0001": {"name": "MONTREAL BIRTH COMPANIONS", "designationCode": "C", "categoryCode": "09", "address": "1451 AVENUE D'OLREANS", "city": "MONTREAL", "province": "QC", "country": "CA", "postalCode": "H1W3R2", "twitter": "None", "instagram": "None", "facebook": "None", "youtube": "None", "website": "None", "summary": "None", "logo": "None", "latitude": 45.547124855415674, "longitude": -73.53754203759601}, "107951618RR0037": {"name": "MONTREAL CENTRE BOOTH DE L'ARMEE DU SALUT/BOOTH CENTRE - LE RIVAGE (THE SHORELINE)", "designationCode": "C", "categoryCode": "01", "address": "880 RUE GUY", "city": "MONTREAL", "province": "QC", "country": "CA", "postalCode": "H3J1T4", "twitter": "None", "instagram": "None", "facebook": "None", "youtube": "None", "website": "None", "summary": "None", "logo": "None", "latitude": 45.492438961134575, "longitude": -73.57214304400131}, "107718793RR0001": {"name": "MONTREAL CHILDREN'S LIBRARY / BIBLIOTHEQUE DES JEUNES DE MONTREAL", "designationCode": "C", "categoryCode": "50", "address": "4121 42E RUE", "city": "MONTREAL", "province": "QC", "country": "CA", "postalCode": "H1Z1R8", "twitter": "None", "instagram": "None", "facebook": "None", "youtube": "None", "website": "None", "summary": "None", "logo": "None", "latitude": 45.57931365474057, "longitude": -73.61826563324469}, "118782630RR0002": {"name": "MONTREAL CHINESE ALLIANCE CHURCH", "designationCode": "C", "categoryCode": "39", "address": "13 FINCHLEY", "city": "MONTREAL", "province": "QC", "country": "CA", "postalCode": "H3X2Z4", "twitter": "None", "instagram": "None", "facebook": "None", "youtube": "None", "website": "None", "summary": "None", "logo": "None", "latitude": 45.47909117767878, "longitude": -73.63312154896923}, "118782630RR0003": {"name": "MONTREAL CHINESE ALLIANCE GRACE CHURCH", "designationCode": "C", "categoryCode": "39", "address": "405 MARIE-ANNE EST", "city": "MONTREAL", "province": "QC", "country": "CA", "postalCode": "H2J1Z9", "twitter": "None", "instagram": "None", "facebook": "None", "youtube": "None", "website": "None", "summary": "None", "logo": "None", "latitude": 45.523067081049064, "longitude": -73.58044681669446}, "119045060RR0001": {"name": "MONTREAL CHINESE PENTECOSTAL CHURCH", "designationCode": "C", "categoryCode": "36", "address": "100 DE LA GAUCHETIERE EST", "city": "MONTREAL", "province": "QC", "country": "CA", "postalCode": "H2X1P5", "twitter": "None", "instagram": "None", "facebook": "None", "youtube": "None", "website": "None", "summary": "None", "logo": "None", "latitude": 45.50926493782105, "longitude": -73.55909672450824}, "138375068RR0001": {"name": "MONTREAL CHINESE PRESBYTERIAN CHURCH", "designationCode": "C", "categoryCode": "37", "address": "5560 RUE HUTCHISON", "city": "MONTREAL", "province": "QC", "country": "CA", "postalCode": "H2V4B6", "twitter": "None", "instagram": "None", "facebook": "None", "youtube": "None", "website": "None", "summary": "None", "logo": "None", "latitude": 45.52159572410421, "longitude": -73.60301353095957}, "821903671RR0001": {"name": "MONTREAL COMMUNITY MIKVA/MIKVA COMMUNAUTAIRE DE MONTREAL", "designationCode": "C", "categoryCode": "49", "address": "2320 GOYER", "city": "MONTREAL", "province": "QC", "country": "CA", "postalCode": "H3S1G9", "twitter": "None", "instagram": "None", "facebook": "None", "youtube": "None", "website": "None", "summary": "None", "logo": "None", "latitude": 45.51353351566747, "longitude": -73.62697014582508}, "103754818RR0001": {"name": "MONTREAL DANSE", "designationCode": "C", "categoryCode": "22", "address": "109-372 SAINTE-CATHERINE OUEST", "city": "MONTREAL", "province": "QC", "country": "CA", "postalCode": "H3B1A2", "twitter": "None", "instagram": "None", "facebook": "None", "youtube": "None", "website": "None", "summary": "None", "logo": "None", "latitude": 45.502655033330136, "longitude": -73.57032347325419}, "130724644RR0001": {"name": "MONTREAL DIOCESAN THEOLOGICAL COLLEGE", "designationCode": "C", "categoryCode": "20", "address": "3475 UNIVERSITY STREET", "city": "MONTREAL", "province": "QC", "country": "CA", "postalCode": "H3A2A8", "twitter": "None", "instagram": "None", "facebook": "None", "youtube": "None", "website": "None", "summary": "None", "logo": "None", "latitude": 45.50614803222899, "longitude": -73.57579848817035}, "119288918RR0395": {"name": "MONTREAL EAST CONGREGATION OF JEHOVAH'S WITNESSES", "designationCode": "C", "categoryCode": "61", "address": "2185 DUQUESNE ST", "city": "MONTREAL", "province": "QC", "country": "CA", "postalCode": "H1N2W6", "twitter": "None", "instagram": "None", "facebook": "None", "youtube": "None", "website": "None", "summary": "None", "logo": "None", "latitude": 45.572243709417684, "longitude": -73.53052188536562}, "118793074RR0022": {"name": "MONTREAL FILIPINO SEVENTH-DAY ADVENTIST CHURCH", "designationCode": "C", "categoryCode": "41", "address": "31 KIEFFER ST", "city": "DOLLARD-DES-ORMEAUX", "province": "QC", "country": "CA", "postalCode": "H9B1H9", "twitter": "None", "instagram": "None", "facebook": "None", "youtube": "None", "website": "None", "summary": "None", "logo": "None", "latitude": 45.49453846543375, "longitude": -73.80036966082874}, "119045011RR0001": {"name": "MONTREAL FIRST CHURCH OF THE NAZARENE", "designationCode": "C", "categoryCode": "39", "address": "455 RUE SPRING GARDEN", "city": "DOLLARD-DES-ORMEAUX", "province": "QC", "country": "CA", "postalCode": "H9B1T2", "twitter": "None", "instagram": "None", "facebook": "None", "youtube": "None", "website": "None", "summary": "None", "logo": "None", "latitude": 45.49991398972822, "longitude": -73.79046690048484}, "884489766RR0001": {"name": "MONTREAL FLUENCY CENTRE / CENTRE DE FLUIDITE VERBALE DE MONTREAL", "designationCode": "B", "categoryCode": "15", "address": "4626 ST.CATHERINE STREET WEST", "city": "WESTMOUNT", "province": "QC", "country": "CA", "postalCode": "H3Z1S3", "twitter": "None", "instagram": "None", "facebook": "None", "youtube": "None", "website": "None", "summary": "None", "logo": "None", "latitude": 45.47939609657232, "longitude": -73.59532256783443}, "854575289RR0001": {"name": "MONTREAL LAKESHORE UNIVERSITY WOMEN'S CLUB SCHOLARSHIP FUND", "designationCode": "C", "categoryCode": "21", "address": "P.O. BOX 383", "city": "POINTE CLAIRE", "province": "QC", "country": "CA", "postalCode": "H9R4P3", "twitter": "None", "instagram": "None", "facebook": "None", "youtube": "None", "website": "None", "summary": "None", "logo": "None", "latitude": 45.44809800000006, "longitude": -73.81735099999993}, "855210332RR0001": {"name": "MONTREAL MELANGE", "designationCode": "C", "categoryCode": "39", "address": "2227 AV DE SAINT-EXUPERY", "city": "SAINT-LAURENT", "province": "QC", "country": "CA", "postalCode": "H4R3E5", "twitter": "None", "instagram": "None", "facebook": "None", "youtube": "None", "website": "None", "summary": "None", "logo": "None", "latitude": 45.51565307174802, "longitude": -73.70551092263555}, "107279689RR0001": {"name": "MONTREAL ORAL SCHOOL FOR THE DEAF INC.", "designationCode": "C", "categoryCode": "20", "address": "4670 RUE SAINTE-CATHERINE W.", "city": "WESTMOUNT", "province": "QC", "country": "CA", "postalCode": "H3Z1S5", "twitter": "None", "instagram": "None", "facebook": "None", "youtube": "None", "website": "None", "summary": "None", "logo": "None", "latitude": 45.47872023729016, "longitude": -73.5960816115473}, "119045136RR0001": {"name": "MONTREAL REMNANT MINISTRIES", "designationCode": "C", "categoryCode": "47", "address": "379 WICKHAM", "city": "ST-LAMBERT", "province": "QC", "country": "CA", "postalCode": "J4R2B5", "twitter": "None", "instagram": "None", "facebook": "None", "youtube": "None", "website": "None", "summary": "None", "logo": "None", "latitude": 45.49248952510255, "longitude": -73.4996925}, "118782630RR0010": {"name": "MONTREAL VIETNAMESE ALLIANCE CHURCH", "designationCode": "C", "categoryCode": "39", "address": "1455 RUE SAINT-GERMAIN", "city": "SAINT-LAURENT", "province": "QC", "country": "CA", "postalCode": "H4L3S7", "twitter": "None", "instagram": "None", "facebook": "None", "youtube": "None", "website": "None", "summary": "None", "logo": "None", "latitude": 45.51925911685607, "longitude": -73.68736508491554}, "119045227RR0001": {"name": "MONTREAL WEST OPERATIC SOCIETY INC.", "designationCode": "C", "categoryCode": "22", "address": "4381 WALKLEY AVENUE", "city": "MONTREAL", "province": "QC", "country": "CA", "postalCode": "H4B2K4", "twitter": "None", "instagram": "None", "facebook": "None", "youtube": "None", "website": "None", "summary": "None", "logo": "None", "latitude": 45.46433352013953, "longitude": -73.6350627846097}, "107722829RR0001": {"name": "MONTREAL WEST PRESBYTERIAN CHURCH", "designationCode": "C", "categoryCode": "37", "address": "160 BALLANTYNE NORTH", "city": "MONTREAL WEST", "province": "QC", "country": "CA", "postalCode": "H4X2C1", "twitter": "None", "instagram": "None", "facebook": "None", "youtube": "None", "website": "None", "summary": "None", "logo": "None", "latitude": 45.455165498182346, "longitude": -73.64945341577693}, "119045235RR0001": {"name": "MONTREAL WEST UNITED CHURCH", "designationCode": "C", "categoryCode": "44", "address": "88 BALLANTYNE AVE N", "city": "MONTREAL WEST", "province": "QC", "country": "CA", "postalCode": "H4X2B8", "twitter": "None", "instagram": "None", "facebook": "None", "youtube": "None", "website": "None", "summary": "None", "logo": "None", "latitude": 45.454003439898514, "longitude": -73.64647416431984}, "119045243RR0001": {"name": "MONTREAL WESTWARD ROTARY CLUB WELFARE TRUST", "designationCode": "C", "categoryCode": "65", "address": "50 WESTMINISTER AVE S", "city": "MONTREAL", "province": "QC", "country": "CA", "postalCode": "H4X1Y7", "twitter": "None", "instagram": "None", "facebook": "None", "youtube": "None", "website": "None", "summary": "None", "logo": "None", "latitude": 45.451546461538605, "longitude": -73.6419808430664}, "119045250RR0001": {"name": "MONTREAL YOUNG WOMEN'S CHRISTIAN ASSOCIATION", "designationCode": "C", "categoryCode": "49", "address": "1355 BOUL RENE-LEVESQUE OUEST", "city": "MONTREAL", "province": "QC", "country": "CA", "postalCode": "H3G1T3", "twitter": "None", "instagram": "None", "facebook": "None", "youtube": "None", "website": "None", "summary": "None", "logo": "None", "latitude": 45.496119194298466, "longitude": -73.57293467516854}, "119045276RR0001": {"name": "MONTREAL ZEN CENTRE INC.-CENTRE ZEN DE MONTREAL INC.", "designationCode": "C", "categoryCode": "39", "address": "824 AVE PARK STANLEY", "city": "MONTREAL", "province": "QC", "country": "CA", "postalCode": "H2C1A2", "twitter": "None", "instagram": "None", "facebook": "None", "youtube": "None", "website": "None", "summary": "None", "logo": "None", "latitude": 45.560067423798365, "longitude": -73.67126690559206}, "889724167RR0001": {"name": "MONTROSE CHILD CARE CENTRE INC", "designationCode": "C", "categoryCode": "01", "address": "301 MONTROSE AVENUE", "city": "TORONTO", "province": "ON", "country": "CA", "postalCode": "M6G3G9", "twitter": "None", "instagram": "None", "facebook": "None", "youtube": "None", "website": "None", "summary": "None", "logo": "None", "latitude": 43.658608777136564, "longitude": -79.41914984023913}, "128749520RR0001": {"name": "MOOD DISORDERS ASSOCIATION OF MANITOBA INC", "designationCode": "C", "categoryCode": "11", "address": "100-4 FORT ST", "city": "WINNIPEG", "province": "MB", "country": "CA", "postalCode": "R3C1C4", "twitter": "None", "instagram": "None", "facebook": "None", "youtube": "None", "website": "None", "summary": "None", "logo": "None", "latitude": 49.886708437965275, "longitude": -97.1353738065669}, "130978570RR0001": {"name": "MOOD DISORDERS ASSOCIATION OF ONTARIO & TORONTO", "designationCode": "C", "categoryCode": "11", "address": "602-36 EGLINTON AVENUE WEST", "city": "TORONTO", "province": "ON", "country": "CA", "postalCode": "M4R1A1", "twitter": "None", "instagram": "None", "facebook": "None", "youtube": "None", "website": "None", "summary": "None", "logo": "None", "latitude": 43.706429223440374, "longitude": -79.39989737552654}, "888212594RR0001": {"name": "MOOD DISORDERS OTTAWA (MDO) MUTUAL SUPPORT GROUP", "designationCode": "C", "categoryCode": "09", "address": "301-1355 BANK STREET", "city": "OTTAWA", "province": "ON", "country": "CA", "postalCode": "K1H8K7", "twitter": "None", "instagram": "None", "facebook": "None", "youtube": "None", "website": "None", "summary": "None", "logo": "None", "latitude": 45.38767887457424, "longitude": -75.6757536111146}, "883984817RR0001": {"name": "MOOD DISORDERS SOCIETY OF CANADA/LA SOCIETE POUR LES TROUBLES DE L'HUMEUR DU CANADA", "designationCode": "C", "categoryCode": "11", "address": "46 HOPE CRES", "city": "BELLEVILLE", "province": "ON", "country": "CA", "postalCode": "K8P4S2", "twitter": "None", "instagram": "None", "facebook": "None", "youtube": "None", "website": "None", "summary": "None", "logo": "None", "latitude": 44.15738330780767, "longitude": -77.40104577266449}, "884584822RR0001": {"name": "MOOKAAKIN CULTURAL AND HERITAGE SOCIETY", "designationCode": "C", "categoryCode": "50", "address": "2800  801  6TH AVENUE SW", "city": "CALGARY", "province": "AB", "country": "CA", "postalCode": "T2P4A3", "twitter": "None", "instagram": "None", "facebook": "None", "youtube": "None", "website": "None", "summary": "None", "logo": "None", "latitude": 51.0478195947294, "longitude": -114.07564953611224}, "888746120RR0001": {"name": "MOON HORSE DANCE THEATRE", "designationCode": "C", "categoryCode": "22", "address": "284 WINONA DR", "city": "YORK", "province": "ON", "country": "CA", "postalCode": "M6C3S9", "twitter": "None", "instagram": "None", "facebook": "None", "youtube": "None", "website": "None", "summary": "None", "logo": "None", "latitude": 43.68352576519133, "longitude": -79.43338356621831}, "733407522RR0001": {"name": "MOONLIGHT CHARITIES INC.", "designationCode": "C", "categoryCode": "09", "address": "186 PRINCE ST", "city": "CHARLOTTETOWN", "province": "PE", "country": "CA", "postalCode": "C1A4R9", "twitter": "None", "instagram": "None", "facebook": "None", "youtube": "None", "website": "None", "summary": "None", "logo": "None", "latitude": 46.23743322759533, "longitude": -63.12646320231988}, "107723066RR0001": {"name": "MOORE AGRICULTURAL SOCIETY", "designationCode": "C", "categoryCode": "56", "address": "2976 BRIGDEN RD               SS 1", "city": "BRIGDEN", "province": "ON", "country": "CA", "postalCode": "N0N1B0", "twitter": "None", "instagram": "None", "facebook": "None", "youtube": "None", "website": "None", "summary": "None", "logo": "None", "latitude": 42.80920545247668, "longitude": -82.28297589330892}, "119045425RR0001": {"name": "MOORE MEMORIAL UNITED CHURCH", "designationCode": "C", "categoryCode": "44", "address": "BOX 1150", "city": "REDWATER", "province": "AB", "country": "CA", "postalCode": "T0A2W0", "twitter": "None", "instagram": "None", "facebook": "None", "youtube": "None", "website": "None", "summary": "None", "logo": "None", "latitude": 53.94921000000005, "longitude": -113.10568999999998}, "108133489RR0001": {"name": "MOORE MUSEUM", "designationCode": "C", "categoryCode": "50", "address": "94 MOORE LINE", "city": "MOORETOWN", "province": "ON", "country": "CA", "postalCode": "N0N1M0", "twitter": "None", "instagram": "None", "facebook": "None", "youtube": "None", "website": "None", "summary": "None", "logo": "None", "latitude": 42.839823451093, "longitude": -82.46295131542504}, "130294838RR0001": {"name": "MOORE PRESBYTERIAN FOUNDATION", "designationCode": "C", "categoryCode": "01", "address": "198 BECWITH ST.", "city": "CORUNNA", "province": "ON", "country": "CA", "postalCode": "N0N1G0", "twitter": "None", "instagram": "None", "facebook": "None", "youtube": "None", "website": "None", "summary": "None", "logo": "None", "latitude": 42.89268197851604, "longitude": -82.45312400897375}, "119045458RR0001": {"name": "MOORE'S MILLS RURAL CEMETERY COMPANY", "designationCode": "C", "categoryCode": "56", "address": "P O BOX 8", "city": "MOORES MILLS", "province": "NB", "country": "CA", "postalCode": "E5A3C9", "twitter": "None", "instagram": "None", "facebook": "None", "youtube": "None", "website": "None", "summary": "None", "logo": "None", "latitude": 45.29229281587639, "longitude": -67.27599175329239}, "859564650RR0001": {"name": "MOOREFIELD MENNONITE FELLOWSHIP", "designationCode": "C", "categoryCode": "34", "address": "6593 WELLINGTON RD 9          RR #1", "city": "GOWANSTOWN", "province": "ON", "country": "CA", "postalCode": "N0G1Y0", "twitter": "None", "instagram": "None", "facebook": "None", "youtube": "None", "website": "None", "summary": "None", "logo": "None", "latitude": 43.75191707449173, "longitude": -80.83162956284943}, "131516411RR0001": {"name": "MOOREFIELD PASTORAL CHARGE", "designationCode": "C", "categoryCode": "44", "address": "PO BOX 1094", "city": "PALMERSTON", "province": "ON", "country": "CA", "postalCode": "N0G2P0", "twitter": "None", "instagram": "None", "facebook": "None", "youtube": "None", "website": "None", "summary": "None", "logo": "None", "latitude": 43.95818406650932, "longitude": -81.52001207957518}, "119230241RR0001": {"name": "MOORELANDS COMMUNITY SERVICES", "designationCode": "C", "categoryCode": "09", "address": "250 MERTON ST.                SUITE 501", "city": "TORONTO", "province": "ON", "country": "CA", "postalCode": "M4S1B1", "twitter": "None", "instagram": "None", "facebook": "None", "youtube": "None", "website": "None", "summary": "None", "logo": "None", "latitude": 43.69773414351649, "longitude": -79.3884989222978}, "887625895RR0001": {"name": "MOORES MILLS FIRE DEPARTMENT INC.", "designationCode": "C", "categoryCode": "59", "address": "P.O. BOX 146                  947 ROUTE 750", "city": "MOORES MILLS", "province": "NB", "country": "CA", "postalCode": "E5A1Z8", "twitter": "None", "instagram": "None", "facebook": "None", "youtube": "None", "website": "None", "summary": "None", "logo": "None", "latitude": 45.29229281587639, "longitude": -67.27599175329239}, "119045474RR0001": {"name": "MOOSE BROOK CHAPEL AND CEMETERY SOCIETY", "designationCode": "C", "categoryCode": "52", "address": "3195 HWY 215", "city": "MOOSE BROOK", "province": "NS", "country": "CA", "postalCode": "B0N2R0", "twitter": "None", "instagram": "None", "facebook": "None", "youtube": "None", "website": "None", "summary": "None", "logo": "None", "latitude": 45.28129132170315, "longitude": -63.833965629805135}, "803153949RR0001": {"name": "MOOSE CREE EDUCATION ENHANCEMENT FUND", "designationCode": "C", "categoryCode": "29", "address": "25 PEDABUN ROAD, P.O. BOX 780 MOOSE CREE FIRST NATION", "city": "MOOSE FACTORY", "province": "ON", "country": "CA", "postalCode": "P0L1W0", "twitter": "None", "instagram": "None", "facebook": "None", "youtube": "None", "website": "None", "summary": "None", "logo": "None", "latitude": 51.259992000000054, "longitude": -80.59706449999993}, "871774741RR0001": {"name": "MOOSE FACTORY PENTECOSTAL CHURCH", "designationCode": "C", "categoryCode": "36", "address": "P.O BOX 90", "city": "MOOSE FACTORY", "province": "ON", "country": "CA", "postalCode": "P0L1W0", "twitter": "None", "instagram": "None", "facebook": "None", "youtube": "None", "website": "None", "summary": "None", "logo": "None", "latitude": 51.26000000000005, "longitude": -80.59705999999994}, "107723264RR0001": {"name": "MOOSE JAW AND DISTRICT FOOD BANK INC.", "designationCode": "C", "categoryCode": "09", "address": "305 FAIRFORD ST W", "city": "MOOSE JAW", "province": "SK", "country": "CA", "postalCode": "S6H1V8", "twitter": "None", "instagram": "None", "facebook": "None", "youtube": "None", "website": "None", "summary": "None", "logo": "None", "latitude": 50.39248473727104, "longitude": -105.54244349858197}, "132875139RR0001": {"name": "MOOSE JAW AND DISTRICT SENIOR CITIZENS ASSOCIATION INC", "designationCode": "C", "categoryCode": "56", "address": "101-510 MAIN ST N", "city": "MOOSE JAW", "province": "SK", "country": "CA", "postalCode": "S6H3K3", "twitter": "None", "instagram": "None", "facebook": "None", "youtube": "None", "website": "None", "summary": "None", "logo": "None", "latitude": 50.394560177488614, "longitude": -105.53483127428058}}