{"106835259RR0001": {"name": "CAMPBELL RIVER AND NORTH ISLAND TRANSITION SOCIETY", "designationCode": "C", "categoryCode": "59", "address": "101 - 1116 DOGWOOD ST", "city": "CAMPBELL RIVER", "province": "BC", "country": "CA", "postalCode": "V9W3A2", "twitter": "None", "instagram": "None", "facebook": "None", "youtube": "None", "website": "None", "summary": "None", "logo": "None", "latitude": 50.026149544889485, "longitude": -125.24952356569025}, "132699158RR0001": {"name": "CAMPBELL RIVER BAPTIST CHURCH", "designationCode": "C", "categoryCode": "31", "address": "260 SOUTH DOGWOOD ST", "city": "CAMPBELL RIVER", "province": "BC", "country": "CA", "postalCode": "V9W6Y7", "twitter": "None", "instagram": "None", "facebook": "None", "youtube": "None", "website": "None", "summary": "None", "logo": "None", "latitude": 50.00277742170538, "longitude": -125.2475087781652}, "135262129RR0001": {"name": "CAMPBELL RIVER BEACON CLUB", "designationCode": "C", "categoryCode": "56", "address": "684 ISLAND HIGHWAY", "city": "CAMPBELL RIVER", "province": "BC", "country": "CA", "postalCode": "V9W2C3", "twitter": "None", "instagram": "None", "facebook": "None", "youtube": "None", "website": "None", "summary": "None", "logo": "None", "latitude": 50.02122477572291, "longitude": -125.23872185143361}, "119288918RR1325": {"name": "CAMPBELL RIVER BRITISH COLUMBIA CONGREGATION OF JEHOVAH'S WITNESSES", "designationCode": "C", "categoryCode": "61", "address": "4008 DARNELL RD", "city": "CAMPBELL RIVER", "province": "BC", "country": "CA", "postalCode": "V9H1N3", "twitter": "None", "instagram": "None", "facebook": "None", "youtube": "None", "website": "None", "summary": "None", "logo": "None", "latitude": 49.91111700000006, "longitude": -125.18850049999993}, "132390311RR0001": {"name": "CAMPBELL RIVER CHILD CARE SOCIETY", "designationCode": "C", "categoryCode": "09", "address": "394 LEISHMAN RD", "city": "CAMPBELL RIVER", "province": "BC", "country": "CA", "postalCode": "V9W3V6", "twitter": "None", "instagram": "None", "facebook": "None", "youtube": "None", "website": "None", "summary": "None", "logo": "None", "latitude": 50.01289325564071, "longitude": -125.24372725451552}, "891007411RR0001": {"name": "CAMPBELL RIVER CHILDRENS' CHOIR PERFORMING SOCIETY", "designationCode": "C", "categoryCode": "22", "address": "P. O. BOX 205", "city": "CAMPBELL RIVER", "province": "BC", "country": "CA", "postalCode": "V9W5A7", "twitter": "None", "instagram": "None", "facebook": "None", "youtube": "None", "website": "None", "summary": "None", "logo": "None", "latitude": 50.024643000000054, "longitude": -125.24819299999993}, "106835309RR0001": {"name": "CAMPBELL RIVER CHRISTIAN SCHOOL SOCIETY", "designationCode": "C", "categoryCode": "20", "address": "250 SOUTH DOGWOOD STREET", "city": "CAMPBELL RIVER", "province": "BC", "country": "CA", "postalCode": "V9W6Y7", "twitter": "None", "instagram": "None", "facebook": "None", "youtube": "None", "website": "None", "summary": "None", "logo": "None", "latitude": 50.00295248695091, "longitude": -125.2475087781652}, "118859925RR0001": {"name": "CAMPBELL RIVER CHURCH OF CHRIST", "designationCode": "C", "categoryCode": "39", "address": "226 HILCHEY RD", "city": "CAMPBELL RIVER", "province": "BC", "country": "CA", "postalCode": "V9W1P4", "twitter": "None", "instagram": "None", "facebook": "None", "youtube": "None", "website": "None", "summary": "None", "logo": "None", "latitude": 49.973113529286124, "longitude": -125.22550033236193}, "106835317RR0001": {"name": "CAMPBELL RIVER CHURCH OF THE WAY CHRISTIAN FELLOWSHIP", "designationCode": "C", "categoryCode": "39", "address": "451 7TH AVE", "city": "CAMPBELL RIVER", "province": "BC", "country": "CA", "postalCode": "V9W4A1", "twitter": "None", "instagram": "None", "facebook": "None", "youtube": "None", "website": "None", "summary": "None", "logo": "None", "latitude": 50.019857553379076, "longitude": -125.24609059948651}, "890658313RR0001": {"name": "CAMPBELL RIVER CITIZENS ON PATROL SOCIETY", "designationCode": "C", "categoryCode": "59", "address": "275 S. DOGWOOD ST", "city": "CAMPBELL RIVER", "province": "BC", "country": "CA", "postalCode": "V9W8C8", "twitter": "None", "instagram": "None", "facebook": "None", "youtube": "None", "website": "None", "summary": "None", "logo": "None", "latitude": 50.00217998415523, "longitude": -125.24739422182685}, "140971185RR0001": {"name": "CAMPBELL RIVER COMMUNITY ARTS COUNCIL", "designationCode": "C", "categoryCode": "22", "address": "2131 SOUTH ISLAND HWY", "city": "CAMPBELL RIVER", "province": "BC", "country": "CA", "postalCode": "V9W1C2", "twitter": "None", "instagram": "None", "facebook": "None", "youtube": "None", "website": "None", "summary": "None", "logo": "None", "latitude": 49.971480776876746, "longitude": -125.21713650634797}, "898256417RR0001": {"name": "CAMPBELL RIVER COMMUNITY LITERACY ASSOCIATION", "designationCode": "C", "categoryCode": "21", "address": "121A-740 ROBRON RD", "city": "CAMPBELL RIVER", "province": "BC", "country": "CA", "postalCode": "V9W6J7", "twitter": "None", "instagram": "None", "facebook": "None", "youtube": "None", "website": "None", "summary": "None", "logo": "None", "latitude": 49.99492052928615, "longitude": -125.24516002553523}, "139905392RR0001": {"name": "CAMPBELL RIVER CRIME STOPPERS SOCIETY", "designationCode": "C", "categoryCode": "59", "address": "PO BOX 63", "city": "CAMPBELL RIVER", "province": "BC", "country": "CA", "postalCode": "V9W4Z9", "twitter": "None", "instagram": "None", "facebook": "None", "youtube": "None", "website": "None", "summary": "None", "logo": "None", "latitude": 50.024643000000054, "longitude": -125.24819299999993}, "891487506RR0001": {"name": "CAMPBELL RIVER DRAGON BOAT SOCIETY", "designationCode": "C", "categoryCode": "11", "address": "#416-1434 IRONWOOD ST", "city": "CAMPBELL RIVER", "province": "BC", "country": "CA", "postalCode": "V9W5T5", "twitter": "None", "instagram": "None", "facebook": "None", "youtube": "None", "website": "None", "summary": "None", "logo": "None", "latitude": 50.02892497074502, "longitude": -125.25501126335948}, "118826775RR0001": {"name": "CAMPBELL RIVER FAMILY SERVICES SOCIETY", "designationCode": "C", "categoryCode": "59", "address": "487 10TH AVENUE", "city": "CAMPBELL RIVER", "province": "BC", "country": "CA", "postalCode": "V9W4E4", "twitter": "None", "instagram": "None", "facebook": "None", "youtube": "None", "website": "None", "summary": "None", "logo": "None", "latitude": 50.0249128019001, "longitude": -125.24658840268879}, "869286435RR0001": {"name": "CAMPBELL RIVER HEAD INJURY SUPPORT SOCIETY", "designationCode": "C", "categoryCode": "09", "address": "591 9TH AVENUE", "city": "CAMPBELL RIVER", "province": "BC", "country": "CA", "postalCode": "V9W4B5", "twitter": "None", "instagram": "None", "facebook": "None", "youtube": "None", "website": "None", "summary": "None", "logo": "None", "latitude": 50.023147531162046, "longitude": -125.247852}, "862994290RR0001": {"name": "CAMPBELL RIVER HEALING ROOMS SOCIETY", "designationCode": "C", "categoryCode": "49", "address": "684B ISLAND HWY", "city": "CAMPBELL RIVER", "province": "BC", "country": "CA", "postalCode": "V9W2C3", "twitter": "None", "instagram": "None", "facebook": "None", "youtube": "None", "website": "None", "summary": "None", "logo": "None", "latitude": 50.02106160197607, "longitude": -125.23858861520638}, "122407844RR0001": {"name": "CAMPBELL RIVER HOSPICE SOCIETY", "designationCode": "C", "categoryCode": "11", "address": "440 EVERGREEN RD", "city": "CAMPBELL RIVER", "province": "BC", "country": "CA", "postalCode": "V9W0C7", "twitter": "None", "instagram": "None", "facebook": "None", "youtube": "None", "website": "None", "summary": "None", "logo": "None", "latitude": 50.007598875453944, "longitude": -125.24553675}, "126561232RR0001": {"name": "CAMPBELL RIVER HOSPITAL AUXILIARY SOCIETY", "designationCode": "C", "categoryCode": "19", "address": "375 2ND AVE", "city": "CAMPBELL RIVER", "province": "BC", "country": "CA", "postalCode": "V9W3V1", "twitter": "None", "instagram": "None", "facebook": "None", "youtube": "None", "website": "None", "summary": "None", "logo": "None", "latitude": 50.011057117840686, "longitude": -125.2432023821593}, "894135763RR0001": {"name": "CAMPBELL RIVER HOSPITAL FOUNDATION", "designationCode": "A", "categoryCode": "13", "address": "381 2ND AVE", "city": "CAMPBELL RIVER", "province": "BC", "country": "CA", "postalCode": "V9W3V1", "twitter": "None", "instagram": "None", "facebook": "None", "youtube": "None", "website": "None", "summary": "None", "logo": "None", "latitude": 50.011057117840686, "longitude": -125.24335706607961}, "873111918RR0001": {"name": "CAMPBELL RIVER MARITIME HERITAGE SOCIETY", "designationCode": "C", "categoryCode": "50", "address": "PO BOX 25083 RPO TYEE", "city": "CAMPBELL RIVER", "province": "BC", "country": "CA", "postalCode": "V9W0B7", "twitter": "None", "instagram": "None", "facebook": "None", "youtube": "None", "website": "None", "summary": "None", "logo": "None", "latitude": 49.949332228733766, "longitude": -125.20275684431529}, "890061195RR0001": {"name": "CAMPBELL RIVER ROTARY CLUB FOUNDATION", "designationCode": "C", "categoryCode": "63", "address": "201-990 CEDAR STREET", "city": "CAMPBELL RIVER", "province": "BC", "country": "CA", "postalCode": "V9W7Z8", "twitter": "None", "instagram": "None", "facebook": "None", "youtube": "None", "website": "None", "summary": "None", "logo": "None", "latitude": 50.02397866368468, "longitude": -125.24682471942965}, "129194544RR0001": {"name": "CAMPBELL RIVER SALMON FESTIVAL SOCIETY", "designationCode": "C", "categoryCode": "59", "address": "P.O. BOX 191", "city": "CAMPBELL RIVER", "province": "BC", "country": "CA", "postalCode": "V9W5A7", "twitter": "None", "instagram": "None", "facebook": "None", "youtube": "None", "website": "None", "summary": "None", "logo": "None", "latitude": 50.024643000000054, "longitude": -125.24819299999993}, "852809417RR0001": {"name": "CAMPBELL RIVER SALMON FOUNDATION", "designationCode": "C", "categoryCode": "54", "address": "100 ST. ANN'S RD", "city": "CAMPBELL RIVER", "province": "BC", "country": "CA", "postalCode": "V9W4C4", "twitter": "None", "instagram": "None", "facebook": "None", "youtube": "None", "website": "None", "summary": "None", "logo": "None", "latitude": 50.024225943389645, "longitude": -125.24288450640529}, "136008844RR0001": {"name": "CAMPBELL RIVER SEARCH & RESCUE SOCIETY", "designationCode": "C", "categoryCode": "59", "address": "P.O. BOX 705, STN A", "city": "CAMPBELL RIVER", "province": "BC", "country": "CA", "postalCode": "V9W6J3", "twitter": "None", "instagram": "None", "facebook": "None", "youtube": "None", "website": "None", "summary": "None", "logo": "None", "latitude": 50.024643000000054, "longitude": -125.24819299999993}, "118818491RR0093": {"name": "CAMPBELL RIVER SEVENTH-DAY ADVENTIST CHURCH", "designationCode": "C", "categoryCode": "41", "address": "BOX 1000", "city": "ABBOTSFORD", "province": "BC", "country": "CA", "postalCode": "V2S4P5", "twitter": "None", "instagram": "None", "facebook": "None", "youtube": "None", "website": "None", "summary": "None", "logo": "None", "latitude": 49.03851300000005, "longitude": -122.29441549999993}, "132171240RR0001": {"name": "CAMPBELL RIVER TWINNING SOCIETY", "designationCode": "C", "categoryCode": "21", "address": "BOX 804", "city": "CAMPBELL RIVER", "province": "BC", "country": "CA", "postalCode": "V9W6Y4", "twitter": "None", "instagram": "None", "facebook": "None", "youtube": "None", "website": "None", "summary": "None", "logo": "None", "latitude": 50.024643000000054, "longitude": -125.24819299999993}, "888179595RR0001": {"name": "CAMPBELL RIVER UNITED CHURCH", "designationCode": "C", "categoryCode": "44", "address": "415 PINECREST ROAD", "city": "CAMPBELL RIVER", "province": "BC", "country": "CA", "postalCode": "V9W3P2", "twitter": "None", "instagram": "None", "facebook": "None", "youtube": "None", "website": "None", "summary": "None", "logo": "None", "latitude": 50.00387647951469, "longitude": -125.24282002553522}, "139821144RR0001": {"name": "CAMPBELL RIVER VINEYARD CHRISTIAN FELLOWSHIP", "designationCode": "C", "categoryCode": "39", "address": "2215 CAMPBELL RIVER RD", "city": "CAMPBELL RIVER", "province": "BC", "country": "CA", "postalCode": "V9W4N8", "twitter": "None", "instagram": "None", "facebook": "None", "youtube": "None", "website": "None", "summary": "None", "logo": "None", "latitude": 50.03418348981514, "longitude": -125.27767485726199}, "891206468RR0001": {"name": "CAMPBELL RIVER VOLUNTEER SOCIETY", "designationCode": "C", "categoryCode": "09", "address": "ENTERPRISE CENTRE             900 ALDER STREET", "city": "CAMPBELL RIVER", "province": "BC", "country": "CA", "postalCode": "V9W2P6", "twitter": "None", "instagram": "None", "facebook": "None", "youtube": "None", "website": "None", "summary": "None", "logo": "None", "latitude": 50.022410114847425, "longitude": -125.24288901171418}, "866611916RR0001": {"name": "CAMPBELL RIVER WRITERS' FESTIVAL SOCIETY", "designationCode": "C", "categoryCode": "22", "address": "140 S. PETERSEN ROAD", "city": "CAMPBELL RIVER", "province": "BC", "country": "CA", "postalCode": "V9W3G6", "twitter": "None", "instagram": "None", "facebook": "None", "youtube": "None", "website": "None", "summary": "None", "logo": "None", "latitude": 50.00508213333972, "longitude": -125.26605848503166}, "891621062RR0001": {"name": "CAMPBELL RIVER YACHT CLUB FOUNDATION", "designationCode": "A", "categoryCode": "55", "address": "2641 CAMPBELL RIVER ROAD", "city": "CAMPBELL RIVER", "province": "BC", "country": "CA", "postalCode": "V9W4P1", "twitter": "None", "instagram": "None", "facebook": "None", "youtube": "None", "website": "None", "summary": "None", "logo": "None", "latitude": 50.03749415482641, "longitude": -125.28885393468609}, "885706499RR0001": {"name": "CAMPBELL VOLUNTEER FIRE TEAM", "designationCode": "C", "categoryCode": "59", "address": "P.O. BOX 20", "city": "SPRING BAY", "province": "ON", "country": "CA", "postalCode": "P0P2B0", "twitter": "None", "instagram": "None", "facebook": "None", "youtube": "None", "website": "None", "summary": "None", "logo": "None"}, "853438331RR0001": {"name": "CAMPBELL WEBSTER FOUNDATION INC.", "designationCode": "B", "categoryCode": "03", "address": "152 GREAT GEORGE ST           2ND FLOOR", "city": "CHARLOTTETOWN", "province": "PE", "country": "CA", "postalCode": "C1A4K6", "twitter": "None", "instagram": "None", "facebook": "None", "youtube": "None", "website": "None", "summary": "None", "logo": "None", "latitude": 46.23642256233964, "longitude": -63.12781273099527}, "889493391RR0001": {"name": "CAMPBELL-STONE UNITED CHURCH (CHRISTIAN CHURCH/DISCIPLES OF CHRIST & UNITED CHURCH OF CAN", "designationCode": "C", "categoryCode": "44", "address": "BOX 73027 RPO WOODBINE        206-2525 WOODVIEW DRIVE SW", "city": "CALGARY", "province": "AB", "country": "CA", "postalCode": "T2W6E4", "twitter": "None", "instagram": "None", "facebook": "None", "youtube": "None", "website": "None", "summary": "None", "logo": "None", "latitude": 50.94113647403209, "longitude": -114.11947358381903}, "118826619RR0001": {"name": "CAMPBELLFORD AND DISTRICT CURLING AND RACQUET CLUB INC.", "designationCode": "C", "categoryCode": "56", "address": "BOX 1784", "city": "CAMPBELLFORD", "province": "ON", "country": "CA", "postalCode": "K0L1L0", "twitter": "None", "instagram": "None", "facebook": "None", "youtube": "None", "website": "None", "summary": "None", "logo": "None", "latitude": 44.287060000000054, "longitude": -77.80936999999994}, "118826627RR0001": {"name": "CAMPBELLFORD BAPTIST CHURCH", "designationCode": "C", "categoryCode": "31", "address": "BOX 490, 166 GRAND RD", "city": "CAMPBELLFORD", "province": "ON", "country": "CA", "postalCode": "K0L1L0", "twitter": "None", "instagram": "None", "facebook": "None", "youtube": "None", "website": "None", "summary": "None", "logo": "None", "latitude": 44.30355636410198, "longitude": -77.8034554293049}, "129672093RR0001": {"name": "CAMPBELLFORD FREE METHODIST CHURCH", "designationCode": "C", "categoryCode": "39", "address": "73 RANNEY ST. N.              BOX 849", "city": "CAMPBELFORD", "province": "ON", "country": "CA", "postalCode": "K0L1L0", "twitter": "None", "instagram": "None", "facebook": "None", "youtube": "None", "website": "None", "summary": "None", "logo": "None", "latitude": 44.31030585646334, "longitude": -77.79387805110949}, "106835127RR0001": {"name": "CAMPBELLFORD MEMORIAL HOSPITAL", "designationCode": "C", "categoryCode": "10", "address": "146 OLIVER RD BOX 1027", "city": "CAMPBELLFORD", "province": "ON", "country": "CA", "postalCode": "K0L1L0", "twitter": "None", "instagram": "None", "facebook": "None", "youtube": "None", "website": "None", "summary": "None", "logo": "None", "latitude": 44.31231306898548, "longitude": -77.78957473819773}, "118826650RR0001": {"name": "CAMPBELLFORD MEMORIAL HOSPITAL FOUNDATION", "designationCode": "A", "categoryCode": "13", "address": "146 OLIVER RD", "city": "CAMPBELLFORD", "province": "ON", "country": "CA", "postalCode": "K0L1L0", "twitter": "None", "instagram": "None", "facebook": "None", "youtube": "None", "website": "None", "summary": "None", "logo": "None", "latitude": 44.31231306898548, "longitude": -77.78957473819773}, "119288918RR0023": {"name": "CAMPBELLFORD ONT CONGREGATION OF JEHOVAH'S WITNESSES", "designationCode": "C", "categoryCode": "61", "address": "243 MUSKIE MILE LANE          RR#2", "city": "HAVELOCK", "province": "ON", "country": "CA", "postalCode": "K0L1Z0", "twitter": "None", "instagram": "None", "facebook": "None", "youtube": "None", "website": "None", "summary": "None", "logo": "None", "latitude": 44.37404014744851, "longitude": -77.89299234195805}, "889697769RR0001": {"name": "CAMPBELLFORD-SEYMOUR HERITAGE SOCIETY", "designationCode": "C", "categoryCode": "50", "address": "113 FRONT ST                  PO BOX 1294", "city": "CAMPBELLFORD", "province": "ON", "country": "CA", "postalCode": "K0L1L0", "twitter": "None", "instagram": "None", "facebook": "None", "youtube": "None", "website": "None", "summary": "None", "logo": "None", "latitude": 44.31181940186981, "longitude": -77.79600740339903}, "898077912RR0001": {"name": "CAMPBELLFORD/SEYMOUR COMMUNITY FOUNDATION", "designationCode": "A", "categoryCode": "03", "address": "PO BOX 1146                   39 DOXSEE AVE NORTH", "city": "CAMPBELLFORD", "province": "ON", "country": "CA", "postalCode": "K0L1L0", "twitter": "None", "instagram": "None", "facebook": "None", "youtube": "None", "website": "None", "summary": "None", "logo": "None", "latitude": 44.309230093254094, "longitude": -77.79590683651686}, "108082546RR0001": {"name": "CAMPBELLS BAY FREE METHODIST CHURCH", "designationCode": "C", "categoryCode": "39", "address": "BOX 311", "city": "CAMPBELLS BAY PONTIAC CO", "province": "QC", "country": "CA", "postalCode": "J0X1K0", "twitter": "None", "instagram": "None", "facebook": "None", "youtube": "None", "website": "None", "summary": "None", "logo": "None", "latitude": 45.67874163255157, "longitude": -76.54371060945196}, "118826858RR0001": {"name": "CAMPBELLS BAY PASTORAL CHARGE", "designationCode": "C", "categoryCode": "44", "address": "6 EPWORTH AVENUE", "city": "OTTAWA", "province": "ON", "country": "CA", "postalCode": "K2G2L5", "twitter": "None", "instagram": "None", "facebook": "None", "youtube": "None", "website": "None", "summary": "None", "logo": "None", "latitude": 45.35199758863781, "longitude": -75.74027324837002}, "106835515RR0001": {"name": "CAMPBELLTON CENTENNIAL PUBLIC LIBRARY BOARD", "designationCode": "C", "categoryCode": "50", "address": "19 ABERDEEN ST", "city": "CAMPBELLTON", "province": "NB", "country": "CA", "postalCode": "E3N2J6", "twitter": "None", "instagram": "None", "facebook": "None", "youtube": "None", "website": "None", "summary": "None", "logo": "None", "latitude": 48.00420732452767, "longitude": -66.67481248941986}, "106835564RR0001": {"name": "CAMPBELLTON NURSING HOME, INC.", "designationCode": "C", "categoryCode": "01", "address": "PO BOX 850", "city": "CAMPBELLTON", "province": "NB", "country": "CA", "postalCode": "E3N3H3", "twitter": "None", "instagram": "None", "facebook": "None", "youtube": "None", "website": "None", "summary": "None", "logo": "None", "latitude": 47.99757300000006, "longitude": -66.66103249999993}, "106835572RR0001": {"name": "CAMPBELLTON PASTORAL CHARGE", "designationCode": "C", "categoryCode": "44", "address": "PO BOX 134", "city": "COMFORT COVE-NEWSTEAD", "province": "NL", "country": "CA", "postalCode": "A0G3K0", "twitter": "None", "instagram": "None", "facebook": "None", "youtube": "None", "website": "None", "summary": "None", "logo": "None", "latitude": 49.403904000000054, "longitude": -54.859912999999935}, "126845775RR0001": {"name": "CAMPBELLTON ROTARY CLUB CHARITABLE TRUST", "designationCode": "A", "categoryCode": "65", "address": "PO BOX 142", "city": "CAMPBELLTON", "province": "NB", "country": "CA", "postalCode": "E3N3G1", "twitter": "None", "instagram": "None", "facebook": "None", "youtube": "None", "website": "None", "summary": "None", "logo": "None", "latitude": 47.99757300000006, "longitude": -66.66103249999993}, "889659173RR0001": {"name": "CAMPBELLTON RURAL CEMETERY COMPANY", "designationCode": "C", "categoryCode": "59", "address": "224 FERGUSON STREET", "city": "ATHOLVILLE", "province": "NB", "country": "CA", "postalCode": "E3N4P4", "twitter": "None", "instagram": "None", "facebook": "None", "youtube": "None", "website": "None", "summary": "None", "logo": "None", "latitude": 47.987100377459775, "longitude": -66.71934890645745}, "106835580RR0001": {"name": "CAMPBELLTON UNITED PENTECOSTAL CHURCH INC.", "designationCode": "C", "categoryCode": "36", "address": "198 ROSEBERRY STREET", "city": "CAMPBELLTON", "province": "NB", "country": "CA", "postalCode": "E3N2H3", "twitter": "None", "instagram": "None", "facebook": "None", "youtube": "None", "website": "None", "summary": "None", "logo": "None", "latitude": 48.00183562003007, "longitude": -66.68760629364074}, "128294873RR0001": {"name": "CAMPERDOWN LITTLE RED SCHOOL HOUSE ASSOCIATION", "designationCode": "C", "categoryCode": "56", "address": "1632 CAMPERDOWN ROAD", "city": "CAMPERDOWN", "province": "NS", "country": "CA", "postalCode": "B4V6S5", "twitter": "None", "instagram": "None", "facebook": "None", "youtube": "None", "website": "None", "summary": "None", "logo": "None", "latitude": 44.28130706027437, "longitude": -64.63408507519203}, "850536129RR0001": {"name": "CAMPFIRE MINISTRIES", "designationCode": "C", "categoryCode": "56", "address": "7898 ISLAND HWY", "city": "BLACK CREEK", "province": "BC", "country": "CA", "postalCode": "V9J1G5", "twitter": "None", "instagram": "None", "facebook": "None", "youtube": "None", "website": "None", "summary": "None", "logo": "None", "latitude": 49.81508511764102, "longitude": -125.1188286126066}, "857117733RR0001": {"name": "CAMPFIRE! BIBLE CAMP", "designationCode": "C", "categoryCode": "49", "address": "35 EAST 15TH ST", "city": "HAMILTON", "province": "ON", "country": "CA", "postalCode": "L9A4E6", "twitter": "None", "instagram": "None", "facebook": "None", "youtube": "None", "website": "None", "summary": "None", "logo": "None", "latitude": 43.24179125391702, "longitude": -79.85991635632631}, "106835879RR0001": {"name": "CAMPHILL COMMUNITIES ONTARIO INC.", "designationCode": "C", "categoryCode": "99", "address": "7841 4TH LINE", "city": "ANGUS", "province": "ON", "country": "CA", "postalCode": "L0M1B1", "twitter": "None", "instagram": "None", "facebook": "None", "youtube": "None", "website": "None", "summary": "None", "logo": "None", "latitude": 44.28563955138015, "longitude": -79.86105178434103}, "867897639RR0001": {"name": "CAMPHILL FOUNDATION CANADA", "designationCode": "A", "categoryCode": "03", "address": "78 TORONTO STREET", "city": "BARRIE", "province": "ON", "country": "CA", "postalCode": "L4N1V2", "twitter": "None", "instagram": "None", "facebook": "None", "youtube": "None", "website": "None", "summary": "None", "logo": "None", "latitude": 44.388921950314526, "longitude": -79.69438877436659}, "118827591RR0001": {"name": "CAMPOBELLO LODGE INC.", "designationCode": "C", "categoryCode": "01", "address": "640, ROUTE 774", "city": "WELSHPOOL", "province": "NB", "country": "CA", "postalCode": "E5E1A5", "twitter": "None", "instagram": "None", "facebook": "None", "youtube": "None", "website": "None", "summary": "None", "logo": "None", "latitude": 44.87933768766768, "longitude": -66.95515814720184}, "118827724RR0001": {"name": "CAMPS DE L'AVENIR LAC OUIMET", "designationCode": "C", "categoryCode": "56", "address": "10215 SACRE-COEUR", "city": "MONTREAL", "province": "QC", "country": "CA", "postalCode": "H2C2S6", "twitter": "None", "instagram": "None", "facebook": "None", "youtube": "None", "website": "None", "summary": "None", "logo": "None", "latitude": 45.560071895377604, "longitude": -73.65646536565879}, "118827781RR0001": {"name": "CAMPS MASSAD OF CANADA", "designationCode": "C", "categoryCode": "56", "address": "253 CROIS NETHERWOOD", "city": "HAMPSTEAD", "province": "QC", "country": "CA", "postalCode": "H3X3W2", "twitter": "None", "instagram": "None", "facebook": "None", "youtube": "None", "website": "None", "summary": "None", "logo": "None", "latitude": 45.47900078821639, "longitude": -73.65323973301966}, "118827120RR0001": {"name": "CAMPS ODYSS\u00c9E INC.", "designationCode": "C", "categoryCode": "56", "address": "4500 HENRY BOURASSA           BUREAU 220", "city": "QU\u00c9BEC", "province": "QC", "country": "CA", "postalCode": "G1H3A5", "twitter": "None", "instagram": "None", "facebook": "None", "youtube": "None", "website": "None", "summary": "None", "logo": "None", "latitude": 46.848488299497795, "longitude": -71.24026583579573}, "106836166RR0001": {"name": "CAMPUS CHILD CARE CO-OPERATIVE OF GUELPH INC.", "designationCode": "C", "categoryCode": "01", "address": "2 SOUTH RING RD W", "city": "GUELPH", "province": "ON", "country": "CA", "postalCode": "N1G4Y2", "twitter": "None", "instagram": "None", "facebook": "None", "youtube": "None", "website": "None", "summary": "None", "logo": "None", "latitude": 43.53261055466222, "longitude": -80.22128753905804}, "106836174RR0001": {"name": "CAMPUS COMMUNITY CO-OPERATIVE DAY CARE CENTRE INC.", "designationCode": "C", "categoryCode": "01", "address": "370 HURON STREET", "city": "TORONTO", "province": "ON", "country": "CA", "postalCode": "M5S2G4", "twitter": "None", "instagram": "None", "facebook": "None", "youtube": "None", "website": "None", "summary": "None", "logo": "None", "latitude": 43.66460732500435, "longitude": -79.40054473578962}, "889295846RR0001": {"name": "CAMPUS CRUSADE FOR CHRIST FOUNDATION", "designationCode": "A", "categoryCode": "43", "address": "20385 64 AVE", "city": "LANGLEY", "province": "BC", "country": "CA", "postalCode": "V2Y1N5", "twitter": "None", "instagram": "None", "facebook": "None", "youtube": "None", "website": "None", "summary": "None", "logo": "None", "latitude": 49.119045277109755, "longitude": -122.6577146462147}, "106836240RR0001": {"name": "CAMPUS DAY CARE CENTRE", "designationCode": "C", "categoryCode": "20", "address": "28 CAMPUS DRIVE               UNIVERSITY OF SASKATCHEWAN", "city": "SASKATOON", "province": "SK", "country": "CA", "postalCode": "S7N0X1", "twitter": "None", "instagram": "None", "facebook": "None", "youtube": "None", "website": "None", "summary": "None", "logo": "None", "latitude": 52.134237947942225, "longitude": -106.63718614761609}, "132152877RR0001": {"name": "CAMPUS DAY CARE CENTRE INC", "designationCode": "C", "categoryCode": "01", "address": "15 DYSART RD", "city": "WINNIPEG", "province": "MB", "country": "CA", "postalCode": "R3T2N2", "twitter": "None", "instagram": "None", "facebook": "None", "youtube": "None", "website": "None", "summary": "None", "logo": "None", "latitude": 49.809939702781236, "longitude": -97.14095336528341}, "888846532RR0001": {"name": "CAMPUS FOOD BANK", "designationCode": "C", "categoryCode": "59", "address": "57 ALLANDALE RD BOX 2", "city": "ST JOHN'S", "province": "NL", "country": "CA", "postalCode": "A1B3S7", "twitter": "None", "instagram": "None", "facebook": "None", "youtube": "None", "website": "None", "summary": "None", "logo": "None", "latitude": 47.57430217871745, "longitude": -52.72656584306917}, "108076332RR0001": {"name": "CAMPUS MINISTRY CHAPLAINCY SOCIETY", "designationCode": "C", "categoryCode": "49", "address": "642 TRENT CRESCENT", "city": "SASKATOON", "province": "SK", "country": "CA", "postalCode": "S7H4T6", "twitter": "None", "instagram": "None", "facebook": "None", "youtube": "None", "website": "None", "summary": "None", "logo": "None", "latitude": 52.11601149708582, "longitude": -106.58066719833784}, "118827898RR0001": {"name": "CAMPUS NOTRE-DAME-DE-FOY", "designationCode": "C", "categoryCode": "20", "address": "5000, RUE CLEMENT-LOCKQUELL", "city": "SAINT-AUGUSTIN-DE-DESMAURES", "province": "QC", "country": "CA", "postalCode": "G3A1B3", "twitter": "None", "instagram": "None", "facebook": "None", "youtube": "None", "website": "None", "summary": "None", "logo": "None", "latitude": 46.737437903081904, "longitude": -71.39924824274318}, "118827914RR0001": {"name": "CAMPUS VIEW PARENT ADVISORY COUNCIL", "designationCode": "C", "categoryCode": "21", "address": "3900 GORDON HEAD", "city": "VICTORIA", "province": "BC", "country": "CA", "postalCode": "V8P4X3", "twitter": "None", "instagram": "None", "facebook": "None", "youtube": "None", "website": "None", "summary": "None", "logo": "None", "latitude": 48.46541497027747, "longitude": -123.32079813717033}, "892528233RR0001": {"name": "CAMPUS-JEUNESSE", "designationCode": "C", "categoryCode": "09", "address": "17 1ERE AVENUE EST            C.P. 97", "city": "ROUYN-NORANDA", "province": "QC", "country": "CA", "postalCode": "J0Y1C0", "twitter": "None", "instagram": "None", "facebook": "None", "youtube": "None", "website": "None", "summary": "None", "logo": "None", "latitude": 48.226164714697795, "longitude": -78.38438811062366}, "889905378RR0001": {"name": "CAMROSE & DISTRICT CRAFT CENTRE", "designationCode": "C", "categoryCode": "22", "address": "5-4516 54 STREET", "city": "CAMROSE", "province": "AB", "country": "CA", "postalCode": "T4V4W7", "twitter": "None", "instagram": "None", "facebook": "None", "youtube": "None", "website": "None", "summary": "None", "logo": "None"}, "889986790RR0001": {"name": "CAMROSE & DISTRICT HOME SUPPORT SERVICE SOCIETY", "designationCode": "C", "categoryCode": "09", "address": "3 COMMUNITY CENTRE 4516 54 ST", "city": "CAMROSE", "province": "AB", "country": "CA", "postalCode": "T4V4W7", "twitter": "None", "instagram": "None", "facebook": "None", "youtube": "None", "website": "None", "summary": "None", "logo": "None", "latitude": 53.01236700000001, "longitude": -112.83279863477391}, "839046471RR0001": {"name": "CAMROSE & DISTRICT MUSIC FESTIVAL ASSOCIATION", "designationCode": "C", "categoryCode": "22", "address": "P.O. BOX 4", "city": "KELSEY", "province": "AB", "country": "CA", "postalCode": "T0B2K0", "twitter": "None", "instagram": "None", "facebook": "None", "youtube": "None", "website": "None", "summary": "None", "logo": "None", "latitude": 52.84614000000005, "longitude": -112.54805999999996}, "890221575RR0001": {"name": "CAMROSE & DISTRICT PRE-SCHOOL SOCIETY", "designationCode": "C", "categoryCode": "20", "address": "#3, 4516-54 ST", "city": "CAMROSE", "province": "AB", "country": "CA", "postalCode": "T4V4W7", "twitter": "None", "instagram": "None", "facebook": "None", "youtube": "None", "website": "None", "summary": "None", "logo": "None", "latitude": 53.01236700000001, "longitude": -112.83279863477391}, "886258417RR0001": {"name": "CAMROSE & DISTRICT VICTIM SERVICES SOCIETY", "designationCode": "C", "categoryCode": "09", "address": "6220 48 AVE", "city": "CAMROSE", "province": "AB", "country": "CA", "postalCode": "T4V0K6", "twitter": "None", "instagram": "None", "facebook": "None", "youtube": "None", "website": "None", "summary": "None", "logo": "None", "latitude": 53.01802245657561, "longitude": -112.8512205}, "118915669RR0001": {"name": "CAMROSE AND DISTRICT BOYS AND GIRLS CLUB", "designationCode": "C", "categoryCode": "09", "address": "4516 54 ST", "city": "CAMROSE", "province": "AB", "country": "CA", "postalCode": "T4V4W7", "twitter": "None", "instagram": "None", "facebook": "None", "youtube": "None", "website": "None", "summary": "None", "logo": "None", "latitude": 53.01236700000001, "longitude": -112.83279863477391}, "106836471RR0001": {"name": "CAMROSE AND DISTRICT SENIOR CENTRE SOCIETY", "designationCode": "C", "categoryCode": "56", "address": "5415-49 AVE", "city": "CAMROSE", "province": "AB", "country": "CA", "postalCode": "T4V0N6", "twitter": "None", "instagram": "None", "facebook": "None", "youtube": "None", "website": "None", "summary": "None", "logo": "None", "latitude": 53.0211370582265, "longitude": -112.83353833384594}, "888854643RR0001": {"name": "CAMROSE ARTS SOCIETY", "designationCode": "C", "categoryCode": "22", "address": "4809-52 STREET", "city": "CAMROSE", "province": "AB", "country": "CA", "postalCode": "T4V1T9", "twitter": "None", "instagram": "None", "facebook": "None", "youtube": "None", "website": "None", "summary": "None", "logo": "None", "latitude": 53.01883790201191, "longitude": -112.82874934171623}, "898543897RR0001": {"name": "CAMROSE CHARITABLE TRUST", "designationCode": "B", "categoryCode": "39", "address": "3425 2 AVE S", "city": "LETHBRIDGE", "province": "AB", "country": "CA", "postalCode": "T1J4V1", "twitter": "None", "instagram": "None", "facebook": "None", "youtube": "None", "website": "None", "summary": "None", "logo": "None", "latitude": 49.696839530439966, "longitude": -112.78914308381903}, "118828052RR0001": {"name": "CAMROSE CHILDREN'S CENTRE", "designationCode": "C", "categoryCode": "01", "address": "4304 53 ST", "city": "CAMROSE", "province": "AB", "country": "CA", "postalCode": "T4V1Y2", "twitter": "None", "instagram": "None", "facebook": "None", "youtube": "None", "website": "None", "summary": "None", "logo": "None", "latitude": 53.00891926905087, "longitude": -112.83116976012106}, "106836430RR0001": {"name": "CAMROSE CHURCH OF CHRIST", "designationCode": "C", "categoryCode": "39", "address": "4901-42 STREET", "city": "CAMROSE", "province": "AB", "country": "CA", "postalCode": "T4V1A2", "twitter": "None", "instagram": "None", "facebook": "None", "youtube": "None", "website": "None", "summary": "None", "logo": "None", "latitude": 53.01963353067111, "longitude": -112.81221693184844}, "870055167RR0001": {"name": "CAMROSE FAMILY RESOURCE CENTRE ASSOCIATION", "designationCode": "C", "categoryCode": "09", "address": "#3 COMMUNITY CENTRE           4516 54 ST", "city": "CAMROSE", "province": "AB", "country": "CA", "postalCode": "T4V4W7", "twitter": "None", "instagram": "None", "facebook": "None", "youtube": "None", "website": "None", "summary": "None", "logo": "None", "latitude": 53.01236700000001, "longitude": -112.83279863477391}, "118828037RR0001": {"name": "CAMROSE MERRY CHRISTMAS FUND", "designationCode": "C", "categoryCode": "09", "address": "BOX 165", "city": "ROSALIND", "province": "AB", "country": "CA", "postalCode": "T0B3Y0", "twitter": "None", "instagram": "None", "facebook": "None", "youtube": "None", "website": "None", "summary": "None", "logo": "None", "latitude": 52.78343000000007, "longitude": -112.45186999999999}, "890404767RR0001": {"name": "CAMROSE NEIGHBOR AID CENTER INC.", "designationCode": "C", "categoryCode": "49", "address": "POST OFFICE BOX 1936", "city": "CAMROSE", "province": "AB", "country": "CA", "postalCode": "T4V1X8", "twitter": "None", "instagram": "None", "facebook": "None", "youtube": "None", "website": "None", "summary": "None", "logo": "None", "latitude": 53.02423500000006, "longitude": -112.82978149999994}, "863352522RR0001": {"name": "CAMROSE OPEN DOOR ASSOCIATION", "designationCode": "C", "categoryCode": "09", "address": "BOX 1491                      4825 51 ST", "city": "CAMROSE", "province": "AB", "country": "CA", "postalCode": "T4V1X4", "twitter": "None", "instagram": "None", "facebook": "None", "youtube": "None", "website": "None", "summary": "None", "logo": "None", "latitude": 53.01921723886664, "longitude": -112.82716154331997}, "106836554RR0001": {"name": "CAMROSE PUBLIC LIBRARY BOARD", "designationCode": "C", "categoryCode": "50", "address": "4710 50 AVE", "city": "CAMROSE", "province": "AB", "country": "CA", "postalCode": "T4V0R8", "twitter": "None", "instagram": "None", "facebook": "None", "youtube": "None", "website": "None", "summary": "None", "logo": "None", "latitude": 53.021961000000005, "longitude": -112.821651}, "118828128RR0001": {"name": "CAMROSE REGIONAL EXHIBITION AND AGRICULTURAL SOCIETY", "designationCode": "C", "categoryCode": "56", "address": "4250 EXHIBITION DR", "city": "CAMROSE", "province": "AB", "country": "CA", "postalCode": "T4V4Z8", "twitter": "None", "instagram": "None", "facebook": "None", "youtube": "None", "website": "None", "summary": "None", "logo": "None", "latitude": 53.00574661767966, "longitude": -112.78579739802868}, "106693047RR0007": {"name": "CAMROSE SEVENTH-DAY ADVENTIST CHURCH", "designationCode": "C", "categoryCode": "41", "address": "5816 HIGHWAY, 2A", "city": "LACOMBE", "province": "AB", "country": "CA", "postalCode": "T4L2G5", "twitter": "None", "instagram": "None", "facebook": "None", "youtube": "None", "website": "None", "summary": "None", "logo": "None", "latitude": 52.474063600197404, "longitude": -113.71692568401835}, "118828169RR0001": {"name": "CAMROSE UNITED CHURCH", "designationCode": "C", "categoryCode": "44", "address": "4829-50 ST", "city": "CAMROSE", "province": "AB", "country": "CA", "postalCode": "T4V1P6", "twitter": "None", "instagram": "None", "facebook": "None", "youtube": "None", "website": "None", "summary": "None", "logo": "None", "latitude": 53.019161214265125, "longitude": -112.8255922421376}, "140153487RR0001": {"name": "CAN SERVE FOUNDATION", "designationCode": "C", "categoryCode": "01", "address": "1 CUMMINGS SQUARE", "city": "MONTREAL", "province": "QC", "country": "CA", "postalCode": "H3W1M6", "twitter": "None", "instagram": "None", "facebook": "None", "youtube": "None", "website": "None", "summary": "None", "logo": "None", "latitude": 45.48925656614425, "longitude": -73.63588473115946}, "898806427RR0001": {"name": "CAN YOU IMAGINE DAY CARE CENTRE INC.", "designationCode": "C", "categoryCode": "01", "address": "55 STADACONA AVE", "city": "WINNIPEG", "province": "MB", "country": "CA", "postalCode": "R2L1P8", "twitter": "None", "instagram": "None", "facebook": "None", "youtube": "None", "website": "None", "summary": "None", "logo": "None", "latitude": 49.90764534081606, "longitude": -97.11142127918536}, "847562410RR0001": {"name": "CAN-AM INDIAN FRIENDSHIP CENTRE OF WINDSOR", "designationCode": "C", "categoryCode": "56", "address": "2929 HOWARD AVE", "city": "WINDSOR", "province": "ON", "country": "CA", "postalCode": "N8X4W4", "twitter": "None", "instagram": "None", "facebook": "None", "youtube": "None", "website": "None", "summary": "None", "logo": "None", "latitude": 42.27829996390455, "longitude": -83.0079600733161}, "129340279RR0001": {"name": "CAN-AM URBAN NATIVE NON-PROFIT HOMES (WINDSOR) INC", "designationCode": "C", "categoryCode": "01", "address": "180 TECUMSEH ROAD E", "city": "WINDSOR", "province": "ON", "country": "CA", "postalCode": "N8X2P8", "twitter": "None", "instagram": "None", "facebook": "None", "youtube": "None", "website": "None", "summary": "None", "logo": "None"}, "140840695RR0001": {"name": "CAN-VOICE CONSUMER/SURVIVOR COMMUNITY SUPPORT SERVICES", "designationCode": "C", "categoryCode": "19", "address": "450 SPRUCE ST", "city": "LONDON", "province": "ON", "country": "CA", "postalCode": "N5W4P3", "twitter": "None", "instagram": "None", "facebook": "None", "youtube": "None", "website": "None", "summary": "None", "logo": "None", "latitude": 43.0014184965662, "longitude": -81.19332003081534}, "888126463RR0001": {"name": "CANAAN FORKS CEMETERY", "designationCode": "C", "categoryCode": "59", "address": "STE 310, 185 ROYAL OAKS BLVD.", "city": "MONCTON", "province": "NB", "country": "CA", "postalCode": "E2H1P7", "twitter": "None", "instagram": "None", "facebook": "None", "youtube": "None", "website": "None", "summary": "None", "logo": "None", "latitude": 46.150739849615945, "longitude": -64.78965426025792}, "100754142RR0001": {"name": "CANAAN RECREATIONAL COUNCIL, INC.", "designationCode": "C", "categoryCode": "56", "address": "408 CHERRYVALE RD", "city": "CANAAN FORKS", "province": "NB", "country": "CA", "postalCode": "E4Z5X4", "twitter": "None", "instagram": "None", "facebook": "None", "youtube": "None", "website": "None", "summary": "None", "logo": "None", "latitude": 46.05035736558168, "longitude": -65.5359867305815}, "118851484RR0002": {"name": "CANAAN UNITED BAPTIST CHURCH", "designationCode": "C", "categoryCode": "31", "address": "309-9989 ST.MARGARET'S BAY RD.RR 2", "city": "HUBBARDS", "province": "NS", "country": "CA", "postalCode": "B0J1T0", "twitter": "None", "instagram": "None", "facebook": "None", "youtube": "None", "website": "None", "summary": "None", "logo": "None", "latitude": 44.63988861381848, "longitude": -64.05946707927228}, "889495792RR0001": {"name": "CANAAN UNITED PENTECOSTAL CHURCH", "designationCode": "C", "categoryCode": "44", "address": "95 MAIN STREET", "city": "CHIPMAN", "province": "NB", "country": "CA", "postalCode": "E4A1Y8", "twitter": "None", "instagram": "None", "facebook": "None", "youtube": "None", "website": "None", "summary": "None", "logo": "None", "latitude": 46.18124122173827, "longitude": -65.87234745406543}, "118828219RR0001": {"name": "CANACOLL FOUNDATION", "designationCode": "C", "categoryCode": "54", "address": "960 CARLING AVENUE", "city": "OTTAWA", "province": "ON", "country": "CA", "postalCode": "K1A0C6", "twitter": "None", "instagram": "None", "facebook": "None", "youtube": "None", "website": "None", "summary": "None", "logo": "None", "latitude": 45.39472772078597, "longitude": -75.71385141465174}, "139033807RR0001": {"name": "CANADA - INDIA EDUCATION SOCIETY", "designationCode": "C", "categoryCode": "19", "address": "2560 SHELL ROAD UNIT 1058", "city": "RICHMOND", "province": "BC", "country": "CA", "postalCode": "V6X0B8", "twitter": "None", "instagram": "None", "facebook": "None", "youtube": "None", "website": "None", "summary": "None", "logo": "None", "latitude": 49.19545589721233, "longitude": -123.10265371380541}}