{"119288918RR0798": {"name": "MOUNT NEWTON CONGREGATION OF JEHOVAH'S WITNESSES", "designationCode": "C", "categoryCode": "61", "address": "1097 DAMELART WAY", "city": "BRENTWOOD BAY", "province": "BC", "country": "CA", "postalCode": "V8M1E3", "twitter": "None", "instagram": "None", "facebook": "None", "youtube": "None", "website": "None", "summary": "None", "logo": "None", "latitude": 48.57684665982073, "longitude": -123.45410924760894}, "890583446RR0001": {"name": "MOUNT OF OLIVES SPANISH PENTECOSTAL CHURCH", "designationCode": "C", "categoryCode": "36", "address": "2 - 29 WELLINGTON ST E", "city": "BRAMPTON", "province": "ON", "country": "CA", "postalCode": "L6W1Y3", "twitter": "None", "instagram": "None", "facebook": "None", "youtube": "None", "website": "None", "summary": "None", "logo": "None", "latitude": 43.68646737765579, "longitude": -79.75639720235178}, "119288918RR1043": {"name": "MOUNT OLIVE CONGREGATION OF JEHOVAH'S WITNESSES, TORONTO, ONTARIO", "designationCode": "C", "categoryCode": "61", "address": "8-310 SILVERSTONE DRIVE", "city": "TORONTO", "province": "ON", "country": "CA", "postalCode": "M9V3J4", "twitter": "None", "instagram": "None", "facebook": "None", "youtube": "None", "website": "None", "summary": "None", "logo": "None", "latitude": 43.74898191441464, "longitude": -79.59956468959017}, "107727299RR0001": {"name": "MOUNT OLIVE EVANGELICAL FREE CHURCH", "designationCode": "C", "categoryCode": "39", "address": "PO BOX 35", "city": "THREE HILLS", "province": "AB", "country": "CA", "postalCode": "T0M2A0", "twitter": "None", "instagram": "None", "facebook": "None", "youtube": "None", "website": "None", "summary": "None", "logo": "None", "latitude": 52.38329400000001, "longitude": -114.606927}, "119047819RR0001": {"name": "MOUNT OLIVE LUTHERAN CHURCH", "designationCode": "C", "categoryCode": "32", "address": "2350-148TH ST", "city": "SURREY", "province": "BC", "country": "CA", "postalCode": "V4A4M7", "twitter": "None", "instagram": "None", "facebook": "None", "youtube": "None", "website": "None", "summary": "None", "logo": "None", "latitude": 49.044393366639724, "longitude": -122.81213210822906}, "130600216RR0001": {"name": "MOUNT OLIVE LUTHERAN CHURCH", "designationCode": "C", "categoryCode": "32", "address": "2015 4TH AVE N", "city": "REGINA", "province": "SK", "country": "CA", "postalCode": "S4R0T5", "twitter": "None", "instagram": "None", "facebook": "None", "youtube": "None", "website": "None", "summary": "None", "logo": "None", "latitude": 50.47547846624182, "longitude": -104.61010402553522}, "119047827RR0001": {"name": "MOUNT OLIVET LUTHERAN CHURCH", "designationCode": "C", "categoryCode": "32", "address": "100 BOLIVAR RD", "city": "RHODES CORNER", "province": "NS", "country": "CA", "postalCode": "B4V5N7", "twitter": "None", "instagram": "None", "facebook": "None", "youtube": "None", "website": "None", "summary": "None", "logo": "None", "latitude": 44.37196385154919, "longitude": -64.44066444263981}, "136145463RR0001": {"name": "MOUNT OLIVET LUTHERAN CHURCH", "designationCode": "C", "categoryCode": "32", "address": "1700 MOUNTAIN HIGHWAY", "city": "NORTH VANCOUVER", "province": "BC", "country": "CA", "postalCode": "V7J3S2", "twitter": "None", "instagram": "None", "facebook": "None", "youtube": "None", "website": "None", "summary": "None", "logo": "None", "latitude": 49.32433649125744, "longitude": -123.03829891447887}, "119047868RR0001": {"name": "MOUNT PATRICIA CEMETERY ASSOCIATION", "designationCode": "C", "categoryCode": "59", "address": "P O BOX 574                   STN MAIN", "city": "CORNER BROOK", "province": "NL", "country": "CA", "postalCode": "A2H6G1", "twitter": "None", "instagram": "None", "facebook": "None", "youtube": "None", "website": "None", "summary": "None", "logo": "None", "latitude": 48.95286915119611, "longitude": -57.94545019053702}, "849268255RR0001": {"name": "MOUNT PLEASANT BIBLE CHURCH", "designationCode": "C", "categoryCode": "39", "address": "PO BOX 15", "city": "WATERFORD", "province": "ON", "country": "CA", "postalCode": "N0E1Y0", "twitter": "None", "instagram": "None", "facebook": "None", "youtube": "None", "website": "None", "summary": "None", "logo": "None", "latitude": 42.89519400000006, "longitude": -80.29546099999993}, "119047884RR0001": {"name": "MOUNT PLEASANT CEMETERY COMPANY", "designationCode": "C", "categoryCode": "59", "address": "RR.1", "city": "OXFORD", "province": "NS", "country": "CA", "postalCode": "B0M1P0", "twitter": "None", "instagram": "None", "facebook": "None", "youtube": "None", "website": "None", "summary": "None", "logo": "None", "latitude": 45.73593000000005, "longitude": -63.86782999999997}, "898932421RR0001": {"name": "MOUNT PLEASANT CEMETERY COMPANY", "designationCode": "C", "categoryCode": "59", "address": "R.R. 1", "city": "GLENWOOD YARMOUTH COUNTY", "province": "NS", "country": "CA", "postalCode": "B0W1W0", "twitter": "None", "instagram": "None", "facebook": "None", "youtube": "None", "website": "None", "summary": "None", "logo": "None", "latitude": 43.81449000000005, "longitude": -65.90226949999993}, "107745598RR0001": {"name": "MOUNT PLEASANT CHILD CARE SOCIETY", "designationCode": "C", "categoryCode": "20", "address": "960 E. 7TH AVE", "city": "VANCOUVER", "province": "BC", "country": "CA", "postalCode": "V5T1P6", "twitter": "None", "instagram": "None", "facebook": "None", "youtube": "None", "website": "None", "summary": "None", "logo": "None", "latitude": 49.26426848124546, "longitude": -123.0837744446304}, "108202789RR0001": {"name": "MOUNT PLEASANT COMMUNITY ASSOCIATION", "designationCode": "C", "categoryCode": "56", "address": "602-22 AVE N W", "city": "CALGARY", "province": "AB", "country": "CA", "postalCode": "T2M1N7", "twitter": "None", "instagram": "None", "facebook": "None", "youtube": "None", "website": "None", "summary": "None", "logo": "None", "latitude": 51.07232251485942, "longitude": -114.07423402553522}, "131309726RR0001": {"name": "MOUNT PLEASANT COMMUNITY CENTER CO-OP LTD", "designationCode": "C", "categoryCode": "56", "address": "819, ROUTE 570", "city": "MOUNT PLEASANT", "province": "NB", "country": "CA", "postalCode": "E7L2Y7", "twitter": "None", "instagram": "None", "facebook": "None", "youtube": "None", "website": "None", "summary": "None", "logo": "None", "latitude": 46.417238304054855, "longitude": -67.47282887215987}, "107727380RR0001": {"name": "MOUNT PLEASANT COMMUNITY CENTRE ASSOCIATION", "designationCode": "C", "categoryCode": "55", "address": "1 KINGSWAY", "city": "VANCOUVER", "province": "BC", "country": "CA", "postalCode": "V5T3H7", "twitter": "None", "instagram": "None", "facebook": "None", "youtube": "None", "website": "None", "summary": "None", "logo": "None", "latitude": 49.26401856370816, "longitude": -123.10044685841676}, "119288918RR0016": {"name": "MOUNT PLEASANT CONGREGATION OF JEHOVAH'S WITNESSES", "designationCode": "C", "categoryCode": "61", "address": "1015 WEST 8TH AVENUE", "city": "VANCOUVER", "province": "BC", "country": "CA", "postalCode": "V6H1C3", "twitter": "None", "instagram": "None", "facebook": "None", "youtube": "None", "website": "None", "summary": "None", "logo": "None", "latitude": 49.26435749321934, "longitude": -123.12705108090483}, "130168602RR0001": {"name": "MOUNT PLEASANT FAMILY CENTRE SOCIETY", "designationCode": "C", "categoryCode": "09", "address": "2910 ST. GEORGE STREET", "city": "VANCOUVER", "province": "BC", "country": "CA", "postalCode": "V5T4L9", "twitter": "None", "instagram": "None", "facebook": "None", "youtube": "None", "website": "None", "summary": "None", "logo": "None", "latitude": 49.258729694559406, "longitude": -123.09298997975053}, "807420385RR0001": {"name": "MOUNT PLEASANT ISLAMIC CENTER", "designationCode": "C", "categoryCode": "60", "address": "160 SALVATION RD", "city": "BRAMPTON", "province": "ON", "country": "CA", "postalCode": "L7A0W7", "twitter": "None", "instagram": "None", "facebook": "None", "youtube": "None", "website": "None", "summary": "None", "logo": "None", "latitude": 43.67678161198, "longitude": -79.8193806170003}, "119047892RR0001": {"name": "MOUNT PLEASANT MISSIONARY CHURCH", "designationCode": "C", "categoryCode": "39", "address": "634199 ROAD 63                RR 2", "city": "SINGHAMPTON", "province": "ON", "country": "CA", "postalCode": "N0C1M0", "twitter": "None", "instagram": "None", "facebook": "None", "youtube": "None", "website": "None", "summary": "None", "logo": "None", "latitude": 44.34645634628072, "longitude": -80.30183447523007}, "887554665RR0001": {"name": "MOUNT PLEASANT PARENT ADVISORY ASSOCIATION", "designationCode": "C", "categoryCode": "21", "address": "10541 60A AVE NW", "city": "EDMONTON", "province": "AB", "country": "CA", "postalCode": "T6H1K4", "twitter": "None", "instagram": "None", "facebook": "None", "youtube": "None", "website": "None", "summary": "None", "logo": "None", "latitude": 53.4962744689831, "longitude": -113.5036305}, "119047900RR0001": {"name": "MOUNT PLEASANT PRESBYTERIAN CHURCH", "designationCode": "C", "categoryCode": "37", "address": "715 MOUNT PLEASANT ROAD", "city": "MOUNT PLEASANT", "province": "ON", "country": "CA", "postalCode": "N0E1K0", "twitter": "None", "instagram": "None", "facebook": "None", "youtube": "None", "website": "None", "summary": "None", "logo": "None", "latitude": 34.792019352217594, "longitude": -89.45032835760117}, "107727430RR0001": {"name": "MOUNT PLEASANT ROAD BAPTIST CHURCH", "designationCode": "C", "categoryCode": "31", "address": "527 MOUNT PLEASANT ROAD", "city": "TORONTO", "province": "ON", "country": "CA", "postalCode": "M4S2M4", "twitter": "None", "instagram": "None", "facebook": "None", "youtube": "None", "website": "None", "summary": "None", "logo": "None", "latitude": 43.70218006134222, "longitude": -79.38766004452091}, "107727455RR0001": {"name": "MOUNT PLEASANT UNITED BAPTIST CHURCH", "designationCode": "C", "categoryCode": "31", "address": "549 ROUTE 570", "city": "MOUNT PLEASANT", "province": "NB", "country": "CA", "postalCode": "E7L3T7", "twitter": "None", "instagram": "None", "facebook": "None", "youtube": "None", "website": "None", "summary": "None", "logo": "None", "latitude": 46.39185982590437, "longitude": -67.47414631431172}, "119047926RR0001": {"name": "MOUNT PLEASANT UNITED CHURCH", "designationCode": "C", "categoryCode": "44", "address": "669 MT. PLEASANT              P.O. BOX 84", "city": "MOUNT PLEASANT", "province": "ON", "country": "CA", "postalCode": "N0E1K0", "twitter": "None", "instagram": "None", "facebook": "None", "youtube": "None", "website": "None", "summary": "None", "logo": "None", "latitude": 34.79182847739447, "longitude": -89.45028026133974}, "894742626RR0001": {"name": "MOUNT REFUGE SPIRITUAL CHURCH NATIONAL EVANGELICAL SPIRITUAL BAPTIST FAITH INCORPORATED", "designationCode": "C", "categoryCode": "39", "address": "1341 WESTON RD.", "city": "TORONTO", "province": "ON", "country": "CA", "postalCode": "M6N3S3", "twitter": "None", "instagram": "None", "facebook": "None", "youtube": "None", "website": "None", "summary": "None", "logo": "None", "latitude": 43.69025028310915, "longitude": -79.49835865500036}, "890023062RR0001": {"name": "MOUNT ROYAL CHORAL ASSOCIATION OF CALGARY", "designationCode": "C", "categoryCode": "22", "address": "4825 MOUNT ROYAL GATE SW", "city": "CALGARY", "province": "AB", "country": "CA", "postalCode": "T3E6K6", "twitter": "None", "instagram": "None", "facebook": "None", "youtube": "None", "website": "None", "summary": "None", "logo": "None", "latitude": 51.01023541326677, "longitude": -114.13256418140095}, "119047975RR0001": {"name": "MOUNT ROYAL MENNONITE CHURCH", "designationCode": "C", "categoryCode": "34", "address": "610 AVENUE O NO", "city": "SASKATOON", "province": "SK", "country": "CA", "postalCode": "S7L2V3", "twitter": "None", "instagram": "None", "facebook": "None", "youtube": "None", "website": "None", "summary": "None", "logo": "None", "latitude": 52.136505, "longitude": -106.69271575780508}, "119030666RR0011": {"name": "MOUNT ROYAL SEVENTH-DAY ADVENTIST CHURCH", "designationCode": "C", "categoryCode": "41", "address": "1004 VICTORIA AVENUE", "city": "SASKATOON", "province": "SK", "country": "CA", "postalCode": "S7N0Z8", "twitter": "None", "instagram": "None", "facebook": "None", "youtube": "None", "website": "None", "summary": "None", "logo": "None", "latitude": 52.115409, "longitude": -106.66240826773014}, "107727539RR0001": {"name": "MOUNT ROYAL UNITED CHURCH", "designationCode": "C", "categoryCode": "44", "address": "1800 GRAHAM BLVD", "city": "TOWN OF MOUNT ROYAL", "province": "QC", "country": "CA", "postalCode": "H3R1G9", "twitter": "None", "instagram": "None", "facebook": "None", "youtube": "None", "website": "None", "summary": "None", "logo": "None", "latitude": 45.51454337050622, "longitude": -73.64573261988583}, "119047991RR0001": {"name": "MOUNT ROYAL UNITED CHURCH", "designationCode": "C", "categoryCode": "44", "address": "106 MOUNT ROYAL BLVD", "city": "MONCTON", "province": "NB", "country": "CA", "postalCode": "E1E2V2", "twitter": "None", "instagram": "None", "facebook": "None", "youtube": "None", "website": "None", "summary": "None", "logo": "None", "latitude": 46.07992260476662, "longitude": -64.80578626911512}, "140621103RR0001": {"name": "MOUNT ROYAL UNIVERSITY FOUNDATION", "designationCode": "A", "categoryCode": "21", "address": "4825 MOUNT ROYAL GATE SW", "city": "CALGARY", "province": "AB", "country": "CA", "postalCode": "T3E6K6", "twitter": "None", "instagram": "None", "facebook": "None", "youtube": "None", "website": "None", "summary": "None", "logo": "None", "latitude": 51.01023541326677, "longitude": -114.13256418140095}, "119048015RR0001": {"name": "MOUNT ROYAL-EMMANUEL UNITED CHURCH", "designationCode": "C", "categoryCode": "44", "address": "521 VANCOUVER AVENUE N.", "city": "SASKATOON", "province": "SK", "country": "CA", "postalCode": "S7L4J8", "twitter": "None", "instagram": "None", "facebook": "None", "youtube": "None", "website": "None", "summary": "None", "logo": "None", "latitude": 52.13638496032652, "longitude": -106.71335873997322}, "119048049RR0001": {"name": "MOUNT SAINT VINCENT UNIVERSITY", "designationCode": "C", "categoryCode": "20", "address": "166 BEDFORD HIGHWAY", "city": "HALIFAX", "province": "NS", "country": "CA", "postalCode": "B3M2J6", "twitter": "None", "instagram": "None", "facebook": "None", "youtube": "None", "website": "None", "summary": "None", "logo": "None", "latitude": 44.67225905697601, "longitude": -63.64376071519122}, "893404269RR0001": {"name": "MOUNT SALEM CHRISTIAN SCHOOL", "designationCode": "C", "categoryCode": "20", "address": "6576 SPRINFIELD ROAD          RR 6", "city": "AYLMER", "province": "ON", "country": "CA", "postalCode": "N5H2R5", "twitter": "None", "instagram": "None", "facebook": "None", "youtube": "None", "website": "None", "summary": "None", "logo": "None", "latitude": 42.70947377534771, "longitude": -80.93426460891894}, "893468777RR0001": {"name": "MOUNT SALEM EVANGELICAL MENNONITE CHURCH", "designationCode": "C", "categoryCode": "34", "address": "6576 SPRINGFIELD ROAD", "city": "AYLMER", "province": "ON", "country": "CA", "postalCode": "N5H2R5", "twitter": "None", "instagram": "None", "facebook": "None", "youtube": "None", "website": "None", "summary": "None", "logo": "None", "latitude": 42.70947377534771, "longitude": -80.93426460891894}, "107010555RR0001": {"name": "MOUNT SEYMOUR UNITED CHURCH", "designationCode": "C", "categoryCode": "44", "address": "1200 PARKGATE AVE", "city": "NORTH VANCOUVER", "province": "BC", "country": "CA", "postalCode": "V7H2X9", "twitter": "None", "instagram": "None", "facebook": "None", "youtube": "None", "website": "None", "summary": "None", "logo": "None", "latitude": 49.317156858733895, "longitude": -122.97373502296774}, "107491383RR0001": {"name": "MOUNT SINAI HOSPITAL", "designationCode": "C", "categoryCode": "10", "address": "4150 RUE SAINTE-CATHERINE O   BUREAU 600", "city": "WESTMOUNT", "province": "QC", "country": "CA", "postalCode": "H3Z2Y5", "twitter": "None", "instagram": "None", "facebook": "None", "youtube": "None", "website": "None", "summary": "None", "logo": "None", "latitude": 45.48667562946514, "longitude": -73.58731726170022}, "889295242RR0001": {"name": "MOUNT SINAI HOSPITAL DEPARTMENT OF MEDICINE RESEARCH FUND", "designationCode": "C", "categoryCode": "11", "address": "600 UNIVERSITY AVENUE         SUITE 427", "city": "TORONTO", "province": "ON", "country": "CA", "postalCode": "M5G1X5", "twitter": "None", "instagram": "None", "facebook": "None", "youtube": "None", "website": "None", "summary": "None", "logo": "None", "latitude": 43.65768996168283, "longitude": -79.38972665840456}, "119048072RR0001": {"name": "MOUNT SINAI HOSPITAL DEPARTMENT OF OBSTETRICS AND GYNAECOLOGY RESEARCH FUND", "designationCode": "C", "categoryCode": "11", "address": "600 UNIVERSITY AVE, 19-111D", "city": "TORONTO", "province": "ON", "country": "CA", "postalCode": "M5G1X5", "twitter": "None", "instagram": "None", "facebook": "None", "youtube": "None", "website": "None", "summary": "None", "logo": "None", "latitude": 43.65768996168283, "longitude": -79.38972665840456}, "119048098RR0001": {"name": "MOUNT SINAI HOSPITAL EMPLOYEES' CHARITY TRUST", "designationCode": "A", "categoryCode": "75", "address": "600 UNIVERSITY AVE", "city": "TORONTO", "province": "ON", "country": "CA", "postalCode": "M5G1X5", "twitter": "None", "instagram": "None", "facebook": "None", "youtube": "None", "website": "None", "summary": "None", "logo": "None", "latitude": 43.65768996168283, "longitude": -79.38972665840456}, "898845235RR0001": {"name": "MOUNT SINAI HOSPITAL OTOLARYNGOLOGY RESEARCH FUND", "designationCode": "C", "categoryCode": "11", "address": "SUITE 401                     600 UNIVERSITY AVENUE", "city": "TORONTO", "province": "ON", "country": "CA", "postalCode": "M5G1X5", "twitter": "None", "instagram": "None", "facebook": "None", "youtube": "None", "website": "None", "summary": "None", "logo": "None", "latitude": 43.65768996168283, "longitude": -79.38972665840456}, "107727794RR0001": {"name": "MOUNT ST. JOSEPH OF CHATHAM, N.B.", "designationCode": "C", "categoryCode": "01", "address": "51 LOBBAN AVE", "city": "MIRAMICHI", "province": "NB", "country": "CA", "postalCode": "E1N2W8", "twitter": "None", "instagram": "None", "facebook": "None", "youtube": "None", "website": "None", "summary": "None", "logo": "None", "latitude": 47.02476852429448, "longitude": -65.46946067955462}, "119048163RR0001": {"name": "MOUNT STEWART-MORELL-ST. PETER'S BAY PASTORAL CHARGE", "designationCode": "C", "categoryCode": "44", "address": "PO BOX 67", "city": "MOUNT STEWART", "province": "PE", "country": "CA", "postalCode": "C0A1T0", "twitter": "None", "instagram": "None", "facebook": "None", "youtube": "None", "website": "None", "summary": "None", "logo": "None", "latitude": 46.33696289701434, "longitude": -62.85434065264637}, "891452146RR0001": {"name": "MOUNT THOM CEMETERY SOCIETY", "designationCode": "C", "categoryCode": "59", "address": "840 MOUNT THOM ROAD", "city": "UPPER MOUNT THOM", "province": "NS", "country": "CA", "postalCode": "B0K1P0", "twitter": "None", "instagram": "None", "facebook": "None", "youtube": "None", "website": "None", "summary": "None", "logo": "None", "latitude": 45.51030893029059, "longitude": -62.990190656587814}, "889211371RR0001": {"name": "MOUNT TOLMIE CONSERVANCY ASSOCIATION", "designationCode": "C", "categoryCode": "52", "address": "3503 CAMCREST PLACE", "city": "VICTORIA", "province": "BC", "country": "CA", "postalCode": "V8P4V6", "twitter": "None", "instagram": "None", "facebook": "None", "youtube": "None", "website": "None", "summary": "None", "logo": "None", "latitude": 48.45581252928615, "longitude": -123.3232324228174}, "890236193RR0001": {"name": "MOUNT VIEW CEMETERY", "designationCode": "C", "categoryCode": "59", "address": "BOX 7 GROUP 15 RR 1", "city": "ROBLIN", "province": "MB", "country": "CA", "postalCode": "R0L1P0", "twitter": "None", "instagram": "None", "facebook": "None", "youtube": "None", "website": "None", "summary": "None", "logo": "None", "latitude": 51.23047575861288, "longitude": -101.35841908877855}, "898577861RR0001": {"name": "MOUNT VIEW SPECIAL RIDING ASSOCIATION", "designationCode": "C", "categoryCode": "56", "address": "BOX 17, SITE 6, RR 1", "city": "SUNDRE", "province": "AB", "country": "CA", "postalCode": "T0M1X0", "twitter": "None", "instagram": "None", "facebook": "None", "youtube": "None", "website": "None", "summary": "None", "logo": "None", "latitude": 51.797934834356965, "longitude": -114.64451612387435}, "119048270RR0001": {"name": "MOUNT WASHINGTON SKI PATROL ASSOCIATION", "designationCode": "C", "categoryCode": "09", "address": "PO BOX 3131", "city": "COURTENAY", "province": "BC", "country": "CA", "postalCode": "V9N5N4", "twitter": "None", "instagram": "None", "facebook": "None", "youtube": "None", "website": "None", "summary": "None", "logo": "None", "latitude": 49.68669300000006, "longitude": -124.99317349999993}, "107727893RR0001": {"name": "MOUNT ZION APOSTOLIC CHURCH OF CANADA", "designationCode": "C", "categoryCode": "39", "address": "6810 PROFESSIONAL COURT", "city": "MISSISSAUGA", "province": "ON", "country": "CA", "postalCode": "L4V1L6", "twitter": "None", "instagram": "None", "facebook": "None", "youtube": "None", "website": "None", "summary": "None", "logo": "None", "latitude": 43.70723474213761, "longitude": -79.63027465214348}, "857679351RR0001": {"name": "MOUNT ZION APOSTOLIC CHURCH OF CANADA", "designationCode": "C", "categoryCode": "39", "address": "30 PEMICAN CRT", "city": "NORTH YORK", "province": "ON", "country": "CA", "postalCode": "M9M2Z3", "twitter": "None", "instagram": "None", "facebook": "None", "youtube": "None", "website": "None", "summary": "None", "logo": "None", "latitude": 43.74963394702498, "longitude": -79.53162096047073}, "130348923RR0001": {"name": "MOUNT ZION ASSOCIATE REFORMED PRESBYTERIAN CHURCH INC", "designationCode": "C", "categoryCode": "39", "address": "155 CHARLES A. LUTES", "city": "MONCTON", "province": "NB", "country": "CA", "postalCode": "E1G2R8", "twitter": "None", "instagram": "None", "facebook": "None", "youtube": "None", "website": "None", "summary": "None", "logo": "None", "latitude": 46.1283124585375, "longitude": -64.88975484987573}, "894364363RR0001": {"name": "MOUNT ZION CHRISTIAN FELLOWSHIP", "designationCode": "C", "categoryCode": "39", "address": "904 OLYMPIA CRES SE", "city": "CALGARY", "province": "AB", "country": "CA", "postalCode": "T2C1G7", "twitter": "None", "instagram": "None", "facebook": "None", "youtube": "None", "website": "None", "summary": "None", "logo": "None", "latitude": 50.98059548932418, "longitude": -114.01145086372554}, "866747769RR0001": {"name": "MOUNT ZION COMMUNITY CHURCH INC.", "designationCode": "C", "categoryCode": "39", "address": "23 BRITANNIA AVE", "city": "WELLAND", "province": "ON", "country": "CA", "postalCode": "L3C7H4", "twitter": "None", "instagram": "None", "facebook": "None", "youtube": "None", "website": "None", "summary": "None", "logo": "None", "latitude": 43.02336600000001, "longitude": -79.24304811368208}, "119048312RR0001": {"name": "MOUNT ZION DELIVERANCE CENTRE", "designationCode": "C", "categoryCode": "39", "address": "P.O. BOX 168", "city": "LAKESIDE", "province": "NS", "country": "CA", "postalCode": "B3T1M6", "twitter": "None", "instagram": "None", "facebook": "None", "youtube": "None", "website": "None", "summary": "None", "logo": "None", "latitude": 44.638128819658114, "longitude": -63.70207997038875}, "107727927RR0001": {"name": "MOUNT ZION EVANGELICAL LUTHERAN CHURCH OF WATERLOO", "designationCode": "C", "categoryCode": "32", "address": "29 WESTMOUNT ROAD S", "city": "WATERLOO", "province": "ON", "country": "CA", "postalCode": "N2L2K4", "twitter": "None", "instagram": "None", "facebook": "None", "youtube": "None", "website": "None", "summary": "None", "logo": "None", "latitude": 43.45780321062976, "longitude": -80.53562998796787}, "107797383RR0033": {"name": "MOUNT ZION FILIPINO SEVENTH-DAY ADVENTIST CHURCH", "designationCode": "C", "categoryCode": "41", "address": "140 SAINT REGIS CRESCENT S", "city": "DOWNSVIEW", "province": "ON", "country": "CA", "postalCode": "M3J1Y8", "twitter": "None", "instagram": "None", "facebook": "None", "youtube": "None", "website": "None", "summary": "None", "logo": "None", "latitude": 43.75505313240798, "longitude": -79.48173645504639}, "873779961RR0001": {"name": "MOUNT ZION HOUSE OF PRAISE", "designationCode": "C", "categoryCode": "39", "address": "PO BOX 51033 UNIT 379         25 PEEL CENTRE DR", "city": "BRAMPTON", "province": "ON", "country": "CA", "postalCode": "L6T5M2", "twitter": "None", "instagram": "None", "facebook": "None", "youtube": "None", "website": "None", "summary": "None", "logo": "None", "latitude": 43.71731362994847, "longitude": -79.72348416328963}, "107727943RR0001": {"name": "MOUNT ZION LUTHERAN CHURCH", "designationCode": "C", "categoryCode": "32", "address": "BOX 874", "city": "SMITHERS", "province": "BC", "country": "CA", "postalCode": "V0J2N0", "twitter": "None", "instagram": "None", "facebook": "None", "youtube": "None", "website": "None", "summary": "None", "logo": "None", "latitude": 54.78190002943043, "longitude": -127.16272999999995}, "129942298RR0001": {"name": "MOUNT ZION LUTHERAN CHURCH", "designationCode": "C", "categoryCode": "32", "address": "11533 135 ST", "city": "EDMONTON", "province": "AB", "country": "CA", "postalCode": "T5M1K9", "twitter": "None", "instagram": "None", "facebook": "None", "youtube": "None", "website": "None", "summary": "None", "logo": "None", "latitude": 53.56651416180969, "longitude": -113.55458576348923}, "107727950RR0001": {"name": "MOUNT ZION LUTHERAN CHURCH OF NEW WESTMINSTER, B.C.", "designationCode": "C", "categoryCode": "32", "address": "930 CUMBERLAND STREET", "city": "NEW WESTMINSTER", "province": "BC", "country": "CA", "postalCode": "V3L3H4", "twitter": "None", "instagram": "None", "facebook": "None", "youtube": "None", "website": "None", "summary": "None", "logo": "None", "latitude": 49.22665290835151, "longitude": -122.9114981394775}, "107727976RR0001": {"name": "MOUNT ZION PENTECOSTAL CHURCH", "designationCode": "C", "categoryCode": "36", "address": "RR 2, P.O. BOX 404", "city": "GILMOUR", "province": "ON", "country": "CA", "postalCode": "K0L1W0", "twitter": "None", "instagram": "None", "facebook": "None", "youtube": "None", "website": "None", "summary": "None", "logo": "None", "latitude": 44.807654091570335, "longitude": -78.0556476667462}, "133194571RR0001": {"name": "MOUNT ZION PRESBYTERIAN CHURCH,", "designationCode": "C", "categoryCode": "37", "address": "P.O.BOX 1148", "city": "RIDGETOWN", "province": "ON", "country": "CA", "postalCode": "N0P2C0", "twitter": "None", "instagram": "None", "facebook": "None", "youtube": "None", "website": "None", "summary": "None", "logo": "None", "latitude": 42.42687003390246, "longitude": -81.90498998889144}, "107728008RR0001": {"name": "MOUNT ZION UNITED CHURCH", "designationCode": "C", "categoryCode": "44", "address": "34 BARRY STREET", "city": "PEMBROKE", "province": "ON", "country": "CA", "postalCode": "K8A7L5", "twitter": "None", "instagram": "None", "facebook": "None", "youtube": "None", "website": "None", "summary": "None", "logo": "None", "latitude": 45.846828729989916, "longitude": -77.19638671357262}, "119048411RR0001": {"name": "MOUNT ZION UNITED CHURCH", "designationCode": "C", "categoryCode": "44", "address": "4380 SIDELINE #4              R.R.#1", "city": "ASHBURN", "province": "ON", "country": "CA", "postalCode": "L0B1A0", "twitter": "None", "instagram": "None", "facebook": "None", "youtube": "None", "website": "None", "summary": "None", "logo": "None", "latitude": 43.98837030332413, "longitude": -79.06193218593535}, "119048429RR0001": {"name": "MOUNT ZION UNITED CHURCH", "designationCode": "C", "categoryCode": "44", "address": "PO BOX 363", "city": "SIMCOE", "province": "ON", "country": "CA", "postalCode": "N3Y4K7", "twitter": "None", "instagram": "None", "facebook": "None", "youtube": "None", "website": "None", "summary": "None", "logo": "None", "latitude": 42.83590200000006, "longitude": -80.30531149999993}, "119048437RR0001": {"name": "MOUNT ZION UNITED CHURCH", "designationCode": "C", "categoryCode": "44", "address": "471 RIDGEWOOD CRES", "city": "LONDON", "province": "ON", "country": "CA", "postalCode": "N6J3H7", "twitter": "None", "instagram": "None", "facebook": "None", "youtube": "None", "website": "None", "summary": "None", "logo": "None", "latitude": 42.96591501462922, "longitude": -81.28256597939819}, "107727919RR0001": {"name": "MOUNT ZION--CHURCH OF THE FIRSTBORN", "designationCode": "C", "categoryCode": "39", "address": "715 ST LAURENT BLVD", "city": "OTTAWA", "province": "ON", "country": "CA", "postalCode": "K1K3A6", "twitter": "None", "instagram": "None", "facebook": "None", "youtube": "None", "website": "None", "summary": "None", "logo": "None", "latitude": 45.43717004330884, "longitude": -75.64451241072796}, "119048213RR0001": {"name": "MOUNT-ST. MARY'S SUPPORT FUND", "designationCode": "A", "categoryCode": "23", "address": "90 ONTARIO AVENUE", "city": "SAULT STE MARIE", "province": "ON", "country": "CA", "postalCode": "P6B6G7", "twitter": "None", "instagram": "None", "facebook": "None", "youtube": "None", "website": "None", "summary": "None", "logo": "None", "latitude": 46.51229352712175, "longitude": -84.31362377699232}, "131454993RR0001": {"name": "MOUNTAIN - SOUTH MOUNTAIN CHURCH OF THE UNITED CHURCH OF CANADA", "designationCode": "C", "categoryCode": "44", "address": "P O BOX 165", "city": "SOUTH MOUNTAIN", "province": "ON", "country": "CA", "postalCode": "K0E1W0", "twitter": "None", "instagram": "None", "facebook": "None", "youtube": "None", "website": "None", "summary": "None", "logo": "None", "latitude": 44.8427488126301, "longitude": -75.54693386273418}, "119030666RR0018": {"name": "MOUNTAIN ANDREWS SEVENTH-DAY ADVENTIST CHURCH", "designationCode": "C", "categoryCode": "41", "address": "1004 VICTORIA AVENUE", "city": "SASKATOON", "province": "SK", "country": "CA", "postalCode": "S7N0Z8", "twitter": "None", "instagram": "None", "facebook": "None", "youtube": "None", "website": "None", "summary": "None", "logo": "None", "latitude": 52.115409, "longitude": -106.66240826773014}, "890773120RR0001": {"name": "MOUNTAIN BAPTIST CHURCH OF CANMORE ALBERTA", "designationCode": "C", "categoryCode": "39", "address": "PO BOX 8227", "city": "CANMORE", "province": "AB", "country": "CA", "postalCode": "T1W2T9", "twitter": "None", "instagram": "None", "facebook": "None", "youtube": "None", "website": "None", "summary": "None", "logo": "None", "latitude": 51.08960400000005, "longitude": -115.36085149999994}, "897527982RR0001": {"name": "MOUNTAIN BIBLE CHAPEL", "designationCode": "C", "categoryCode": "39", "address": "BOX 398", "city": "ROCKY MOUNTAIN HOUSE", "province": "AB", "country": "CA", "postalCode": "T4T1L8", "twitter": "None", "instagram": "None", "facebook": "None", "youtube": "None", "website": "None", "summary": "None", "logo": "None", "latitude": 52.36307700000006, "longitude": -114.90464599999993}, "895894467RR0001": {"name": "MOUNTAIN BLUEBIRD TRAILS CONSERVATION SOCIETY", "designationCode": "C", "categoryCode": "54", "address": "2123-22 ST.", "city": "COALDALE", "province": "AB", "country": "CA", "postalCode": "T1M1H6", "twitter": "None", "instagram": "None", "facebook": "None", "youtube": "None", "website": "None", "summary": "None", "logo": "None", "latitude": 49.72408200000001, "longitude": -112.62823796710718}, "119046985RR0001": {"name": "MOUNTAIN CHAPEL", "designationCode": "C", "categoryCode": "36", "address": "BOX 92", "city": "MCBRIDE", "province": "BC", "country": "CA", "postalCode": "V0J2E0", "twitter": "None", "instagram": "None", "facebook": "None", "youtube": "None", "website": "None", "summary": "None", "logo": "None", "latitude": 54.383929956832056, "longitude": -128.54401829340847}, "106788847RR0001": {"name": "MOUNTAIN CHRISTIAN SCHOOL", "designationCode": "C", "categoryCode": "20", "address": "9700 5 ST.", "city": "DAWSON CREEK", "province": "BC", "country": "CA", "postalCode": "V1G3L4", "twitter": "None", "instagram": "None", "facebook": "None", "youtube": "None", "website": "None", "summary": "None", "logo": "None", "latitude": 55.76486400000002, "longitude": -120.21917516005027}, "107726275RR0001": {"name": "MOUNTAIN CHURCH OF THE NAZARENE", "designationCode": "C", "categoryCode": "39", "address": "910 UPPER SHERMAN AVE", "city": "HAMILTON", "province": "ON", "country": "CA", "postalCode": "L8V3N3", "twitter": "None", "instagram": "None", "facebook": "None", "youtube": "None", "website": "None", "summary": "None", "logo": "None", "latitude": 43.219206103814344, "longitude": -79.85293490305232}, "118853910RR0001": {"name": "MOUNTAIN GROVE CHRISTADELPHIAN CHAPEL", "designationCode": "C", "categoryCode": "39", "address": "1525 MOUNTAIN GROVE AVENUE", "city": "BURLINGTON", "province": "ON", "country": "CA", "postalCode": "L7P2H4", "twitter": "None", "instagram": "None", "facebook": "None", "youtube": "None", "website": "None", "summary": "None", "logo": "None", "latitude": 43.35831024981233, "longitude": -79.82730614207418}, "895160448RR0001": {"name": "MOUNTAIN HOMES MINISTRIES (WESTERN) FOUNDATION", "designationCode": "C", "categoryCode": "09", "address": "1023 BORDEN AVENUE", "city": "KELOWNA", "province": "BC", "country": "CA", "postalCode": "V1Y6A7", "twitter": "None", "instagram": "None", "facebook": "None", "youtube": "None", "website": "None", "summary": "None", "logo": "None", "latitude": 49.88115570824456, "longitude": -119.47922110134752}, "131931560RR0001": {"name": "MOUNTAIN MEDICAL SERVICES SOCIETY", "designationCode": "C", "categoryCode": "11", "address": "BOX 658                       101-1865 DILWORTH DR", "city": "KELOWNA", "province": "BC", "country": "CA", "postalCode": "V1Y9T1", "twitter": "None", "instagram": "None", "facebook": "None", "youtube": "None", "website": "None", "summary": "None", "logo": "None", "latitude": 49.8804249679912, "longitude": -119.43736322061879}, "890265192RR0001": {"name": "MOUNTAIN MISSION UNITED PENTECOSTAL CHURCH", "designationCode": "C", "categoryCode": "39", "address": "3192 MCNALLY RD  RR2", "city": "BERWICK", "province": "NS", "country": "CA", "postalCode": "B0P1E0", "twitter": "None", "instagram": "None", "facebook": "None", "youtube": "None", "website": "None", "summary": "None", "logo": "None", "latitude": 45.12383675434263, "longitude": -64.83034477378968}, "869704130RR0001": {"name": "MOUNTAIN OF FIRE AND MIRACLES MINISTRIES", "designationCode": "C", "categoryCode": "39", "address": "230 REXDALE BLVD", "city": "TORONTO", "province": "ON", "country": "CA", "postalCode": "M9W1R2", "twitter": "None", "instagram": "None", "facebook": "None", "youtube": "None", "website": "None", "summary": "None", "logo": "None", "latitude": 43.71283910744968, "longitude": -79.57663467303375}, "884819707RR0001": {"name": "MOUNTAIN OF FIRE AND MIRACLES MINISTRIES (A CHRISTIAN ORGANIZATION)", "designationCode": "C", "categoryCode": "39", "address": "8103-48 AVENUE NW", "city": "CALGARY", "province": "AB", "country": "CA", "postalCode": "T3B2A8", "twitter": "None", "instagram": "None", "facebook": "None", "youtube": "None", "website": "None", "summary": "None", "logo": "None", "latitude": 51.09582150678067, "longitude": -114.202872}, "119057255RR0001": {"name": "MOUNTAIN PARK CHURCH", "designationCode": "C", "categoryCode": "34", "address": "6970 MOUNTAIN ROAD", "city": "NIAGARA FALLS", "province": "ON", "country": "CA", "postalCode": "L2J3B5", "twitter": "None", "instagram": "None", "facebook": "None", "youtube": "None", "website": "None", "summary": "None", "logo": "None", "latitude": 43.13702900522279, "longitude": -79.11435352412158}, "869395723RR0001": {"name": "MOUNTAIN PARK COMMUNITY CHURCH", "designationCode": "C", "categoryCode": "34", "address": "36228 LOWER SUMAS MTN RD", "city": "ABBOTSFORD", "province": "BC", "country": "CA", "postalCode": "V3G2J3", "twitter": "None", "instagram": "None", "facebook": "None", "youtube": "None", "website": "None", "summary": "None", "logo": "None", "latitude": 49.05062323284677, "longitude": -122.22110266469521}, "130061443RR0001": {"name": "MOUNTAIN PLAINS COMMUNITY SERVICES SOCIETY OF THE NORTH", "designationCode": "C", "categoryCode": "09", "address": "10109-97TH AVENUE             #205", "city": "GRANDE PRAIRIE", "province": "AB", "country": "CA", "postalCode": "T8V0N5", "twitter": "None", "instagram": "None", "facebook": "None", "youtube": "None", "website": "None", "summary": "None", "logo": "None", "latitude": 55.167916506780664, "longitude": -118.798542}, "139725428RR0001": {"name": "MOUNTAIN PLAINS FAMILY SERVICE SOCIETY OF EDMONTON", "designationCode": "C", "categoryCode": "09", "address": "11133 124 ST", "city": "EDMONTON", "province": "AB", "country": "CA", "postalCode": "T5M0J7", "twitter": "None", "instagram": "None", "facebook": "None", "youtube": "None", "website": "None", "summary": "None", "logo": "None", "latitude": 53.55987294754459, "longitude": -113.53590626348922}, "890513195RR0001": {"name": "MOUNTAIN ROAD MINISTRIES SOCIETY", "designationCode": "C", "categoryCode": "49", "address": "P. O. BOX 699", "city": "HOPE", "province": "BC", "country": "CA", "postalCode": "V0X1L0", "twitter": "None", "instagram": "None", "facebook": "None", "youtube": "None", "website": "None", "summary": "None", "logo": "None", "latitude": 49.37911800000006, "longitude": -121.44296149999994}, "889862249RR0001": {"name": "MOUNTAIN ROSE WOMEN'S SHELTER ASSOCIATION", "designationCode": "C", "categoryCode": "09", "address": "PO BOX 325", "city": "ROCK MOUNTAIN HOUSE", "province": "AB", "country": "CA", "postalCode": "T4T1A3", "twitter": "None", "instagram": "None", "facebook": "None", "youtube": "None", "website": "None", "summary": "None", "logo": "None", "latitude": 52.37758500000005, "longitude": -114.93030049999993}, "887208999RR0001": {"name": "MOUNTAIN SCHOOL DIVISION MUSIC FESTIVAL", "designationCode": "C", "categoryCode": "22", "address": "BOX 413 202-2ND STREET", "city": "SOMERSET", "province": "MB", "country": "CA", "postalCode": "R0G2L0", "twitter": "None", "instagram": "None", "facebook": "None", "youtube": "None", "website": "None", "summary": "None", "logo": "None", "latitude": 49.41317361869787, "longitude": -98.66035405125731}, "869540120RR0001": {"name": "MOUNTAIN SPRUCE COMMUNITY CENTRE SOCIETY", "designationCode": "C", "categoryCode": "56", "address": "6335 MAHOOD LAKE ROAD", "city": "LONE BUTTE", "province": "BC", "country": "CA", "postalCode": "V0K1X3", "twitter": "None", "instagram": "None", "facebook": "None", "youtube": "None", "website": "None", "summary": "None", "logo": "None", "latitude": 51.80029444497349, "longitude": -120.74660640615201}, "872855903RR0001": {"name": "MOUNTAIN STANDARD TIME PERFORMATIVE ART FESTIVAL SOCIETY", "designationCode": "C", "categoryCode": "22", "address": "212 - 223 12 AVE SW", "city": "CALGARY", "province": "AB", "country": "CA", "postalCode": "T2R0G9", "twitter": "None", "instagram": "None", "facebook": "None", "youtube": "None", "website": "None", "summary": "None", "logo": "None", "latitude": 51.04147448845882, "longitude": -114.0671642216227}, "887555860RR0001": {"name": "MOUNTAIN TERRACE MINISTRIES", "designationCode": "B", "categoryCode": "43", "address": "12760- 227 B ST.", "city": "MAPLE RIDGE", "province": "BC", "country": "CA", "postalCode": "V2X2Z4", "twitter": "None", "instagram": "None", "facebook": "None", "youtube": "None", "website": "None", "summary": "None", "logo": "None", "latitude": 49.23403874715793, "longitude": -122.59146477113528}, "869016071RR0001": {"name": "MOUNTAIN TOP HOUSE LTD", "designationCode": "C", "categoryCode": "59", "address": "4911 MAIN STREET", "city": "DORCHESTER", "province": "NB", "country": "CA", "postalCode": "E4K2Y1", "twitter": "None", "instagram": "None", "facebook": "None", "youtube": "None", "website": "None", "summary": "None", "logo": "None", "latitude": 45.90628404062739, "longitude": -64.51527032879059}, "875575136RR0001": {"name": "MOUNTAIN VIEW ACADEMY SOCIETY", "designationCode": "C", "categoryCode": "20", "address": "3915 34 ST NE", "city": "CALGARY", "province": "AB", "country": "CA", "postalCode": "T1Y6Z8", "twitter": "None", "instagram": "None", "facebook": "None", "youtube": "None", "website": "None", "summary": "None", "logo": "None", "latitude": 51.08810324562873, "longitude": -113.9855477102544}, "133668004RR0001": {"name": "MOUNTAIN VIEW ALLIANCE CHURCH", "designationCode": "C", "categoryCode": "39", "address": "7640 200 ST", "city": "LANGLEY", "province": "BC", "country": "CA", "postalCode": "V2Y1S4", "twitter": "None", "instagram": "None", "facebook": "None", "youtube": "None", "website": "None", "summary": "None", "logo": "None", "latitude": 49.140945000000016, "longitude": -122.66823050608818}, "107726481RR0001": {"name": "MOUNTAIN VIEW ALLIANCE CHURCH OF THE CHRISTIAN AND MISSIONARY ALLIANCE IN CANADA", "designationCode": "C", "categoryCode": "39", "address": "1332 N LAHAKAS BLVD", "city": "KITIMAT", "province": "BC", "country": "CA", "postalCode": "V8C2M5", "twitter": "None", "instagram": "None", "facebook": "None", "youtube": "None", "website": "None", "summary": "None", "logo": "None", "latitude": 54.065130313850254, "longitude": -128.63720527927737}, "867108102RR0001": {"name": "MOUNTAIN VIEW ASSEMBLY", "designationCode": "C", "categoryCode": "36", "address": "2701 VIEWMOUNT RD. S.", "city": "SMITHERS", "province": "BC", "country": "CA", "postalCode": "V0J2N6", "twitter": "None", "instagram": "None", "facebook": "None", "youtube": "None", "website": "None", "summary": "None", "logo": "None", "latitude": 54.78097200000006, "longitude": -127.17944899999993}, "119047124RR0001": {"name": "MOUNTAIN VIEW BAPTIST CHURCH (OF GOULAIS RIVER)", "designationCode": "C", "categoryCode": "31", "address": "195 OLD HIGHWAY 17 NORTH", "city": "GOULAIS RIVER", "province": "ON", "country": "CA", "postalCode": "P0S1E0", "twitter": "None", "instagram": "None", "facebook": "None", "youtube": "None", "website": "None", "summary": "None", "logo": "None"}, "894161785RR0001": {"name": "MOUNTAIN VIEW CEMETERY BOARD", "designationCode": "C", "categoryCode": "59", "address": "P O BOX 1981", "city": "ASSINIBOIA", "province": "SK", "country": "CA", "postalCode": "S0H0B0", "twitter": "None", "instagram": "None", "facebook": "None", "youtube": "None", "website": "None", "summary": "None", "logo": "None", "latitude": 49.63287300000006, "longitude": -105.99348049999993}}