{"886055599RR0001": {"name": "THE DYNAMIC FUND FOUNDATION INC", "designationCode": "B", "categoryCode": "53", "address": "1 ADELAIDE STREET E 21ST FLOOR", "city": "TORONTO", "province": "ON", "country": "CA", "postalCode": "M5C2V9", "twitter": "None", "instagram": "None", "facebook": "None", "youtube": "None", "website": "None", "summary": "None", "logo": "None", "latitude": 43.650488809308214, "longitude": -79.37807503774025}, "886961549RR0001": {"name": "THE DYSTONIA MEDICAL RESEARCH FOUNDATION OF ALBERTA", "designationCode": "A", "categoryCode": "13", "address": "1252 - 2330 FISH CREEK BLVD SW", "city": "CALGARY", "province": "AB", "country": "CA", "postalCode": "T2Y0L1", "twitter": "None", "instagram": "None", "facebook": "None", "youtube": "None", "website": "None", "summary": "None", "logo": "None", "latitude": 50.92147860496862, "longitude": -114.11516189503138}, "119230829RR0001": {"name": "THE E D FUND", "designationCode": "C", "categoryCode": "21", "address": "625-4211 YONGE STREET", "city": "TORONTO", "province": "ON", "country": "CA", "postalCode": "M2P2A9", "twitter": "None", "instagram": "None", "facebook": "None", "youtube": "None", "website": "None", "summary": "None", "logo": "None", "latitude": 43.748057231202, "longitude": -79.40760520422447}, "891164147RR0001": {"name": "THE E D LOTT CHRISTMAS FUND", "designationCode": "B", "categoryCode": "05", "address": "PO BOX 10085                  LCD PACIFIC CENTRE", "city": "VANCOUVER", "province": "BC", "country": "CA", "postalCode": "V7Y1B6", "twitter": "None", "instagram": "None", "facebook": "None", "youtube": "None", "website": "None", "summary": "None", "logo": "None", "latitude": 49.28299000000004, "longitude": -123.11890999999997}, "876470121RR0001": {"name": "THE E M (BETTY) SPALTON EDUCATION FUND", "designationCode": "C", "categoryCode": "21", "address": "307-8678 GREENALL AVENUE", "city": "BURNABY", "province": "BC", "country": "CA", "postalCode": "V5J3M6", "twitter": "None", "instagram": "None", "facebook": "None", "youtube": "None", "website": "None", "summary": "None", "logo": "None", "latitude": 49.20612299999999, "longitude": -123.01785995775903}, "119231645RR0001": {"name": "THE E. R. WOOD MEMORIAL SCHOLARSHIP", "designationCode": "B", "categoryCode": "25", "address": "130 KING ST.,WEST, 20TH FLOOR P.O.BOX 430,FIRST CANADIAN PL.", "city": "TORONTO", "province": "ON", "country": "CA", "postalCode": "M5X1K1", "twitter": "None", "instagram": "None", "facebook": "None", "youtube": "None", "website": "None", "summary": "None", "logo": "None"}, "119230597RR0001": {"name": "THE EAGLE RIDGE HOSPITAL FOUNDATION", "designationCode": "A", "categoryCode": "13", "address": "475 GUILDFORD WAY", "city": "PORT MOODY", "province": "BC", "country": "CA", "postalCode": "V3H3W9", "twitter": "None", "instagram": "None", "facebook": "None", "youtube": "None", "website": "None", "summary": "None", "logo": "None", "latitude": 49.284089349991305, "longitude": -122.82255889967678}, "897208500RR0001": {"name": "THE EARL B. CONNELL CHARITABLE FOUNDATION", "designationCode": "B", "categoryCode": "05", "address": "6066 COUNTY ROAD 44           P.O. BOX 206", "city": "SPENCERVILLE", "province": "ON", "country": "CA", "postalCode": "K0E1X0", "twitter": "None", "instagram": "None", "facebook": "None", "youtube": "None", "website": "None", "summary": "None", "logo": "None", "latitude": 44.83841789169154, "longitude": -75.53758706739076}, "119230621RR0001": {"name": "THE EARLTOWN CEMETARY COMPANY", "designationCode": "A", "categoryCode": "59", "address": "174 WALLIE MINGO RD", "city": "TATAMAGOUCHE", "province": "NS", "country": "CA", "postalCode": "B0K1V0", "twitter": "None", "instagram": "None", "facebook": "None", "youtube": "None", "website": "None", "summary": "None", "logo": "None", "latitude": 45.696113210427285, "longitude": -63.18426245262314}, "869312207RR0001": {"name": "THE EARLVILLE RUTHERFORD CEMETERY CO.", "designationCode": "C", "categoryCode": "59", "address": "RR 4 STN MAIN", "city": "LACOMBE", "province": "AB", "country": "CA", "postalCode": "T4L2N4", "twitter": "None", "instagram": "None", "facebook": "None", "youtube": "None", "website": "None", "summary": "None", "logo": "None", "latitude": 52.463094000000055, "longitude": -113.73671149999993}, "119230639RR0001": {"name": "THE EARLY MUSIC SOCIETY OF NOVA SCOTIA", "designationCode": "C", "categoryCode": "22", "address": "5908 PINEHILL CRECENT", "city": "HALIFAX", "province": "NS", "country": "CA", "postalCode": "B3H1E5", "twitter": "None", "instagram": "None", "facebook": "None", "youtube": "None", "website": "None", "summary": "None", "logo": "None", "latitude": 44.62751599526815, "longitude": -63.579203445178635}, "892200528RR0001": {"name": "THE EARTH RANGERS FOUNDATION", "designationCode": "C", "categoryCode": "53", "address": "9520 PINE VALLEY DR", "city": "WOODBRIDGE", "province": "ON", "country": "CA", "postalCode": "L4L1A6", "twitter": "None", "instagram": "None", "facebook": "None", "youtube": "None", "website": "None", "summary": "None", "logo": "None", "latitude": 43.82890038689483, "longitude": -79.58395812675248}, "802113274RR0001": {"name": "THE EAST BOLTON CEMETERY ASSOCIATION", "designationCode": "C", "categoryCode": "59", "address": "301 - 124 RUE ARCHIE-MITCHELL", "city": "SHERBROOKE", "province": "QC", "country": "CA", "postalCode": "J1M2K1", "twitter": "None", "instagram": "None", "facebook": "None", "youtube": "None", "website": "None", "summary": "None", "logo": "None", "latitude": 45.3651660313636, "longitude": -71.87495341032393}, "119230647RR0001": {"name": "THE EAST BRAINTREE COMMUNITY CHURCH", "designationCode": "C", "categoryCode": "31", "address": "P.O BOX 1", "city": "EAST BRAINTREE", "province": "MB", "country": "CA", "postalCode": "R0E0L0", "twitter": "None", "instagram": "None", "facebook": "None", "youtube": "None", "website": "None", "summary": "None", "logo": "None", "latitude": 49.62913000000003, "longitude": -95.62013999999994}, "101544351RR0001": {"name": "THE EAST END CHILD/PARENT DEVELOPMENT CENTRE OF METRO TORONTO", "designationCode": "C", "categoryCode": "09", "address": "200 WOLVERLEIGH BLVD", "city": "TORONTO", "province": "ON", "country": "CA", "postalCode": "M4C1S2", "twitter": "None", "instagram": "None", "facebook": "None", "youtube": "None", "website": "None", "summary": "None", "logo": "None", "latitude": 43.68539319458693, "longitude": -79.32234778019496}, "899489025RR0001": {"name": "THE EAST FAITH KOREAN PRESBYTERIAN CHURCH", "designationCode": "C", "categoryCode": "37", "address": "1126 INVICTA DR", "city": "OAKVILLE", "province": "ON", "country": "CA", "postalCode": "L6H6G1", "twitter": "None", "instagram": "None", "facebook": "None", "youtube": "None", "website": "None", "summary": "None", "logo": "None", "latitude": 43.47292194142772, "longitude": -79.67732824744638}, "890893845RR0001": {"name": "THE EAST HANTS HISTORICAL SOCIETY", "designationCode": "C", "categoryCode": "50", "address": "89 ETTER RD", "city": "SHUBENACADIE", "province": "NS", "country": "CA", "postalCode": "B0N2H0", "twitter": "None", "instagram": "None", "facebook": "None", "youtube": "None", "website": "None", "summary": "None", "logo": "None", "latitude": 45.10727749610393, "longitude": -63.406380441716195}, "108080243RR0001": {"name": "THE EAST TORONTO EVANGELICAL LUTHERAN LATVIAN CHURCH", "designationCode": "C", "categoryCode": "32", "address": "58 ALHAMBRA AVENUE", "city": "TORONTO", "province": "ON", "country": "CA", "postalCode": "M6R2S6", "twitter": "None", "instagram": "None", "facebook": "None", "youtube": "None", "website": "None", "summary": "None", "logo": "None", "latitude": 43.65531094310118, "longitude": -79.45358881822366}, "119230746RR0001": {"name": "THE EAST YORK FOUNDATION", "designationCode": "C", "categoryCode": "59", "address": "50 MERRITT RD", "city": "TORONTO", "province": "ON", "country": "CA", "postalCode": "M4B3K6", "twitter": "None", "instagram": "None", "facebook": "None", "youtube": "None", "website": "None", "summary": "None", "logo": "None", "latitude": 43.70983225090883, "longitude": -79.30294942633718}, "119230654RR0001": {"name": "THE EASTEND AND DISTRICT DONOR'S CHOICE'", "designationCode": "A", "categoryCode": "05", "address": "BOX 565", "city": "EASTEND", "province": "SK", "country": "CA", "postalCode": "S0N0T0", "twitter": "None", "instagram": "None", "facebook": "None", "youtube": "None", "website": "None", "summary": "None", "logo": "None", "latitude": 49.51367000000005, "longitude": -108.82889999999998}, "118890664RR0001": {"name": "THE EASTERN ASSOCIATION OF NORTH AMERICAN BAPTIST CHURCHES", "designationCode": "C", "categoryCode": "49", "address": "500 KILARNEY CRES", "city": "BURLINGTON", "province": "ON", "country": "CA", "postalCode": "L7L2N7", "twitter": "None", "instagram": "None", "facebook": "None", "youtube": "None", "website": "None", "summary": "None", "logo": "None", "latitude": 43.363954097726165, "longitude": -79.7598945878584}, "894945633RR0001": {"name": "THE EASTERN CANADIAN DISTRICT OF THE CHRISTIAN AND MISSIONARY ALLIANCE IN CANADA", "designationCode": "C", "categoryCode": "39", "address": "12 - 11 STANLEY CRT", "city": "WHITBY", "province": "ON", "country": "CA", "postalCode": "L1N8P9", "twitter": "None", "instagram": "None", "facebook": "None", "youtube": "None", "website": "None", "summary": "None", "logo": "None", "latitude": 43.87284870581101, "longitude": -78.92419965387516}, "140150772RR0001": {"name": "THE EASTERN FRONT THEATRE SOCIETY", "designationCode": "C", "categoryCode": "22", "address": "1580 BARRINGTON STREET", "city": "HALIFAX", "province": "NS", "country": "CA", "postalCode": "B3J1Z6", "twitter": "None", "instagram": "None", "facebook": "None", "youtube": "None", "website": "None", "summary": "None", "logo": "None", "latitude": 44.6457580618905, "longitude": -63.57335497850415}, "849811617RR0001": {"name": "THE EASTERN ONTARIO & WESTERN QUEBEC CHRISTMAS CHEER FOUNDATION/LA FONDATION ESPRIT DE NOEL DE L'EST DE L'ONTARIO ET L'OUEST DU QU\u00c9BEC", "designationCode": "A", "categoryCode": "03", "address": "1200-151 SLATER ST", "city": "OTTAWA", "province": "ON", "country": "CA", "postalCode": "K1P5H3", "twitter": "None", "instagram": "None", "facebook": "None", "youtube": "None", "website": "None", "summary": "None", "logo": "None", "latitude": 45.42016999306272, "longitude": -75.69783615442333}, "123929580RR0003": {"name": "THE EASTERN ONTARIO DISTRICT OF THE PENTECOSTAL ASSEMBLIES OF CANADA", "designationCode": "C", "categoryCode": "36", "address": "P.O. BOX 337", "city": "COBOURG", "province": "ON", "country": "CA", "postalCode": "K9A4K8", "twitter": "None", "instagram": "None", "facebook": "None", "youtube": "None", "website": "None", "summary": "None", "logo": "None", "latitude": 43.95960600000005, "longitude": -78.16778449999994}, "107273534RR0001": {"name": "THE EASTERN ONTARIO HEALTH UNIT", "designationCode": "C", "categoryCode": "10", "address": "1000 PITT ST", "city": "CORNWALL", "province": "ON", "country": "CA", "postalCode": "K6J5T1", "twitter": "None", "instagram": "None", "facebook": "None", "youtube": "None", "website": "None", "summary": "None", "logo": "None", "latitude": 45.02955278570623, "longitude": -74.7358946697442}, "882235161RR0001": {"name": "THE EASTERN SHORE FAMILY RESOURCE ASSOCIATION", "designationCode": "C", "categoryCode": "09", "address": "PO BOX 53 STN MAIN", "city": "PORTERS LAKE", "province": "NS", "country": "CA", "postalCode": "B3E1M1", "twitter": "None", "instagram": "None", "facebook": "None", "youtube": "None", "website": "None", "summary": "None", "logo": "None", "latitude": 44.73874500000005, "longitude": -63.305580499999934}, "889592465RR0001": {"name": "THE EASTERN SHORE PALLIATIVE CARE ASSOCIATION", "designationCode": "C", "categoryCode": "09", "address": "22651 HWY 7", "city": "SHEET HARBOUR", "province": "NS", "country": "CA", "postalCode": "B0J3B0", "twitter": "None", "instagram": "None", "facebook": "None", "youtube": "None", "website": "None", "summary": "None", "logo": "None", "latitude": 44.91948009235147, "longitude": -62.532796394493744}, "857213763RR0001": {"name": "THE EATING WELL MINISTRIES", "designationCode": "C", "categoryCode": "09", "address": "73 - 1 CELINA STREET", "city": "OSHAWA", "province": "ON", "country": "CA", "postalCode": "L1N4H1", "twitter": "None", "instagram": "None", "facebook": "None", "youtube": "None", "website": "None", "summary": "None", "logo": "None", "latitude": 43.89331563765831, "longitude": -78.86052678340369}, "119230761RR0001": {"name": "THE EATONIA COMMUNITY SERVICE CO-OPERATIVE LIMITED", "designationCode": "C", "categoryCode": "56", "address": "PO BOX 215", "city": "EATONIA", "province": "SK", "country": "CA", "postalCode": "S0L0Y0", "twitter": "None", "instagram": "None", "facebook": "None", "youtube": "None", "website": "None", "summary": "None", "logo": "None", "latitude": 51.216810000000066, "longitude": -109.38480999999996}, "107275307RR0001": {"name": "THE EBENEZER BAPTIST CHURCH", "designationCode": "C", "categoryCode": "31", "address": "4730 - 51 AVE", "city": "WETASKIWIN", "province": "AB", "country": "CA", "postalCode": "T9A0T5", "twitter": "None", "instagram": "None", "facebook": "None", "youtube": "None", "website": "None", "summary": "None", "logo": "None", "latitude": 52.96992292030694, "longitude": -113.36715825142062}, "849757125RR0001": {"name": "THE EBENEZER PRESBYTERIAN CHURCH OF CALGARY", "designationCode": "C", "categoryCode": "37", "address": "75 KINGSLAND HTS SE", "city": "AIRDRIE", "province": "AB", "country": "CA", "postalCode": "T4A0A3", "twitter": "None", "instagram": "None", "facebook": "None", "youtube": "None", "website": "None", "summary": "None", "logo": "None", "latitude": 51.267225611748835, "longitude": -113.9856304275206}, "884133315RR0001": {"name": "THE ECUMENICAL CHAPLAINCY AT THE UNIVERSITY OF TORONTO", "designationCode": "C", "categoryCode": "49", "address": "59 ST GEORGE STREET", "city": "TORONTO", "province": "ON", "country": "CA", "postalCode": "M5S2E6", "twitter": "None", "instagram": "None", "facebook": "None", "youtube": "None", "website": "None", "summary": "None", "logo": "None", "latitude": 43.661216272837386, "longitude": -79.39721773711729}, "119230886RR0001": {"name": "THE ED MIRVISH FAMILY CHARITABLE FOUNDATION", "designationCode": "B", "categoryCode": "23", "address": "581 BLOOR STREET WEST", "city": "TORONTO", "province": "ON", "country": "CA", "postalCode": "M6G1K3", "twitter": "None", "instagram": "None", "facebook": "None", "youtube": "None", "website": "None", "summary": "None", "logo": "None", "latitude": 43.66492783816166, "longitude": -79.41200541006413}, "846140952RR0001": {"name": "THE ED STELMACH COMMUNITY FOUNDATION", "designationCode": "A", "categoryCode": "03", "address": "P.O. BOX 70", "city": "VEGREVILLE", "province": "AB", "country": "CA", "postalCode": "T9C1R1", "twitter": "None", "instagram": "None", "facebook": "None", "youtube": "None", "website": "None", "summary": "None", "logo": "None", "latitude": 53.49528600000005, "longitude": -112.05415249999993}, "861905792RR0001": {"name": "THE EDDIE AND MARILYN WEISZ FAMILY FOUNDATION", "designationCode": "B", "categoryCode": "03", "address": "625 COCHRANE DR               STE 801", "city": "MARKHAM", "province": "ON", "country": "CA", "postalCode": "L3R9R9", "twitter": "None", "instagram": "None", "facebook": "None", "youtube": "None", "website": "None", "summary": "None", "logo": "None", "latitude": 43.845582592850064, "longitude": -79.36646097429094}, "874614761RR0001": {"name": "THE EDEN MILLS AND DISTRICT COMMUNITY CLUB INC.", "designationCode": "C", "categoryCode": "56", "address": "104 YORK ST.", "city": "EDEN MILLS", "province": "ON", "country": "CA", "postalCode": "N0B1P0", "twitter": "None", "instagram": "None", "facebook": "None", "youtube": "None", "website": "None", "summary": "None", "logo": "None", "latitude": 43.578614526117214, "longitude": -80.14655157695604}, "893010165RR0001": {"name": "THE EDEN MILLS COMMUNITY CEMETERY", "designationCode": "C", "categoryCode": "59", "address": "75 RIVERGLEN PATH, R.R.#2", "city": "GUELPH", "province": "ON", "country": "CA", "postalCode": "N1H6H8", "twitter": "None", "instagram": "None", "facebook": "None", "youtube": "None", "website": "None", "summary": "None", "logo": "None", "latitude": 43.58550300000006, "longitude": -80.17301599999993}, "897444402RR0001": {"name": "THE EDGAR FOUNDATION", "designationCode": "B", "categoryCode": "23", "address": "1500 - 1021 HASTINGS ST W", "city": "VANCOUVER", "province": "BC", "country": "CA", "postalCode": "V6E0C3", "twitter": "None", "instagram": "None", "facebook": "None", "youtube": "None", "website": "None", "summary": "None", "logo": "None", "latitude": 49.28734898309179, "longitude": -123.1177059128341}, "865586747RR0001": {"name": "THE EDGE SCHOOL FOR ATHLETES SOCIETY", "designationCode": "C", "categoryCode": "20", "address": "33055 TOWNSHIP ROAD 250", "city": "CALGARY", "province": "AB", "country": "CA", "postalCode": "T3Z1L4", "twitter": "None", "instagram": "None", "facebook": "None", "youtube": "None", "website": "None", "summary": "None", "logo": "None", "latitude": 51.095876312140376, "longitude": -114.35582320650755}, "119230837RR0001": {"name": "THE EDGERTON AGRICULTURAL SOCIETY", "designationCode": "C", "categoryCode": "56", "address": "BOX 359", "city": "EDGERTON", "province": "AB", "country": "CA", "postalCode": "T0B1K0", "twitter": "None", "instagram": "None", "facebook": "None", "youtube": "None", "website": "None", "summary": "None", "logo": "None", "latitude": 52.750140000000044, "longitude": -110.45159999999998}, "864461520RR0001": {"name": "THE EDITH & DONALD STRUPAT FOUNDATION", "designationCode": "B", "categoryCode": "03", "address": "121 ANNE ST. S.", "city": "BARRIE", "province": "ON", "country": "CA", "postalCode": "L4N7B6", "twitter": "None", "instagram": "None", "facebook": "None", "youtube": "None", "website": "None", "summary": "None", "logo": "None", "latitude": 44.37466429392919, "longitude": -79.69850869190387}, "119230852RR0001": {"name": "THE EDITH AND BERNARD ENNIS FOUNDATION", "designationCode": "B", "categoryCode": "03", "address": "171 DIVISION STREET           P.O.BOX 9", "city": "WELLAND", "province": "ON", "country": "CA", "postalCode": "L3B5N9", "twitter": "None", "instagram": "None", "facebook": "None", "youtube": "None", "website": "None", "summary": "None", "logo": "None", "latitude": 42.9914897726645, "longitude": -79.24575557631721}, "874837404RR0001": {"name": "THE EDITH FOX LIFE & LOSS CENTRE", "designationCode": "C", "categoryCode": "01", "address": "43 MARY ST", "city": "PICTON", "province": "ON", "country": "CA", "postalCode": "K0K2T0", "twitter": "None", "instagram": "None", "facebook": "None", "youtube": "None", "website": "None", "summary": "None", "logo": "None", "latitude": 44.006117336114656, "longitude": -77.141584976287}, "110796786RR0001": {"name": "THE EDITH LANDO CHARITABLE FOUNDATION", "designationCode": "B", "categoryCode": "13", "address": "1499 ANGUS DRIVE", "city": "VANCOUVER", "province": "BC", "country": "CA", "postalCode": "V6H1V2", "twitter": "None", "instagram": "None", "facebook": "None", "youtube": "None", "website": "None", "summary": "None", "logo": "None", "latitude": 49.254903008627, "longitude": -123.13822205441733}, "119230894RR0001": {"name": "THE EDMOND GUNN FOUNDATION", "designationCode": "B", "categoryCode": "15", "address": "130 KING ST. WEST 20TH FLOOR  BOX 430, STN FIRST CANADIAN PL", "city": "TORONTO", "province": "ON", "country": "CA", "postalCode": "M5X1K1", "twitter": "None", "instagram": "None", "facebook": "None", "youtube": "None", "website": "None", "summary": "None", "logo": "None"}, "897038162RR0001": {"name": "THE EDMONTON ARTS COUNCIL SOCIETY", "designationCode": "C", "categoryCode": "23", "address": "2 FLR 10440-108 AVE", "city": "EDMONTON", "province": "AB", "country": "CA", "postalCode": "T5H3Z9", "twitter": "None", "instagram": "None", "facebook": "None", "youtube": "None", "website": "None", "summary": "None", "logo": "None", "latitude": 53.55297257400861, "longitude": -113.50003207386438}, "861275600RR0001": {"name": "THE EDMONTON BUDDHIST PRIORY", "designationCode": "C", "categoryCode": "35", "address": "10825-80 AVENUE", "city": "EDMONTON", "province": "AB", "country": "CA", "postalCode": "T6E1V9", "twitter": "None", "instagram": "None", "facebook": "None", "youtube": "None", "website": "None", "summary": "None", "logo": "None", "latitude": 53.5161185323159, "longitude": -113.51061016763806}, "119230928RR0001": {"name": "THE EDMONTON CENTRAL KOREAN PRESBYTERIAN CHURCH", "designationCode": "C", "categoryCode": "37", "address": "2551 ELLWOOD DRIVE S.W.", "city": "EDMONTON", "province": "AB", "country": "CA", "postalCode": "T6X0P7", "twitter": "None", "instagram": "None", "facebook": "None", "youtube": "None", "website": "None", "summary": "None", "logo": "None", "latitude": 53.429950469300245, "longitude": -113.47354169282751}, "881303291RR0001": {"name": "THE EDMONTON CHILDREN'S CHOIR ASSOCIATION", "designationCode": "C", "categoryCode": "22", "address": "10637-67 AVENUE", "city": "EDMONTON", "province": "AB", "country": "CA", "postalCode": "T6H1Z7", "twitter": "None", "instagram": "None", "facebook": "None", "youtube": "None", "website": "None", "summary": "None", "logo": "None", "latitude": 53.50386652510253, "longitude": -113.5062135}, "119230944RR0001": {"name": "THE EDMONTON CIVIC EMPLOYEES CHARITABLE ASSISTANCE FUND", "designationCode": "B", "categoryCode": "75", "address": "PO BOX 389", "city": "ST ALBERT", "province": "AB", "country": "CA", "postalCode": "T8N7A2", "twitter": "None", "instagram": "None", "facebook": "None", "youtube": "None", "website": "None", "summary": "None", "logo": "None", "latitude": 53.633832000000055, "longitude": -113.62747399999994}, "122437072RR0001": {"name": "THE EDMONTON COMMUNITY FOUNDATION", "designationCode": "A", "categoryCode": "53", "address": "9910 103 STREET NW", "city": "EDMONTON", "province": "AB", "country": "CA", "postalCode": "T5K2V7", "twitter": "None", "instagram": "None", "facebook": "None", "youtube": "None", "website": "None", "summary": "None", "logo": "None", "latitude": 53.53760604662705, "longitude": -113.49741713826502}, "863900320RR0001": {"name": "THE EDMONTON CONGREGATION OF JEHOVAH'S WITNESSES, AVONMORE Unit", "designationCode": "C", "categoryCode": "61", "address": "8839 95 ST NW", "city": "EDMONTON", "province": "AB", "country": "CA", "postalCode": "T6C3W6", "twitter": "None", "instagram": "None", "facebook": "None", "youtube": "None", "website": "None", "summary": "None", "logo": "None", "latitude": 53.52462050291419, "longitude": -113.47304675959408}, "863311726RR0001": {"name": "THE EDMONTON CONGREGATION OF JEHOVAH'S WITNESSES, INGLEWOOD UNIT", "designationCode": "C", "categoryCode": "61", "address": "10948-150TH STREET", "city": "EDMONTON", "province": "AB", "country": "CA", "postalCode": "T5P1R7", "twitter": "None", "instagram": "None", "facebook": "None", "youtube": "None", "website": "None", "summary": "None", "logo": "None", "latitude": 53.55568724562872, "longitude": -113.57992619597191}, "119230951RR0001": {"name": "THE EDMONTON EPILEPSY ASSOCIATION", "designationCode": "C", "categoryCode": "11", "address": "11215 GROAT RD NW", "city": "EDMONTON", "province": "AB", "country": "CA", "postalCode": "T5M3K2", "twitter": "None", "instagram": "None", "facebook": "None", "youtube": "None", "website": "None", "summary": "None", "logo": "None", "latitude": 53.56105199999999, "longitude": -113.55116721299571}, "128941226RR0001": {"name": "THE EDMONTON FOLK MUSIC FESTIVAL SOCIETY", "designationCode": "C", "categoryCode": "22", "address": "PO BOX 4130 STN SOUTH CRO", "city": "EDMONTON", "province": "AB", "country": "CA", "postalCode": "T6E4T2", "twitter": "None", "instagram": "None", "facebook": "None", "youtube": "None", "website": "None", "summary": "None", "logo": "None", "latitude": 53.499354000000054, "longitude": -113.46577549999994}, "119230977RR0001": {"name": "THE EDMONTON INNER CITY HOUSING SOCIETY", "designationCode": "C", "categoryCode": "09", "address": "9430 111 AVE", "city": "EDMONTON", "province": "AB", "country": "CA", "postalCode": "T5G0A4", "twitter": "None", "instagram": "None", "facebook": "None", "youtube": "None", "website": "None", "summary": "None", "logo": "None", "latitude": 53.560201241762236, "longitude": -113.48658988954922}, "119230985RR0001": {"name": "THE EDMONTON JAZZ SOCIETY (1973)", "designationCode": "C", "categoryCode": "22", "address": "11 TOMMY BANKS WAY", "city": "EDMONTON", "province": "AB", "country": "CA", "postalCode": "T6E2M2", "twitter": "None", "instagram": "None", "facebook": "None", "youtube": "None", "website": "None", "summary": "None", "logo": "None", "latitude": 53.52171594269196, "longitude": -113.49468029899406}, "834197964RR0001": {"name": "THE EDMONTON JEWISH COMMUNITY CHARITABLE FOUNDATION", "designationCode": "A", "categoryCode": "53", "address": "200-10220 156 ST", "city": "EDMONTON", "province": "AB", "country": "CA", "postalCode": "T5P4Y2", "twitter": "None", "instagram": "None", "facebook": "None", "youtube": "None", "website": "None", "summary": "None", "logo": "None", "latitude": 53.54370900000001, "longitude": -113.590396762046}, "119230993RR0001": {"name": "THE EDMONTON KIWANIS MUSIC FESTIVAL ASSOCIATION", "designationCode": "C", "categoryCode": "22", "address": "2ND FLOOR  14205 - 109 AVENUE", "city": "EDMONTON", "province": "AB", "country": "CA", "postalCode": "T5N1H5", "twitter": "None", "instagram": "None", "facebook": "None", "youtube": "None", "website": "None", "summary": "None", "logo": "None", "latitude": 53.55412951399404, "longitude": -113.5664232485429}, "893371575RR0001": {"name": "THE EDMONTON KOREAN LANGUAGE SCHOOL SOCIETY", "designationCode": "C", "categoryCode": "20", "address": "PO BOX 68102 RPO BONNIE DOON  162 BONNIE DOON MALL", "city": "EDMONTON", "province": "AB", "country": "CA", "postalCode": "T6C4N6", "twitter": "None", "instagram": "None", "facebook": "None", "youtube": "None", "website": "None", "summary": "None", "logo": "None", "latitude": 53.52827000000008, "longitude": -113.47149999999999}, "888050192RR0001": {"name": "THE EDMONTON LEARNING TRUST FUND", "designationCode": "B", "categoryCode": "05", "address": "#3000, 8882-170 STREET", "city": "EDMONTON", "province": "AB", "country": "CA", "postalCode": "T5T4M2", "twitter": "None", "instagram": "None", "facebook": "None", "youtube": "None", "website": "None", "summary": "None", "logo": "None", "latitude": 53.523595901041965, "longitude": -113.61550824369407}, "118894005RR0001": {"name": "THE EDMONTON NEIGHBOURHOOD WATCH PROGRAM SOCIETY", "designationCode": "C", "categoryCode": "59", "address": "12904 54 ST NW", "city": "EDMONTON", "province": "AB", "country": "CA", "postalCode": "T5A0A4", "twitter": "None", "instagram": "None", "facebook": "None", "youtube": "None", "website": "None", "summary": "None", "logo": "None", "latitude": 53.587890000000016, "longitude": -113.42456827979093}, "889617346RR0001": {"name": "THE EDMONTON OIL KINGS JUNIOR HOCKEY CLUB SCHOLARSHIP FUND", "designationCode": "A", "categoryCode": "23", "address": "10429 SASKATCHEWAN DRIVE", "city": "EDMONTON", "province": "AB", "country": "CA", "postalCode": "T6E4R8", "twitter": "None", "instagram": "None", "facebook": "None", "youtube": "None", "website": "None", "summary": "None", "logo": "None", "latitude": 53.52330252452561, "longitude": -113.49904942186512}, "891437394RR0001": {"name": "THE EDMONTON OSTOMY ASSOCIATION", "designationCode": "C", "categoryCode": "11", "address": "6207 14 AVE NW", "city": "EDMONTON", "province": "AB", "country": "CA", "postalCode": "T6L1Y1", "twitter": "None", "instagram": "None", "facebook": "None", "youtube": "None", "website": "None", "summary": "None", "logo": "None", "latitude": 53.44365256506449, "longitude": -113.43325425021635}, "897836078RR0001": {"name": "THE EDMONTON POWER HISTORICAL FOUNDATION", "designationCode": "B", "categoryCode": "50", "address": "10814 173 AVE", "city": "EDMONTON", "province": "AB", "country": "CA", "postalCode": "T5X3Z4", "twitter": "None", "instagram": "None", "facebook": "None", "youtube": "None", "website": "None", "summary": "None", "logo": "None", "latitude": 53.63470885070368, "longitude": -113.50809194788897}, "119231033RR0001": {"name": "THE EDMONTON PUBLIC LIBRARY BOARD", "designationCode": "C", "categoryCode": "50", "address": "7 SIR WINSTON CHURCHILL SQUARE", "city": "EDMONTON", "province": "AB", "country": "CA", "postalCode": "T5J2V4", "twitter": "None", "instagram": "None", "facebook": "None", "youtube": "None", "website": "None", "summary": "None", "logo": "None", "latitude": 53.543268465602104, "longitude": -113.49060039354845}, "119231041RR0001": {"name": "THE EDMONTON RADIAL RAILWAY SOCIETY", "designationCode": "C", "categoryCode": "50", "address": "PO BOX 76057 SOUTHGATE PO", "city": "EDMONTON", "province": "AB", "country": "CA", "postalCode": "T6H5Y7", "twitter": "None", "instagram": "None", "facebook": "None", "youtube": "None", "website": "None", "summary": "None", "logo": "None", "latitude": 53.494935000000055, "longitude": -113.54074099999994}, "888715711RR0001": {"name": "THE EDMONTON REGIONAL PARENT/GUARDIAN PARTNERSHIP SOCIETY", "designationCode": "C", "categoryCode": "09", "address": "106 - 10423 178 ST NW", "city": "EDMONTON", "province": "AB", "country": "CA", "postalCode": "T5S1R5", "twitter": "None", "instagram": "None", "facebook": "None", "youtube": "None", "website": "None", "summary": "None", "logo": "None", "latitude": 53.55476576312828, "longitude": -113.62733850238462}, "899876940RR0001": {"name": "THE EDMONTON ROTARY CLUB FOUNDATION", "designationCode": "A", "categoryCode": "63", "address": "10111 BELLAMY HILL NW", "city": "EDMONTON", "province": "AB", "country": "CA", "postalCode": "T5J1N7", "twitter": "None", "instagram": "None", "facebook": "None", "youtube": "None", "website": "None", "summary": "None", "logo": "None", "latitude": 53.53934892587585, "longitude": -113.49395386176364}, "119231058RR0001": {"name": "THE EDMONTON SCHOOL DISTRICT # 7", "designationCode": "C", "categoryCode": "20", "address": "ONE KINGSWAY", "city": "EDMONTON", "province": "AB", "country": "CA", "postalCode": "T5H4G9", "twitter": "None", "instagram": "None", "facebook": "None", "youtube": "None", "website": "None", "summary": "None", "logo": "None", "latitude": 53.554561673051744, "longitude": -113.49378288441397}, "131433963RR0001": {"name": "THE EDMONTON SOCIETY FOR CHRISTIAN EDUCATION", "designationCode": "C", "categoryCode": "47", "address": "14304 109 AVE", "city": "EDMONTON", "province": "AB", "country": "CA", "postalCode": "T5N1H6", "twitter": "None", "instagram": "None", "facebook": "None", "youtube": "None", "website": "None", "summary": "None", "logo": "None", "latitude": 53.554172464942795, "longitude": -113.56834419317329}, "107283236RR0001": {"name": "THE EDMONTON SPACE & SCIENCE FOUNDATION", "designationCode": "C", "categoryCode": "21", "address": "11211 142 ST NW", "city": "EDMONTON", "province": "AB", "country": "CA", "postalCode": "T5M4A1", "twitter": "None", "instagram": "None", "facebook": "None", "youtube": "None", "website": "None", "summary": "None", "logo": "None", "latitude": 53.5606589305603, "longitude": -113.56577789313624}, "130528219RR0001": {"name": "THE EDMONTON TELEPHONE HISTORICAL INFORMATION CENTRE FOUNDATION", "designationCode": "C", "categoryCode": "50", "address": "P.O.BOX.188 STATION MAIN", "city": "EDMONTON", "province": "AB", "country": "CA", "postalCode": "T5J2J1", "twitter": "None", "instagram": "None", "facebook": "None", "youtube": "None", "website": "None", "summary": "None", "logo": "None", "latitude": 53.54623500000005, "longitude": -113.49037249999994}, "890615974RR0001": {"name": "THE EDMONTON YMCA FOUNDATION", "designationCode": "A", "categoryCode": "43", "address": "10211 105 ST NW", "city": "EDMONTON", "province": "AB", "country": "CA", "postalCode": "T5J1E3", "twitter": "None", "instagram": "None", "facebook": "None", "youtube": "None", "website": "None", "summary": "None", "logo": "None", "latitude": 53.54344800000001, "longitude": -113.50106780345118}, "885464156RR0001": {"name": "THE EDMONTON YOUTH CHOIR ASSOCIATION", "designationCode": "C", "categoryCode": "22", "address": "10637 67 AVENUE", "city": "EDMONTON", "province": "AB", "country": "CA", "postalCode": "T6H1Z7", "twitter": "None", "instagram": "None", "facebook": "None", "youtube": "None", "website": "None", "summary": "None", "logo": "None", "latitude": 53.50386652510253, "longitude": -113.5062135}, "891628646RR0001": {"name": "THE EDMONTON-STRATHCONA LIVE-IN SOCIETY", "designationCode": "C", "categoryCode": "49", "address": "BOX 957", "city": "GIBBONS", "province": "AB", "country": "CA", "postalCode": "T0A1N0", "twitter": "None", "instagram": "None", "facebook": "None", "youtube": "None", "website": "None", "summary": "None", "logo": "None", "latitude": 53.82811000000004, "longitude": -113.32767999999999}, "873883227RR0001": {"name": "THE EDNA MARY MCLAUCHLAN MEMORIAL FUND", "designationCode": "B", "categoryCode": "05", "address": "1402 - 1 KING ST W", "city": "HAMILTON", "province": "ON", "country": "CA", "postalCode": "L8P1A4", "twitter": "None", "instagram": "None", "facebook": "None", "youtube": "None", "website": "None", "summary": "None", "logo": "None", "latitude": 43.26019321073324, "longitude": -79.88135629363086}, "107283798RR0001": {"name": "THE EDSON & DISTRICT HISTORICAL SOCIETY", "designationCode": "C", "categoryCode": "52", "address": "223 55 STREET", "city": "EDSON", "province": "AB", "country": "CA", "postalCode": "T7E1L5", "twitter": "None", "instagram": "None", "facebook": "None", "youtube": "None", "website": "None", "summary": "None", "logo": "None", "latitude": 53.578883341415015, "longitude": -116.44305729967213}, "119231116RR0001": {"name": "THE EDSON-PEERS CHRISTIAN REFORMED CHURCH", "designationCode": "C", "categoryCode": "39", "address": "4633 - 7 AVENUE", "city": "EDSON", "province": "AB", "country": "CA", "postalCode": "T7E1C9", "twitter": "None", "instagram": "None", "facebook": "None", "youtube": "None", "website": "None", "summary": "None", "logo": "None", "latitude": 53.58809210713255, "longitude": -116.4265778402678}, "896110756RR0001": {"name": "THE EDU-CARE BOARD INC.", "designationCode": "C", "categoryCode": "20", "address": "1017 ADELAIDE ST N", "city": "LONDON", "province": "ON", "country": "CA", "postalCode": "N5Y2M8", "twitter": "None", "instagram": "None", "facebook": "None", "youtube": "None", "website": "None", "summary": "None", "logo": "None", "latitude": 43.0072278687172, "longitude": -81.24070443271383}, "119231124RR0001": {"name": "THE EDUCATIONAL AND CHARITABLE FUND OF THE MEDICAL SOCIETY OF PRINCE EDWARD ISLAND", "designationCode": "C", "categoryCode": "21", "address": "2 MYRTLE STREET", "city": "STRATFORD", "province": "PE", "country": "CA", "postalCode": "C1B2W2", "twitter": "None", "instagram": "None", "facebook": "None", "youtube": "None", "website": "None", "summary": "None", "logo": "None", "latitude": 46.218832805990004, "longitude": -63.07485244812149}, "889379194RR0001": {"name": "THE EDUCATIONAL FOUNDATION OF THE CANADIAN ASSOCIATION OF FORMER PARLIAMENTARIANS", "designationCode": "C", "categoryCode": "21", "address": "P.O. BOX 1, 131 QUEEN STREET  HOUSE OF COMMONS", "city": "OTTAWA", "province": "ON", "country": "CA", "postalCode": "K1A0A6", "twitter": "None", "instagram": "None", "facebook": "None", "youtube": "None", "website": "None", "summary": "None", "logo": "None", "latitude": 45.42124536890182, "longitude": -75.69938371462021}, "119231132RR0001": {"name": "THE EDUCATIONAL FOUNDATION OF THE CANADIAN SOCIETY OF PLASTIC SURGEONS INC", "designationCode": "A", "categoryCode": "23", "address": "PO BOX 60192                  SAINT-DENIS", "city": "MONTREAL", "province": "QC", "country": "CA", "postalCode": "H2J4E1", "twitter": "None", "instagram": "None", "facebook": "None", "youtube": "None", "website": "None", "summary": "None", "logo": "None", "latitude": 45.5263118591819, "longitude": -73.58805745076155}, "140263344RR0001": {"name": "THE EDUCATIONAL SOCIETY OF FATHER WHELIHAN SCHOOL", "designationCode": "C", "categoryCode": "21", "address": "70 SUNMILLS DR SE", "city": "CALGARY", "province": "AB", "country": "CA", "postalCode": "T2X2R5", "twitter": "None", "instagram": "None", "facebook": "None", "youtube": "None", "website": "None", "summary": "None", "logo": "None", "latitude": 50.90520727837731, "longitude": -114.04734040839068}, "891004947RR0001": {"name": "THE EDWARD AND EMILY MCWHINNEY FOUNDATION FOR INTERNATIONAL AND COMPARATIVE AND FEDERAL LAW", "designationCode": "B", "categoryCode": "23", "address": "10TH FLOOR, 1333 WEST BROADWAY", "city": "VANCOUVER", "province": "BC", "country": "CA", "postalCode": "V6H4C1", "twitter": "None", "instagram": "None", "facebook": "None", "youtube": "None", "website": "None", "summary": "None", "logo": "None", "latitude": 49.2636048443685, "longitude": -123.13446441433003}, "890003866RR0001": {"name": "THE EDWARDS FAMILY CHARITABLE FOUNDATION", "designationCode": "B", "categoryCode": "11", "address": "PO BOX 31143 RPO GLADSTONE", "city": "HALIFAX", "province": "NS", "country": "CA", "postalCode": "B3K5Y1", "twitter": "None", "instagram": "None", "facebook": "None", "youtube": "None", "website": "None", "summary": "None", "logo": "None", "latitude": 44.65368668731068, "longitude": -63.59844402681182}, "889137378RR0001": {"name": "THE EDWIN AND MIRIAM MERKUR CHARITABLE FOUNDATION", "designationCode": "B", "categoryCode": "53", "address": "205 - 23 LESMILL RD           BOX 24", "city": "TORONTO", "province": "ON", "country": "CA", "postalCode": "M3B3P6", "twitter": "None", "instagram": "None", "facebook": "None", "youtube": "None", "website": "None", "summary": "None", "logo": "None", "latitude": 43.756499388020025, "longitude": -79.35275909362946}, "857330682RR0001": {"name": "THE EGAN FAMILY FOUNDATION", "designationCode": "B", "categoryCode": "03", "address": "48 AUTUMN GLOW DRIVE", "city": "MARKHAM", "province": "ON", "country": "CA", "postalCode": "L6B0P5", "twitter": "None", "instagram": "None", "facebook": "None", "youtube": "None", "website": "None", "summary": "None", "logo": "None", "latitude": 43.89362217236992, "longitude": -79.21778665543304}, "868567744RR0001": {"name": "THE EGANVILLE AND DISTRICT COMMUNITY FOOD BANK", "designationCode": "C", "categoryCode": "09", "address": "165 JOHN ST, PO BOX 164", "city": "EGANVILLE", "province": "ON", "country": "CA", "postalCode": "K0J1T0", "twitter": "None", "instagram": "None", "facebook": "None", "youtube": "None", "website": "None", "summary": "None", "logo": "None", "latitude": 45.537255008627, "longitude": -77.09757543698433}, "878521947RR0001": {"name": "THE EGYPTIAN ARABIC SCHOOL ASSOCIATION (ARABIC SCHOOL) INC./L'ASSOCIATION DE L'ECOLE EGYPTIENNE DE LA LANGUE ARABE (L'ECOLE ARABE)", "designationCode": "C", "categoryCode": "20", "address": "CP 53505 CSP NORTHGATE", "city": "SAINT-LAURENT", "province": "QC", "country": "CA", "postalCode": "H4L5J9", "twitter": "None", "instagram": "None", "facebook": "None", "youtube": "None", "website": "None", "summary": "None", "logo": "None", "latitude": 45.506958000000054, "longitude": -73.68292249999993}, "107288011RR0001": {"name": "THE EIGENHEIM MENNONITE CHURCH INC.", "designationCode": "C", "categoryCode": "34", "address": "BOX 550", "city": "ROSTHERN", "province": "SK", "country": "CA", "postalCode": "S0K3R0", "twitter": "None", "instagram": "None", "facebook": "None", "youtube": "None", "website": "None", "summary": "None", "logo": "None", "latitude": 52.663230000000055, "longitude": -106.32952999999998}, "889214102RR0001": {"name": "THE EKKLESIA FAITH MINISTRY", "designationCode": "C", "categoryCode": "39", "address": "108 JOHN TABOR TRAIL", "city": "SCARBOROUGH", "province": "ON", "country": "CA", "postalCode": "M1B2V2", "twitter": "None", "instagram": "None", "facebook": "None", "youtube": "None", "website": "None", "summary": "None", "logo": "None", "latitude": 43.80395103442204, "longitude": -79.20740722228653}, "870033495RR0001": {"name": "THE EKTA FOUNDATION", "designationCode": "C", "categoryCode": "59", "address": "4103 SHERBROOKE STREET WEST", "city": "MONTREAL", "province": "QC", "country": "CA", "postalCode": "H3Z1A7", "twitter": "None", "instagram": "None", "facebook": "None", "youtube": "None", "website": "None", "summary": "None", "logo": "None", "latitude": 45.48893217652487, "longitude": -73.59061071386108}, "119231181RR0001": {"name": "THE ELEANOR DRURY CHILDREN'S THEATRE", "designationCode": "C", "categoryCode": "22", "address": "PO BOX 10213 STN P", "city": "THUNDER BAY", "province": "ON", "country": "CA", "postalCode": "P7B6T7", "twitter": "None", "instagram": "None", "facebook": "None", "youtube": "None", "website": "None", "summary": "None", "logo": "None", "latitude": 48.38168400000005, "longitude": -89.24550199999993}, "122417207RR0001": {"name": "THE ELFROS MEMORIAL RINK CO-OPERATIVE ASSOCIATION LTD", "designationCode": "C", "categoryCode": "56", "address": "BOX 37", "city": "ELFROS", "province": "SK", "country": "CA", "postalCode": "S0A0V0", "twitter": "None", "instagram": "None", "facebook": "None", "youtube": "None", "website": "None", "summary": "None", "logo": "None", "latitude": 51.74252249437323, "longitude": -103.86509654134295}, "891766248RR0001": {"name": "THE ELGIN CHILDREN'S FOUNDATION", "designationCode": "C", "categoryCode": "09", "address": "4 FENWICK COURT", "city": "ST THOMAS", "province": "ON", "country": "CA", "postalCode": "N5R6M6", "twitter": "None", "instagram": "None", "facebook": "None", "youtube": "None", "website": "None", "summary": "None", "logo": "None", "latitude": 42.751539546742606, "longitude": -81.16245355689883}, "886467596RR0001": {"name": "THE ELGIN COUNTY LIBRARY BOARD", "designationCode": "C", "categoryCode": "50", "address": "450 SUNSET DRIVE", "city": "ST THOMAS", "province": "ON", "country": "CA", "postalCode": "N5R5V1", "twitter": "None", "instagram": "None", "facebook": "None", "youtube": "None", "website": "None", "summary": "None", "logo": "None", "latitude": 42.73771164887843, "longitude": -81.19228835112156}, "865610430RR0001": {"name": "THE ELGIN REGIMENT FOUNDATION", "designationCode": "C", "categoryCode": "59", "address": "THE ARMOURY                   40 WILSON AVE", "city": "ST THOMAS", "province": "ON", "country": "CA", "postalCode": "N5R3R2", "twitter": "None", "instagram": "None", "facebook": "None", "youtube": "None", "website": "None", "summary": "None", "logo": "None", "latitude": 42.768759381042614, "longitude": -81.19616296711625}, "105210017RR0001": {"name": "THE ELIJAH MINISTRIES INC.", "designationCode": "C", "categoryCode": "47", "address": "511 KILBURN STREET", "city": "ALMONTE", "province": "ON", "country": "CA", "postalCode": "K0A1A0", "twitter": "None", "instagram": "None", "facebook": "None", "youtube": "None", "website": "None", "summary": "None", "logo": "None", "latitude": 45.22777798298266, "longitude": -76.18048587283131}}