{"856613112RR0001": {"name": "The Centre of Hope Ministries", "designationCode": "C", "categoryCode": "39", "address": "735 SWAN PL", "city": "PICKERING", "province": "ON", "country": "CA", "postalCode": "L1X2V7", "twitter": "None", "instagram": "None", "facebook": "None", "youtube": "None", "website": "None", "summary": "None", "logo": "None", "latitude": 43.84012029773571, "longitude": -79.12238296253793}, "741711493RR0001": {"name": "The Chagnon-Joanette Family Foundation", "designationCode": "B", "categoryCode": "05", "address": "74 DAWLISH AVE", "city": "TORONTO", "province": "ON", "country": "CA", "postalCode": "M4N1H1", "twitter": "None", "instagram": "None", "facebook": "None", "youtube": "None", "website": "None", "summary": "None", "logo": "None", "latitude": 43.72116108133754, "longitude": -79.3962367903225}, "809568033RR0001": {"name": "The Chai Centre", "designationCode": "C", "categoryCode": "39", "address": "328 WARREN RD", "city": "TORONTO", "province": "ON", "country": "CA", "postalCode": "M5P2M8", "twitter": "None", "instagram": "None", "facebook": "None", "youtube": "None", "website": "None", "summary": "None", "logo": "None", "latitude": 43.702873983899856, "longitude": -79.41425425549646}, "805820115RR0001": {"name": "The Chaia & David Arye Goodworks Foundation", "designationCode": "B", "categoryCode": "03", "address": "136 TEEFY AVE", "city": "RICHMOND HILL", "province": "ON", "country": "CA", "postalCode": "L4C8C4", "twitter": "None", "instagram": "None", "facebook": "None", "youtube": "None", "website": "None", "summary": "None", "logo": "None", "latitude": 43.84371520180028, "longitude": -79.4561879222978}, "838274215RR0001": {"name": "The Chaim Moshe Friedman Memorial Fund", "designationCode": "B", "categoryCode": "03", "address": "407-3200 DUFFERIN STREET", "city": "TORONTO", "province": "ON", "country": "CA", "postalCode": "M6A3B2", "twitter": "None", "instagram": "None", "facebook": "None", "youtube": "None", "website": "None", "summary": "None", "logo": "None", "latitude": 43.71839373466443, "longitude": -79.45566924314721}, "770831493RR0001": {"name": "The Champion's Centre Medicine Hat Inc.", "designationCode": "C", "categoryCode": "09", "address": "435 NORTH RAILWAY ST SE", "city": "MEDICINE HAT", "province": "AB", "country": "CA", "postalCode": "T1A2Z3", "twitter": "None", "instagram": "None", "facebook": "None", "youtube": "None", "website": "None", "summary": "None", "logo": "None", "latitude": 50.03944148626578, "longitude": -110.67098091520002}, "819711862RR0001": {"name": "The Chance 2 Dance Foundation", "designationCode": "C", "categoryCode": "22", "address": "74 JAMIE AVENUE", "city": "OTTAWA", "province": "ON", "country": "CA", "postalCode": "K2E6T6", "twitter": "None", "instagram": "None", "facebook": "None", "youtube": "None", "website": "None", "summary": "None", "logo": "None", "latitude": 45.33605168356535, "longitude": -75.71702228209955}, "810062463RR0001": {"name": "The Chang Family Foundation", "designationCode": "B", "categoryCode": "03", "address": "10 RESORT LANE", "city": "OMEMEE", "province": "ON", "country": "CA", "postalCode": "K0L2W0", "twitter": "None", "instagram": "None", "facebook": "None", "youtube": "None", "website": "None", "summary": "None", "logo": "None", "latitude": 44.34297594572671, "longitude": -78.53864031610458}, "893168369RR0001": {"name": "The Chapel Pastoral Council (CPC) of Our Lady of Perpetual Help", "designationCode": "A", "categoryCode": "38", "address": "POST OFFICE BOX 5000          STATION MAIN", "city": "MOOSE JAW", "province": "SK", "country": "CA", "postalCode": "S6H7Z8", "twitter": "None", "instagram": "None", "facebook": "None", "youtube": "None", "website": "None", "summary": "None", "logo": "None", "latitude": 50.37724922856035, "longitude": -105.53464629643145}, "806065660RR0001": {"name": "The Charis Village Housing Foundation of Central Alberta", "designationCode": "C", "categoryCode": "09", "address": "P.O. BOX 5205", "city": "LACOMBE", "province": "AB", "country": "CA", "postalCode": "T4L1W9", "twitter": "None", "instagram": "None", "facebook": "None", "youtube": "None", "website": "None", "summary": "None", "logo": "None", "latitude": 52.463094000000055, "longitude": -113.73671149999993}, "816947584RR0001": {"name": "The Charitable Trust of the Canadian Federation of University Women Aurora/Newmarket Inc.", "designationCode": "C", "categoryCode": "21", "address": "P.O. BOX 71067                NEWMARKET SOUTH P.O.", "city": "NEWMARKET", "province": "ON", "country": "CA", "postalCode": "L3X1Y8", "twitter": "None", "instagram": "None", "facebook": "None", "youtube": "None", "website": "None", "summary": "None", "logo": "None"}, "809289093RR0001": {"name": "The Charitable Trust of Rotary Club of Flamborough A.M.", "designationCode": "C", "categoryCode": "09", "address": "PO BOX 1447", "city": "WATERDOWN", "province": "ON", "country": "CA", "postalCode": "L0R2H0", "twitter": "None", "instagram": "None", "facebook": "None", "youtube": "None", "website": "None", "summary": "None", "logo": "None", "latitude": 43.329109500000015, "longitude": -79.8842655}, "851329516RR0001": {"name": "The Charles and Ethel Cohen Family Foundation", "designationCode": "B", "categoryCode": "03", "address": "975 CRAWFORD AVENUE           PO BOX 602 STATION A", "city": "WINDSOR", "province": "ON", "country": "CA", "postalCode": "N9A6N4", "twitter": "None", "instagram": "None", "facebook": "None", "youtube": "None", "website": "None", "summary": "None", "logo": "None", "latitude": 42.3056272009349, "longitude": -83.0440823025562}, "801452244RR0001": {"name": "The Charles and Rita Field-Marsham Foundation", "designationCode": "B", "categoryCode": "05", "address": "2 BLOOR STREET WEST           SUITE 2602", "city": "TORONTO", "province": "ON", "country": "CA", "postalCode": "M4W3E2", "twitter": "None", "instagram": "None", "facebook": "None", "youtube": "None", "website": "None", "summary": "None", "logo": "None", "latitude": 43.67018118347844, "longitude": -79.38709687122736}, "806225462RR0001": {"name": "The Chart Society - Culture, Heritage & Art", "designationCode": "C", "categoryCode": "22", "address": "11 CHURCH HILL                PO BOX 15", "city": "MAITLAND", "province": "NS", "country": "CA", "postalCode": "B0N1T0", "twitter": "None", "instagram": "None", "facebook": "None", "youtube": "None", "website": "None", "summary": "None", "logo": "None", "latitude": 45.317006582001376, "longitude": -63.4994140535806}, "844517110RR0001": {"name": "The Charter Project", "designationCode": "C", "categoryCode": "21", "address": "169 SONESTA CIRCLE", "city": "STITTSVILLE", "province": "ON", "country": "CA", "postalCode": "K2S0H1", "twitter": "None", "instagram": "None", "facebook": "None", "youtube": "None", "website": "None", "summary": "None", "logo": "None"}, "838045839RR0001": {"name": "The Chelminski Family foundation/ La fondation famille Chelminski", "designationCode": "B", "categoryCode": "03", "address": "299, LONDON STREET", "city": "BEACONSFIELD", "province": "QC", "country": "CA", "postalCode": "H9W5Z1", "twitter": "None", "instagram": "None", "facebook": "None", "youtube": "None", "website": "None", "summary": "None", "logo": "None", "latitude": 45.43917491231921, "longitude": -73.86876906007}, "834630352RR0001": {"name": "The Chestermere Regional Food Bank Foundation", "designationCode": "C", "categoryCode": "09", "address": "105 - 100 RAINBOW RD", "city": "CHESTERMERE", "province": "AB", "country": "CA", "postalCode": "T1X0V2", "twitter": "None", "instagram": "None", "facebook": "None", "youtube": "None", "website": "None", "summary": "None", "logo": "None", "latitude": 51.02128590242696, "longitude": -113.8372526148823}, "810639013RR0001": {"name": "The Chief Cornerstone Tabernacle of Praise Ministries CanadaInc.", "designationCode": "C", "categoryCode": "39", "address": "12 STEINWAY BOULEVARD         UNIT 24", "city": "ETOBICOKE", "province": "ON", "country": "CA", "postalCode": "M9W6M5", "twitter": "None", "instagram": "None", "facebook": "None", "youtube": "None", "website": "None", "summary": "None", "logo": "None", "latitude": 43.75286592423106, "longitude": -79.61967728602335}, "850126681RR0001": {"name": "The Child Advocacy Centre of Simcoe/Muskoka", "designationCode": "C", "categoryCode": "09", "address": "359 WEST STREET NORTH", "city": "ORILLIA", "province": "ON", "country": "CA", "postalCode": "L3V5E5", "twitter": "None", "instagram": "None", "facebook": "None", "youtube": "None", "website": "None", "summary": "None", "logo": "None", "latitude": 44.61921646494865, "longitude": -79.42882129037172}, "118848696RR0001": {"name": "The Child Development Centre of Prince George and District Association", "designationCode": "C", "categoryCode": "11", "address": "1687 STRATHCONA AVENUE", "city": "PRINCE GEORGE", "province": "BC", "country": "CA", "postalCode": "V2L4E7", "twitter": "None", "instagram": "None", "facebook": "None", "youtube": "None", "website": "None", "summary": "None", "logo": "None", "latitude": 53.90222850678068, "longitude": -122.75912249999999}, "812477297RR0001": {"name": "The Children and Youth Dance Theatre of Toronto", "designationCode": "C", "categoryCode": "22", "address": "4507 CHESSWOOD DR", "city": "NORTH YORK", "province": "ON", "country": "CA", "postalCode": "M3J2V6", "twitter": "None", "instagram": "None", "facebook": "None", "youtube": "None", "website": "None", "summary": "None", "logo": "None", "latitude": 43.76473148626578, "longitude": -79.47672167081205}, "844532952RR0001": {"name": "The Children's Bookbank and Literacy Foundation", "designationCode": "C", "categoryCode": "21", "address": "350 BERKELEY STREET", "city": "TORONTO", "province": "ON", "country": "CA", "postalCode": "M5A2X5", "twitter": "None", "instagram": "None", "facebook": "None", "youtube": "None", "website": "None", "summary": "None", "logo": "None", "latitude": 43.66168059616829, "longitude": -79.36840365626976}, "807820956RR0001": {"name": "The Children's Clean Air Network Society", "designationCode": "C", "categoryCode": "59", "address": "2800 MELTON AVE", "city": "HALIFAX", "province": "NS", "country": "CA", "postalCode": "B3L3Z1", "twitter": "None", "instagram": "None", "facebook": "None", "youtube": "None", "website": "None", "summary": "None", "logo": "None", "latitude": 44.64486908491555, "longitude": -63.62426636485072}, "815534524RR0001": {"name": "The Children's Foundation Cares International", "designationCode": "C", "categoryCode": "09", "address": "144-4 AVE. SW                 SUITE 1600", "city": "CALGARY", "province": "AB", "country": "CA", "postalCode": "T2P3N4", "twitter": "None", "instagram": "None", "facebook": "None", "youtube": "None", "website": "None", "summary": "None", "logo": "None", "latitude": 51.04946250843935, "longitude": -114.06417463154939}, "892996968RR0001": {"name": "The Children's Foundation Serving Hastings, Northumberland and Prince Edward Counties", "designationCode": "A", "categoryCode": "03", "address": "363 DUNDAS STREET WEST", "city": "BELLEVILLE", "province": "ON", "country": "CA", "postalCode": "K8P1B3", "twitter": "None", "instagram": "None", "facebook": "None", "youtube": "None", "website": "None", "summary": "None", "logo": "None", "latitude": 44.14850155920744, "longitude": -77.40368014914331}, "853179521RR0001": {"name": "The Chop Theatre Society", "designationCode": "C", "categoryCode": "22", "address": "1885 VENABLES ST", "city": "VANCOUVER", "province": "BC", "country": "CA", "postalCode": "V5L2H6", "twitter": "None", "instagram": "None", "facebook": "None", "youtube": "None", "website": "None", "summary": "None", "logo": "None", "latitude": 49.27669050043268, "longitude": -123.06622402553523}, "846821825RR0001": {"name": "The Chris Dawson Memorial Foundation", "designationCode": "B", "categoryCode": "59", "address": "1315 MICHIGAN AVE.", "city": "SARNIA", "province": "ON", "country": "CA", "postalCode": "N7S4M6", "twitter": "None", "instagram": "None", "facebook": "None", "youtube": "None", "website": "None", "summary": "None", "logo": "None", "latitude": 43.00067174486248, "longitude": -82.35702080288893}, "850141839RR0001": {"name": "The Chris Miller Memorial Fund", "designationCode": "C", "categoryCode": "09", "address": "19 DEEP POINT BOGAN LANE", "city": "RILEY BROOK", "province": "NB", "country": "CA", "postalCode": "E7G1L4", "twitter": "None", "instagram": "None", "facebook": "None", "youtube": "None", "website": "None", "summary": "None", "logo": "None", "latitude": 47.1901804538343, "longitude": -67.19884345279604}, "894945633RR0010": {"name": "The Christian and Missionary Alliance in Canada", "designationCode": "C", "categoryCode": "39", "address": "4898 SIXTEENTH AVENUE", "city": "UNIONVILLE", "province": "ON", "country": "CA", "postalCode": "L3R0K6", "twitter": "None", "instagram": "None", "facebook": "None", "youtube": "None", "website": "None", "summary": "None", "logo": "None", "latitude": 43.88245511581687, "longitude": -79.30111738582697}, "790250120RR0001": {"name": "The Christian Organization Trust", "designationCode": "B", "categoryCode": "05", "address": "601 - 20 ERB ST W", "city": "WATERLOO", "province": "ON", "country": "CA", "postalCode": "N2L1T2", "twitter": "None", "instagram": "None", "facebook": "None", "youtube": "None", "website": "None", "summary": "None", "logo": "None", "latitude": 43.46495694180874, "longitude": -80.52383116729989}, "830655585RR0001": {"name": "The Christofor Foundation Inc.", "designationCode": "B", "categoryCode": "03", "address": "1000 - 44 CHIPMAN HILL", "city": "SAINT JOHN", "province": "NB", "country": "CA", "postalCode": "E2L4S6", "twitter": "None", "instagram": "None", "facebook": "None", "youtube": "None", "website": "None", "summary": "None", "logo": "None"}, "849513312RR0001": {"name": "The Church by the Sea Inc.", "designationCode": "C", "categoryCode": "50", "address": "PO BOX 1894 STN C", "city": "ST. JOHN'S", "province": "NL", "country": "CA", "postalCode": "A1C5R4", "twitter": "None", "instagram": "None", "facebook": "None", "youtube": "None", "website": "None", "summary": "None", "logo": "None", "latitude": 47.56082100000006, "longitude": -52.71219349999993}, "825051741RR0001": {"name": "The Church in Brampton", "designationCode": "C", "categoryCode": "39", "address": "34 SPROULE DRIVE", "city": "BRAMPTON", "province": "ON", "country": "CA", "postalCode": "L6V4B5", "twitter": "None", "instagram": "None", "facebook": "None", "youtube": "None", "website": "None", "summary": "None", "logo": "None", "latitude": 43.69251306523736, "longitude": -79.76543371498624}, "850195215RR0001": {"name": "The Church in City of Markham", "designationCode": "C", "categoryCode": "39", "address": "3 OAKCREST AVENUE", "city": "MARKHAM", "province": "ON", "country": "CA", "postalCode": "L3R2B7", "twitter": "None", "instagram": "None", "facebook": "None", "youtube": "None", "website": "None", "summary": "None", "logo": "None", "latitude": 43.86334775520802, "longitude": -79.29603538825116}, "852556505RR0001": {"name": "The Church in Coquitlam", "designationCode": "C", "categoryCode": "39", "address": "1236 DEWAR WAY", "city": "PORT COQUITLAM", "province": "BC", "country": "CA", "postalCode": "V3C5Z1", "twitter": "None", "instagram": "None", "facebook": "None", "youtube": "None", "website": "None", "summary": "None", "logo": "None", "latitude": 49.236387863437095, "longitude": -122.78650189006882}, "889956819RR0001": {"name": "The Church in Markham", "designationCode": "C", "categoryCode": "39", "address": "4261-A14 HIGHWAY 7 EAST       SUITE 162", "city": "UNIONVILLE", "province": "ON", "country": "CA", "postalCode": "L3R9W6", "twitter": "None", "instagram": "None", "facebook": "None", "youtube": "None", "website": "None", "summary": "None", "logo": "None", "latitude": 43.85342917355781, "longitude": -79.34137899685268}, "815269410RR0001": {"name": "The Church in Mississauga", "designationCode": "C", "categoryCode": "39", "address": "2055 BRITANNIA RD W", "city": "MISSISSAUGA", "province": "ON", "country": "CA", "postalCode": "L5M1P8", "twitter": "None", "instagram": "None", "facebook": "None", "youtube": "None", "website": "None", "summary": "None", "logo": "None", "latitude": 43.58728757926006, "longitude": -79.72348105262832}, "130626260RR0002": {"name": "The Church of the Epiphany", "designationCode": "C", "categoryCode": "30", "address": "560 DUNDAS ST.", "city": "WOODSTOCK", "province": "ON", "country": "CA", "postalCode": "N4S1C7", "twitter": "None", "instagram": "None", "facebook": "None", "youtube": "None", "website": "None", "summary": "None", "logo": "None", "latitude": 43.13048261945314, "longitude": -80.7538195606784}, "831273834RR0001": {"name": "The Church of the Hamiltonians", "designationCode": "C", "categoryCode": "39", "address": "14 HONEYSUCKLE CRES", "city": "ANCASTER", "province": "ON", "country": "CA", "postalCode": "L9K1B1", "twitter": "None", "instagram": "None", "facebook": "None", "youtube": "None", "website": "None", "summary": "None", "logo": "None", "latitude": 43.2341577254892, "longitude": -79.93300721120669}, "802675058RR0001": {"name": "The Church of the Lord Jesus Christ of the Apostolic Faith in Brampton Inc.", "designationCode": "C", "categoryCode": "39", "address": "73 BLOOMSBURRY AVE.", "city": "BRAMPTON", "province": "ON", "country": "CA", "postalCode": "L6P1S6", "twitter": "None", "instagram": "None", "facebook": "None", "youtube": "None", "website": "None", "summary": "None", "logo": "None", "latitude": 43.78115765918395, "longitude": -79.72434152065912}, "108099771RR0066": {"name": "The Church of the Nativity", "designationCode": "C", "categoryCode": "30", "address": "1831 KING STREET EAST", "city": "HAMILTON", "province": "ON", "country": "CA", "postalCode": "L8K1V8", "twitter": "None", "instagram": "None", "facebook": "None", "youtube": "None", "website": "None", "summary": "None", "logo": "None", "latitude": 43.23203320901366, "longitude": -79.80969473812688}, "119208031RR0014": {"name": "The Church of the Northern Apostles", "designationCode": "C", "categoryCode": "30", "address": "45 BOXWOOD CRESCENT", "city": "WHITEHORSE", "province": "YT", "country": "CA", "postalCode": "Y1A4X8", "twitter": "None", "instagram": "None", "facebook": "None", "youtube": "None", "website": "None", "summary": "None", "logo": "None", "latitude": 60.77556866472386, "longitude": -135.1273346411219}, "811071778RR0001": {"name": "The Church of the Saints in Saskatoon Inc.", "designationCode": "C", "categoryCode": "39", "address": "1110 REMPEL PL", "city": "SASKATOON", "province": "SK", "country": "CA", "postalCode": "S7T0M2", "twitter": "None", "instagram": "None", "facebook": "None", "youtube": "None", "website": "None", "summary": "None", "logo": "None", "latitude": 52.08663727728077, "longitude": -106.6077074787926}, "827889437RR0001": {"name": "The Church of Generation for Christ of Edmonton", "designationCode": "C", "categoryCode": "31", "address": "12336 86 STREET NORTHWEST", "city": "EDMONTON", "province": "AB", "country": "CA", "postalCode": "T5B3L2", "twitter": "None", "instagram": "None", "facebook": "None", "youtube": "None", "website": "None", "summary": "None", "logo": "None", "latitude": 53.57939400000001, "longitude": -113.47268028758123}, "814901955RR0001": {"name": "The Church of God (of Theocracy) Society", "designationCode": "B", "categoryCode": "39", "address": "118 ROYAL AVENUE", "city": "NEW WESTMINSTER", "province": "BC", "country": "CA", "postalCode": "V3L1H3", "twitter": "None", "instagram": "None", "facebook": "None", "youtube": "None", "website": "None", "summary": "None", "logo": "None", "latitude": 49.20934045432524, "longitude": -122.90392007020036}, "846175818RR0001": {"name": "The Church of God \"Sabbath Keeping\"", "designationCode": "C", "categoryCode": "39", "address": "312-314 REXDALE BLVD", "city": "ETOBICOKE", "province": "ON", "country": "CA", "postalCode": "M9W1R6", "twitter": "None", "instagram": "None", "facebook": "None", "youtube": "None", "website": "None", "summary": "None", "logo": "None", "latitude": 43.714646139621344, "longitude": -79.58451670246411}, "826993552RR0001": {"name": "The Church of God in Delta", "designationCode": "C", "categoryCode": "39", "address": "11838-88TH AVE", "city": "DELTA", "province": "BC", "country": "CA", "postalCode": "V4C3C5", "twitter": "None", "instagram": "None", "facebook": "None", "youtube": "None", "website": "None", "summary": "None", "logo": "None", "latitude": 49.163144834069975, "longitude": -122.89492684885431}, "131952376RR0003": {"name": "The Church of God of Prophecy of Canada", "designationCode": "C", "categoryCode": "39", "address": "5145 TOMKEN ROAD", "city": "MISSISSAUGA", "province": "ON", "country": "CA", "postalCode": "L4W1P1", "twitter": "None", "instagram": "None", "facebook": "None", "youtube": "None", "website": "None", "summary": "None", "logo": "None", "latitude": 43.629042738299795, "longitude": -79.6354268810378}, "802291864RR0001": {"name": "The Church of God Sabbath Keeping Oshawa", "designationCode": "C", "categoryCode": "39", "address": "42 NASSAU STREET,", "city": "OSHAWA", "province": "ON", "country": "CA", "postalCode": "L1J4A4", "twitter": "None", "instagram": "None", "facebook": "None", "youtube": "None", "website": "None", "summary": "None", "logo": "None", "latitude": 43.8948279014658, "longitude": -78.8700328301689}, "843089590RR0001": {"name": "The Church of Higher Consciousness", "designationCode": "C", "categoryCode": "35", "address": "114 SECOND STREET,", "city": "WELLAND", "province": "ON", "country": "CA", "postalCode": "L3B4T9", "twitter": "None", "instagram": "None", "facebook": "None", "youtube": "None", "website": "None", "summary": "None", "logo": "None", "latitude": 42.98190348990111, "longitude": -79.24596227699232}, "127593515RR0002": {"name": "The Church of Holy Trinity", "designationCode": "C", "categoryCode": "30", "address": "237 WILSON AVE", "city": "KITCHENER", "province": "ON", "country": "CA", "postalCode": "N2C1G9", "twitter": "None", "instagram": "None", "facebook": "None", "youtube": "None", "website": "None", "summary": "None", "logo": "None", "latitude": 43.42616929972893, "longitude": -80.45182448822767}, "846262152RR0001": {"name": "The Church of Jesus Christ according to Acts 2:38 & St. Matthew 16:18 in Canada", "designationCode": "C", "categoryCode": "39", "address": "39 LESTER AVE", "city": "YORK", "province": "ON", "country": "CA", "postalCode": "M6M1W3", "twitter": "None", "instagram": "None", "facebook": "None", "youtube": "None", "website": "None", "summary": "None", "logo": "None", "latitude": 43.69137887870053, "longitude": -79.47318475353457}, "826344632RR0001": {"name": "The Church of Jesus Christ of Latter-Day Saints in Canada", "designationCode": "C", "categoryCode": "39", "address": "P.O. BOX 1800                 348 MAIN STREET", "city": "CARDSTON", "province": "AB", "country": "CA", "postalCode": "T0K0K0", "twitter": "None", "instagram": "None", "facebook": "None", "youtube": "None", "website": "None", "summary": "None", "logo": "None", "latitude": 49.197824999999995, "longitude": -113.30173142616428}, "854405354RR0001": {"name": "The Church of Jesus Christ of Mississauga", "designationCode": "C", "categoryCode": "39", "address": "365 GUYS BOROUGH DR.", "city": "WOODSTOCK", "province": "ON", "country": "CA", "postalCode": "N4T0H3", "twitter": "None", "instagram": "None", "facebook": "None", "youtube": "None", "website": "None", "summary": "None", "logo": "None", "latitude": 43.158012000000056, "longitude": -80.75469499999993}, "108099771RR0104": {"name": "The Church of Our Saviour The Redeemer", "designationCode": "C", "categoryCode": "30", "address": "25 LAKE AVENUE S", "city": "STONEY CREEK", "province": "ON", "country": "CA", "postalCode": "L8G2V1", "twitter": "None", "instagram": "None", "facebook": "None", "youtube": "None", "website": "None", "summary": "None", "logo": "None", "latitude": 43.21519604385709, "longitude": -79.75870887535365}, "119238210RR0021": {"name": "The Church of The Holy Trinity in Gitlaxt'aamiks (New Aiyansh, BC)", "designationCode": "C", "categoryCode": "30", "address": "4727 TAIT AVENUE              POST OFFICE BOX 274", "city": "NEW AIYANSH", "province": "BC", "country": "CA", "postalCode": "V0J1A0", "twitter": "None", "instagram": "None", "facebook": "None", "youtube": "None", "website": "None", "summary": "None", "logo": "None", "latitude": 55.19748814957081, "longitude": -129.07122620303528}, "843363797RR0001": {"name": "The Church of Truth in Toronto", "designationCode": "C", "categoryCode": "39", "address": "# 807 - 111 INVERLOCHY BLVD.", "city": "THORNHILL", "province": "ON", "country": "CA", "postalCode": "L3T3R7", "twitter": "None", "instagram": "None", "facebook": "None", "youtube": "None", "website": "None", "summary": "None", "logo": "None", "latitude": 43.8251256766691, "longitude": -79.42384018189189}, "827879487RR0001": {"name": "The Church Assembly in Vancouver (CAV)", "designationCode": "C", "categoryCode": "39", "address": "4970 WILLOW ST", "city": "VANCOUVER", "province": "BC", "country": "CA", "postalCode": "V5Z3R9", "twitter": "None", "instagram": "None", "facebook": "None", "youtube": "None", "website": "None", "summary": "None", "logo": "None", "latitude": 49.24054699417161, "longitude": -123.12362897276269}, "108140252RR0001": {"name": "The Churchwardens of the Church of Trinity-St. Paul in Port Credit", "designationCode": "C", "categoryCode": "30", "address": "26 STAVEBANK ROAD N", "city": "MISSISSAUGA", "province": "ON", "country": "CA", "postalCode": "L5G2T5", "twitter": "None", "instagram": "None", "facebook": "None", "youtube": "None", "website": "None", "summary": "None", "logo": "None", "latitude": 43.55310072159404, "longitude": -79.58735766792653}, "845859016RR0001": {"name": "The Circle of Turtle Lodge", "designationCode": "C", "categoryCode": "59", "address": "13162B HIGHWAY 60", "city": "GOLDEN LAKE", "province": "ON", "country": "CA", "postalCode": "K0J1X0", "twitter": "None", "instagram": "None", "facebook": "None", "youtube": "None", "website": "None", "summary": "None", "logo": "None", "latitude": 45.59337161198728, "longitude": -77.35402348929523}, "834253080RR0001": {"name": "The Circle on Philanthropy and Aboriginal Peoples in Canada", "designationCode": "C", "categoryCode": "29", "address": "301-75 ALBERT ST", "city": "OTTAWA", "province": "ON", "country": "CA", "postalCode": "K1P5E7", "twitter": "None", "instagram": "None", "facebook": "None", "youtube": "None", "website": "None", "summary": "None", "logo": "None", "latitude": 45.42209635250147, "longitude": -75.69529427228912}, "849854831RR0001": {"name": "The Citrine Foundation of Canada", "designationCode": "B", "categoryCode": "09", "address": "181 BAY STREET                SUITE 1800", "city": "TORONTO", "province": "ON", "country": "CA", "postalCode": "M5J2T9", "twitter": "None", "instagram": "None", "facebook": "None", "youtube": "None", "website": "None", "summary": "None", "logo": "None", "latitude": 43.64734187870053, "longitude": -79.37943361864508}, "106929961RR0001": {"name": "The City of Airdrie Library Board", "designationCode": "C", "categoryCode": "50", "address": "#111  304 MAIN STREET S.", "city": "AIRDRIE", "province": "AB", "country": "CA", "postalCode": "T4B3C3", "twitter": "None", "instagram": "None", "facebook": "None", "youtube": "None", "website": "None", "summary": "None", "logo": "None", "latitude": 51.258374999999994, "longitude": -114.005142}, "815248596RR0001": {"name": "The City of Chestermere Public Library Board", "designationCode": "C", "categoryCode": "50", "address": "105B MARINA RD", "city": "CHESTERMERE", "province": "AB", "country": "CA", "postalCode": "T1X1V7", "twitter": "None", "instagram": "None", "facebook": "None", "youtube": "None", "website": "None", "summary": "None", "logo": "None", "latitude": 51.05294369774962, "longitude": -113.82443782680838}, "849192661RR0001": {"name": "The City of Lethbridge Library Board", "designationCode": "C", "categoryCode": "50", "address": "810 5 AVENUE SOUTH", "city": "LETHBRIDGE", "province": "AB", "country": "CA", "postalCode": "T1J4C4", "twitter": "None", "instagram": "None", "facebook": "None", "youtube": "None", "website": "None", "summary": "None", "logo": "None", "latitude": 49.69301054616571, "longitude": -112.83455258950318}, "819854043RR0001": {"name": "The City Church", "designationCode": "C", "categoryCode": "39", "address": "7320 HOWARD AVENUE", "city": "OLDCASTLE", "province": "ON", "country": "CA", "postalCode": "N0R1L0", "twitter": "None", "instagram": "None", "facebook": "None", "youtube": "None", "website": "None", "summary": "None", "logo": "None", "latitude": 42.12877722639987, "longitude": -83.00423392477312}, "828286286RR0001": {"name": "The City Shul Congregation", "designationCode": "C", "categoryCode": "42", "address": "PO BOX 19044 RPO WALMER", "city": "TORONTO", "province": "ON", "country": "CA", "postalCode": "M5S3C9", "twitter": "None", "instagram": "None", "facebook": "None", "youtube": "None", "website": "None", "summary": "None", "logo": "None", "latitude": 43.685658000000004, "longitude": -79.41281625}, "857741599RR0001": {"name": "The Claremont Union Cemetery Company Limited.", "designationCode": "C", "categoryCode": "59", "address": "4750 SIDELINE 12", "city": "CLAREMONT", "province": "ON", "country": "CA", "postalCode": "L1Y1A2", "twitter": "None", "instagram": "None", "facebook": "None", "youtube": "None", "website": "None", "summary": "None", "logo": "None", "latitude": 43.969099768509565, "longitude": -79.09689521337013}, "803435841RR0001": {"name": "The Clarke Family Scholarship Trust", "designationCode": "B", "categoryCode": "21", "address": "10421 HURON WOOD DRIVE,", "city": "GRAND BEND", "province": "ON", "country": "CA", "postalCode": "N0M1T0", "twitter": "None", "instagram": "None", "facebook": "None", "youtube": "None", "website": "None", "summary": "None", "logo": "None", "latitude": 43.29675488490396, "longitude": -81.77964590364653}, "813015302RR0001": {"name": "The Class Afloat Foundation - La Fondation de l'\u00c9cole-en-mer", "designationCode": "C", "categoryCode": "21", "address": "97 KAULBACH STREET", "city": "LUNENBURG", "province": "NS", "country": "CA", "postalCode": "B0J2C0", "twitter": "None", "instagram": "None", "facebook": "None", "youtube": "None", "website": "None", "summary": "None", "logo": "None", "latitude": 44.379836316982924, "longitude": -64.31312764507435}, "848389813RR0001": {"name": "The Claude and Annette Tetrault Family Foundation Inc.", "designationCode": "B", "categoryCode": "03", "address": "190 EASY ST", "city": "WINNIPEG", "province": "MB", "country": "CA", "postalCode": "R2N3C1", "twitter": "None", "instagram": "None", "facebook": "None", "youtube": "None", "website": "None", "summary": "None", "logo": "None", "latitude": 49.80326131833924, "longitude": -97.11844106552583}, "712015890RR0001": {"name": "The Claudia Cup Foundation Inc.", "designationCode": "C", "categoryCode": "09", "address": "87 ELIZABETH AVE", "city": "ST. JOHN'S", "province": "NL", "country": "CA", "postalCode": "A1B1R6", "twitter": "None", "instagram": "None", "facebook": "None", "youtube": "None", "website": "None", "summary": "None", "logo": "None", "latitude": 47.581507131828346, "longitude": -52.713737405276405}, "855363172RR0001": {"name": "The Clearview Foundation", "designationCode": "B", "categoryCode": "03", "address": "51 YONGE STREET, SUITE 400", "city": "TORONTO", "province": "ON", "country": "CA", "postalCode": "M5E1J1", "twitter": "None", "instagram": "None", "facebook": "None", "youtube": "None", "website": "None", "summary": "None", "logo": "None", "latitude": 43.648135983351565, "longitude": -79.37742823339504}, "836104752RR0001": {"name": "The Clematis Foundation", "designationCode": "B", "categoryCode": "03", "address": "1284 WELLINGTON STREET", "city": "OTTAWA", "province": "ON", "country": "CA", "postalCode": "K1Y3A9", "twitter": "None", "instagram": "None", "facebook": "None", "youtube": "None", "website": "None", "summary": "None", "logo": "None", "latitude": 45.398972809308205, "longitude": -75.73517448958398}, "836137422RR0001": {"name": "The Club Inclusion", "designationCode": "C", "categoryCode": "56", "address": "2185 QUINN STREET", "city": "HALIFAX", "province": "NS", "country": "CA", "postalCode": "B3L3E5", "twitter": "None", "instagram": "None", "facebook": "None", "youtube": "None", "website": "None", "summary": "None", "logo": "None", "latitude": 44.64272943020366, "longitude": -63.61034806659369}, "843622556RR0001": {"name": "The Cmolik Foundation", "designationCode": "B", "categoryCode": "25", "address": "210-2121 152ND STREET", "city": "SURRREY", "province": "BC", "country": "CA", "postalCode": "V4A4P1", "twitter": "None", "instagram": "None", "facebook": "None", "youtube": "None", "website": "None", "summary": "None", "logo": "None", "latitude": 49.043808006600464, "longitude": -122.8012515}, "809684525RR0001": {"name": "The Coal Mine Theatre", "designationCode": "C", "categoryCode": "22", "address": "20 COLONY RD", "city": "SCARBOROUGH", "province": "ON", "country": "CA", "postalCode": "M1R3S2", "twitter": "None", "instagram": "None", "facebook": "None", "youtube": "None", "website": "None", "summary": "None", "logo": "None"}, "833004047RR0001": {"name": "The Coaldale & District Handi-Ride Association LTD.", "designationCode": "C", "categoryCode": "09", "address": "1709 - 20TH AVENUE            POST OFFICE BOX 1360", "city": "COALDALE", "province": "AB", "country": "CA", "postalCode": "T1M1N2", "twitter": "None", "instagram": "None", "facebook": "None", "youtube": "None", "website": "None", "summary": "None", "logo": "None", "latitude": 49.72751150346245, "longitude": -112.61866016472388}, "862661782RR0001": {"name": "The Cobequid Cultural Centre of the Arts Society", "designationCode": "C", "categoryCode": "22", "address": "45 CONNOLLY ROAD", "city": "SACKVILLE", "province": "NS", "country": "CA", "postalCode": "B4E1S6", "twitter": "None", "instagram": "None", "facebook": "None", "youtube": "None", "website": "None", "summary": "None", "logo": "None", "latitude": 44.7770960366688, "longitude": -63.69980191495753}, "844730218RR0001": {"name": "The Cobequid Veteran's Memorial Park Society", "designationCode": "B", "categoryCode": "59", "address": "5653 HIGHWAY #2               PO BOX 51", "city": "BASS RIVER", "province": "NS", "country": "CA", "postalCode": "B0M1B0", "twitter": "None", "instagram": "None", "facebook": "None", "youtube": "None", "website": "None", "summary": "None", "logo": "None", "latitude": 45.414824877929036, "longitude": -63.779103646454644}, "812804524RR0001": {"name": "The Cockeram Family Foundation Inc.", "designationCode": "B", "categoryCode": "03", "address": "62 CEDAR DR", "city": "ROTHESAY", "province": "NB", "country": "CA", "postalCode": "E2H1S4", "twitter": "None", "instagram": "None", "facebook": "None", "youtube": "None", "website": "None", "summary": "None", "logo": "None", "latitude": 45.3732430665937, "longitude": -65.99866602527543}, "838533685RR0001": {"name": "The Coffey Family Foundation", "designationCode": "B", "categoryCode": "05", "address": "78 MUNRO BLVD.", "city": "TORONTO", "province": "ON", "country": "CA", "postalCode": "M2P1C4", "twitter": "None", "instagram": "None", "facebook": "None", "youtube": "None", "website": "None", "summary": "None", "logo": "None", "latitude": 43.746879183478434, "longitude": -79.39409764530548}, "133597476RR0001": {"name": "The Colchester East Hants Health Centre Foundation", "designationCode": "A", "categoryCode": "13", "address": "600 ABENAKI RD", "city": "TRURO", "province": "NS", "country": "CA", "postalCode": "B2N5A1", "twitter": "None", "instagram": "None", "facebook": "None", "youtube": "None", "website": "None", "summary": "None", "logo": "None", "latitude": 45.350324297797314, "longitude": -63.305570699395126}, "825209612RR0001": {"name": "The Colin & Lois Pritchard Foundation", "designationCode": "B", "categoryCode": "03", "address": "3664 SPIERS ROAD", "city": "KELOWNA", "province": "BC", "country": "CA", "postalCode": "V1W4A9", "twitter": "None", "instagram": "None", "facebook": "None", "youtube": "None", "website": "None", "summary": "None", "logo": "None", "latitude": 49.85024532771148, "longitude": -119.44158489896907}, "820035137RR0001": {"name": "The Colombo Canadian Alliance for Development Ltd.", "designationCode": "C", "categoryCode": "21", "address": "294 COUGAR PLATEAU WAY SW", "city": "CALGARY", "province": "AB", "country": "CA", "postalCode": "T3H5S1", "twitter": "None", "instagram": "None", "facebook": "None", "youtube": "None", "website": "None", "summary": "None", "logo": "None", "latitude": 51.06884156924809, "longitude": -114.20578504982969}, "105202758RR0001": {"name": "The Colwyn and Jean Rich Foundation / La Fondation Colwyn etJean Rich", "designationCode": "B", "categoryCode": "21", "address": "24 RUE CANVIN", "city": "KIRKLAND", "province": "QC", "country": "CA", "postalCode": "H9H4S4", "twitter": "None", "instagram": "None", "facebook": "None", "youtube": "None", "website": "None", "summary": "None", "logo": "None", "latitude": 45.449612048271824, "longitude": -73.83663754022174}, "770584894RR0001": {"name": "The Comfie Cat Shelter", "designationCode": "C", "categoryCode": "54", "address": "112 NORWELD DR", "city": "ORILLIA", "province": "ON", "country": "CA", "postalCode": "L3V7W5", "twitter": "None", "instagram": "None", "facebook": "None", "youtube": "None", "website": "None", "summary": "None", "logo": "None", "latitude": 44.60016830200794, "longitude": -79.41544159411947}, "119298628RR0001": {"name": "The Community Arts Council of Williams Lake", "designationCode": "C", "categoryCode": "22", "address": "90 FOURTH AVE N", "city": "WILLIAMS LAKE", "province": "BC", "country": "CA", "postalCode": "V2G2C6", "twitter": "None", "instagram": "None", "facebook": "None", "youtube": "None", "website": "None", "summary": "None", "logo": "None", "latitude": 52.129439492715484, "longitude": -122.14060054198704}, "843140955RR0002": {"name": "The Community Spirit Fund Inc.", "designationCode": "B", "categoryCode": "03", "address": "P.O. BOX 5888", "city": "SAINT JOHN", "province": "NB", "country": "CA", "postalCode": "E2L4M3", "twitter": "None", "instagram": "None", "facebook": "None", "youtube": "None", "website": "None", "summary": "None", "logo": "None", "latitude": 45.27342600000006, "longitude": -66.06407149999993}, "835050568RR0001": {"name": "The Community Village Society of the Peace Country", "designationCode": "C", "categoryCode": "59", "address": "10113 103 AVENUE", "city": "GRANDE PRAIRIE", "province": "AB", "country": "CA", "postalCode": "T8V1C2", "twitter": "None", "instagram": "None", "facebook": "None", "youtube": "None", "website": "None", "summary": "None", "logo": "None", "latitude": 55.17344250678067, "longitude": -118.79792983236194}, "839177177RR0001": {"name": "The Community Waterfront Heritage Centre", "designationCode": "C", "categoryCode": "50", "address": "PO BOX 82 STN MAIN", "city": "OWEN SOUND", "province": "ON", "country": "CA", "postalCode": "N4K5P1", "twitter": "None", "instagram": "None", "facebook": "None", "youtube": "None", "website": "None", "summary": "None", "logo": "None", "latitude": 44.56423500000005, "longitude": -80.94243049999993}, "790984892RR0001": {"name": "The Compass Church Regina, Inc.", "designationCode": "C", "categoryCode": "39", "address": "70 FROOM CRES", "city": "REGINA", "province": "SK", "country": "CA", "postalCode": "S4N1S7", "twitter": "None", "instagram": "None", "facebook": "None", "youtube": "None", "website": "None", "summary": "None", "logo": "None", "latitude": 50.445514402186944, "longitude": -104.5661165523112}, "824895197RR0001": {"name": "The Compassion Project", "designationCode": "C", "categoryCode": "11", "address": "9028 208 ST NW", "city": "EDMONTON", "province": "AB", "country": "CA", "postalCode": "T5T1X6", "twitter": "None", "instagram": "None", "facebook": "None", "youtube": "None", "website": "None", "summary": "None", "logo": "None", "latitude": 53.52575671357263, "longitude": -113.67667583905569}, "893699462RR0001": {"name": "The Compassionate Friends of Canada", "designationCode": "C", "categoryCode": "11", "address": "4 - 69 CAMPBELL CRES SE", "city": "MEDICINE HAT", "province": "AB", "country": "CA", "postalCode": "T1B1J7", "twitter": "None", "instagram": "None", "facebook": "None", "youtube": "None", "website": "None", "summary": "None", "logo": "None", "latitude": 50.01265683735361, "longitude": -110.64009963613023}, "718641897RR0001": {"name": "The Concord Projects Foundation Inc.", "designationCode": "B", "categoryCode": "03", "address": "200-1277 HENDERSON HIGHWAY", "city": "WINNIPEG", "province": "MB", "country": "CA", "postalCode": "R2G1W3", "twitter": "None", "instagram": "None", "facebook": "None", "youtube": "None", "website": "None", "summary": "None", "logo": "None", "latitude": 49.9520986258125, "longitude": -97.07849528432142}, "107396905RR0044": {"name": "The Connector, A Foursquare Gospel Church", "designationCode": "C", "categoryCode": "39", "address": "PO BOX 32020", "city": "WEST KELOWNA", "province": "BC", "country": "CA", "postalCode": "V4T3G2", "twitter": "None", "instagram": "None", "facebook": "None", "youtube": "None", "website": "None", "summary": "None", "logo": "None", "latitude": 49.82958600000005, "longitude": -119.62961449999993}, "803288455RR0001": {"name": "The ConneXion Inc.", "designationCode": "C", "categoryCode": "39", "address": "PO BOX 1330", "city": "ARBORG", "province": "MB", "country": "CA", "postalCode": "R0C0A0", "twitter": "None", "instagram": "None", "facebook": "None", "youtube": "None", "website": "None", "summary": "None", "logo": "None", "latitude": 50.91022850109325, "longitude": -97.2043884534773}, "778728923RR0001": {"name": "The Cons Family Foundation La Fondation Famille Cons", "designationCode": "B", "categoryCode": "03", "address": "6800 BOUL DES GRANDES-PRAIRIES", "city": "SAINT-LEONARD", "province": "QC", "country": "CA", "postalCode": "H1P3P3", "twitter": "None", "instagram": "None", "facebook": "None", "youtube": "None", "website": "None", "summary": "None", "logo": "None", "latitude": 45.607593272231796, "longitude": -73.60244277540579}, "801327602RR0001": {"name": "The Continuing Education Fund of the Anglican Church of Canada", "designationCode": "C", "categoryCode": "45", "address": "401-625 CHURCH ST", "city": "TORONTO", "province": "ON", "country": "CA", "postalCode": "M4Y2G1", "twitter": "None", "instagram": "None", "facebook": "None", "youtube": "None", "website": "None", "summary": "None", "logo": "None", "latitude": 43.66983358979165, "longitude": -79.38260997082944}}