{"843496654RR0001": {"name": "Alma Children's Education Foundation", "designationCode": "C", "categoryCode": "20", "address": "19 KINGSWOOD ROAD", "city": "TORONTO", "province": "ON", "country": "CA", "postalCode": "M4E3N4", "twitter": "None", "instagram": "None", "facebook": "None", "youtube": "None", "website": "None", "summary": "None", "logo": "None", "latitude": 43.67439734416293, "longitude": -79.28336755756266}, "813351129RR0001": {"name": "Alma United Cemetery", "designationCode": "C", "categoryCode": "59", "address": "16 GREENHILL DR", "city": "ALMA", "province": "NB", "country": "CA", "postalCode": "E4H1J1", "twitter": "None", "instagram": "None", "facebook": "None", "youtube": "None", "website": "None", "summary": "None", "logo": "None", "latitude": 45.60299893161357, "longitude": -64.94248426222927}, "129995262RR0001": {"name": "Almaguin Adult Learning Centre", "designationCode": "C", "categoryCode": "21", "address": "324 HWY 124", "city": "SOUTH RIVER", "province": "ON", "country": "CA", "postalCode": "P0A1X0", "twitter": "None", "instagram": "None", "facebook": "None", "youtube": "None", "website": "None", "summary": "None", "logo": "None", "latitude": 45.840754537750136, "longitude": -79.37953810743127}, "849021001RR0001": {"name": "Almanarah Presbyterian Church", "designationCode": "C", "categoryCode": "37", "address": "250 HAMILTON ROAD", "city": "LONDON", "province": "ON", "country": "CA", "postalCode": "N5Z1R3", "twitter": "None", "instagram": "None", "facebook": "None", "youtube": "None", "website": "None", "summary": "None", "logo": "None", "latitude": 42.981722328899494, "longitude": -81.22652848098564}, "892989765RR0001": {"name": "Almas Jiwani Foundation", "designationCode": "A", "categoryCode": "03", "address": "502-331 COOPER STREET", "city": "OTTAWA", "province": "ON", "country": "CA", "postalCode": "K2P0G5", "twitter": "None", "instagram": "None", "facebook": "None", "youtube": "None", "website": "None", "summary": "None", "logo": "None", "latitude": 45.41707426868244, "longitude": -75.69447543992717}, "830354858RR0001": {"name": "Almost Famous Players", "designationCode": "C", "categoryCode": "22", "address": "224 JOSEPHINE STREET          P.O. BOX 1899", "city": "WINGHAM", "province": "ON", "country": "CA", "postalCode": "N0G2W0", "twitter": "None", "instagram": "None", "facebook": "None", "youtube": "None", "website": "None", "summary": "None", "logo": "None", "latitude": 43.88551446800122, "longitude": -81.31359584941438}, "842236630RR0001": {"name": "Alongsiders International Foundation", "designationCode": "C", "categoryCode": "09", "address": "1250-1500 WEST GEORGIA STREET POST OFFICE BOX 62", "city": "VANCOUVER", "province": "BC", "country": "CA", "postalCode": "V6G2Z6", "twitter": "None", "instagram": "None", "facebook": "None", "youtube": "None", "website": "None", "summary": "None", "logo": "None", "latitude": 49.290187500000016, "longitude": -123.130035}, "861969426RR0001": {"name": "Alouettes Foundation / Fondation des Alouettes", "designationCode": "C", "categoryCode": "21", "address": "1501 MCGILL COLLEGE AVENUE    SUITE 2600", "city": "MONTREAL", "province": "QC", "country": "CA", "postalCode": "H3A3N9", "twitter": "None", "instagram": "None", "facebook": "None", "youtube": "None", "website": "None", "summary": "None", "logo": "None", "latitude": 45.50235907550915, "longitude": -73.57178011252824}, "800803470RR0001": {"name": "Alpema Foundation", "designationCode": "B", "categoryCode": "03", "address": "198 ST LEONARD'S AVE", "city": "NORTH YORK", "province": "ON", "country": "CA", "postalCode": "M4N1K7", "twitter": "None", "instagram": "None", "facebook": "None", "youtube": "None", "website": "None", "summary": "None", "logo": "None", "latitude": 43.72415215072985, "longitude": -79.38693708702168}, "792952723RR0001": {"name": "Alpha and Omega Christian Ministries", "designationCode": "C", "categoryCode": "39", "address": "512 - 1570 LAWRENCE AVE W", "city": "NORTH YORK", "province": "ON", "country": "CA", "postalCode": "M6L1C2", "twitter": "None", "instagram": "None", "facebook": "None", "youtube": "None", "website": "None", "summary": "None", "logo": "None", "latitude": 43.706290499999994, "longitude": -79.48799324999999}, "807498712RR0001": {"name": "Alpha Revelation Foundation Corp.", "designationCode": "C", "categoryCode": "39", "address": "407 COXWELL AVENUE", "city": "TORONTO", "province": "ON", "country": "CA", "postalCode": "M4L3B9", "twitter": "None", "instagram": "None", "facebook": "None", "youtube": "None", "website": "None", "summary": "None", "logo": "None", "latitude": 43.6767668484621, "longitude": -79.3208206168274}, "890600190RR0001": {"name": "Alphab\u00e9tisation de Ch\u00e2teauguay Valley", "designationCode": "C", "categoryCode": "21", "address": "45 RUE DUPONT OUEST", "city": "CHATEAUGUAY", "province": "QC", "country": "CA", "postalCode": "J6J1G1", "twitter": "None", "instagram": "None", "facebook": "None", "youtube": "None", "website": "None", "summary": "None", "logo": "None", "latitude": 45.37918739107845, "longitude": -73.746068464193}, "118784297RR0001": {"name": "Alphab\u00e9tisation Qu\u00e9bec/Literacy Qu\u00e9bec", "designationCode": "C", "categoryCode": "21", "address": "A518A - 1001 RUE LENOIR", "city": "MONTREAL", "province": "QC", "country": "CA", "postalCode": "H4C2Z6", "twitter": "None", "instagram": "None", "facebook": "None", "youtube": "None", "website": "None", "summary": "None", "logo": "None", "latitude": 45.47701380630713, "longitude": -73.59315707337436}, "826465031RR0001": {"name": "AlphaNet Canada", "designationCode": "C", "categoryCode": "11", "address": "10 FOUR SEASONS PLACE         SUITE 1000", "city": "TORONTO", "province": "ON", "country": "CA", "postalCode": "M9B6H7", "twitter": "None", "instagram": "None", "facebook": "None", "youtube": "None", "website": "None", "summary": "None", "logo": "None", "latitude": 43.64759491808554, "longitude": -79.56151605761997}, "854263720RR0001": {"name": "Alqalam Islamic Community Centre", "designationCode": "C", "categoryCode": "60", "address": "2430 DUFFERIN ST", "city": "YORK", "province": "ON", "country": "CA", "postalCode": "M6E3T1", "twitter": "None", "instagram": "None", "facebook": "None", "youtube": "None", "website": "None", "summary": "None", "logo": "None", "latitude": 43.697984909515874, "longitude": -79.45116036750511}, "874063274RR0001": {"name": "Altadore Elementary School Parents' Association", "designationCode": "C", "categoryCode": "21", "address": "4506 - 16TH STREET SW", "city": "CALGARY", "province": "AB", "country": "CA", "postalCode": "T2T4H9", "twitter": "None", "instagram": "None", "facebook": "None", "youtube": "None", "website": "None", "summary": "None", "logo": "None", "latitude": 51.01387132944774, "longitude": -114.10040837356463}, "119227528RR0001": {"name": "Alterna Charity Trust", "designationCode": "B", "categoryCode": "75", "address": "319 MCRAE AVE", "city": "OTTAWA", "province": "ON", "country": "CA", "postalCode": "K1Z0B9", "twitter": "None", "instagram": "None", "facebook": "None", "youtube": "None", "website": "None", "summary": "None", "logo": "None", "latitude": 45.39583341967207, "longitude": -75.75011722295037}, "870268307RR0001": {"name": "Alternative de vie-\u00e9veil social (AVES)", "designationCode": "C", "categoryCode": "21", "address": "518 AV DES OBLATS", "city": "QUEBEC", "province": "QC", "country": "CA", "postalCode": "G1N1V6", "twitter": "None", "instagram": "None", "facebook": "None", "youtube": "None", "website": "None", "summary": "None", "logo": "None", "latitude": 46.80934045934556, "longitude": -71.23919731002935}, "889610697RR0001": {"name": "Alternative jeunesse Mont-Sainte-Anne", "designationCode": "C", "categoryCode": "09", "address": "1, RUE FATIMA                 C.P. 2042", "city": "BEAUPR\u00c9", "province": "QC", "country": "CA", "postalCode": "G0A1E0", "twitter": "None", "instagram": "None", "facebook": "None", "youtube": "None", "website": "None", "summary": "None", "logo": "None"}, "141169086RR0001": {"name": "Alternatives, r\u00e9seau d'action et de communication pour le d\u00e9veloppement international inc", "designationCode": "C", "categoryCode": "09", "address": "3720 AVENUE DU PARC           BUREAU 300", "city": "MONTREAL", "province": "QC", "country": "CA", "postalCode": "H2X2J1", "twitter": "None", "instagram": "None", "facebook": "None", "youtube": "None", "website": "None", "summary": "None", "logo": "None", "latitude": 45.511253582001366, "longitude": -73.57763205358061}, "807025440RR0001": {"name": "Altona Health Care Auxiliary", "designationCode": "C", "categoryCode": "13", "address": "POST OFFICE BOX 660", "city": "ALTONA", "province": "MB", "country": "CA", "postalCode": "R0G0B0", "twitter": "None", "instagram": "None", "facebook": "None", "youtube": "None", "website": "None", "summary": "None", "logo": "None", "latitude": 49.10353800000006, "longitude": -97.55120149999993}, "851241018RR0001": {"name": "Aluna Theatre", "designationCode": "C", "categoryCode": "22", "address": "124-1 WILTSHIRE AVE", "city": "TORONTO", "province": "ON", "country": "CA", "postalCode": "M6N2V7", "twitter": "None", "instagram": "None", "facebook": "None", "youtube": "None", "website": "None", "summary": "None", "logo": "None", "latitude": 43.66803733467055, "longitude": -79.45088461091305}, "855601597RR0001": {"name": "Always Care Christian Ministries", "designationCode": "C", "categoryCode": "39", "address": "203 - 10216 YONGE ST", "city": "RICHMOND HILL", "province": "ON", "country": "CA", "postalCode": "L4C3B6", "twitter": "None", "instagram": "None", "facebook": "None", "youtube": "None", "website": "None", "summary": "None", "logo": "None", "latitude": 43.87658683957529, "longitude": -79.43850890885204}, "825692866RR0001": {"name": "Alzheimer Society of Brant, Haldimand Norfolk, Hamilton Halton", "designationCode": "C", "categoryCode": "11", "address": "6 BELL LANE, SUITE 701", "city": "BRANTFORD", "province": "ON", "country": "CA", "postalCode": "N3T0C3", "twitter": "None", "instagram": "None", "facebook": "None", "youtube": "None", "website": "None", "summary": "None", "logo": "None", "latitude": 43.127236872431595, "longitude": -80.27586149906604}, "118784909RR0001": {"name": "Alzheimer Society of Hastings-Prince Edward", "designationCode": "C", "categoryCode": "11", "address": "470 DUNDAS ST E", "city": "BELLEVILLE", "province": "ON", "country": "CA", "postalCode": "K8N1G1", "twitter": "None", "instagram": "None", "facebook": "None", "youtube": "None", "website": "None", "summary": "None", "logo": "None", "latitude": 44.16751503996453, "longitude": -77.35325668305202}, "812717270RR0001": {"name": "Alzheimer Society Niagara Foundation", "designationCode": "A", "categoryCode": "13", "address": "403 ONTARIO STREET            UNIT 1", "city": "ST. CATHARINES", "province": "ON", "country": "CA", "postalCode": "L2N1L5", "twitter": "None", "instagram": "None", "facebook": "None", "youtube": "None", "website": "None", "summary": "None", "logo": "None", "latitude": 43.18256491095817, "longitude": -79.26662978258862}, "124237124RR0001": {"name": "Alzheimer Society Sudbury-Manitoulin North Bay & Soci\u00e9t\u00e9 Alzheimer Sudbury-Manitoulin North Bay et districts", "designationCode": "C", "categoryCode": "11", "address": "960B NOTRE DAME AVENUE", "city": "SUDBURY", "province": "ON", "country": "CA", "postalCode": "P3A2T4", "twitter": "None", "instagram": "None", "facebook": "None", "youtube": "None", "website": "None", "summary": "None", "logo": "None", "latitude": 46.51758711982142, "longitude": -80.98419311074548}, "818604563RR0001": {"name": "Alzheimer's Association International", "designationCode": "A", "categoryCode": "03", "address": "900 - 895 DON MILLS RD", "city": "NORTH YORK", "province": "ON", "country": "CA", "postalCode": "M3C1W3", "twitter": "None", "instagram": "None", "facebook": "None", "youtube": "None", "website": "None", "summary": "None", "logo": "None", "latitude": 43.708179055694835, "longitude": -79.33384518793717}, "846418242RR0001": {"name": "Am\u00e9lioration Jeunesse Internationale / Youth Upliftment International", "designationCode": "C", "categoryCode": "20", "address": "16802 HYMUS BLVD.", "city": "KIRLAND", "province": "QC", "country": "CA", "postalCode": "H9H3L2", "twitter": "None", "instagram": "None", "facebook": "None", "youtube": "None", "website": "None", "summary": "None", "logo": "None", "latitude": 45.45129608491556, "longitude": -73.83954099304644}, "845130897RR0001": {"name": "Amabilis Singers Community Choir Society", "designationCode": "C", "categoryCode": "22", "address": "14316 68A AVE", "city": "SURREY", "province": "BC", "country": "CA", "postalCode": "V3W8W4", "twitter": "None", "instagram": "None", "facebook": "None", "youtube": "None", "website": "None", "summary": "None", "logo": "None", "latitude": 49.126892521784306, "longitude": -122.82569002553522}, "118797331RR0001": {"name": "Amalgame MDJ Ouest", "designationCode": "C", "categoryCode": "09", "address": "85A RUE DU GRAND-TRONC", "city": "LEVIS", "province": "QC", "country": "CA", "postalCode": "G6K1C3", "twitter": "None", "instagram": "None", "facebook": "None", "youtube": "None", "website": "None", "summary": "None", "logo": "None", "latitude": 46.700592888776015, "longitude": -71.28633086952104}, "847416138RR0001": {"name": "Amant Foundation", "designationCode": "B", "categoryCode": "03", "address": "21 ROXBOROUGH STREET WEST", "city": "TORONTO", "province": "ON", "country": "CA", "postalCode": "M5R2T9", "twitter": "None", "instagram": "None", "facebook": "None", "youtube": "None", "website": "None", "summary": "None", "logo": "None", "latitude": 43.677925827630084, "longitude": -79.39108504065443}, "876304676RR0001": {"name": "Amarok Society", "designationCode": "C", "categoryCode": "21", "address": "1001-3230 YONGE STREET", "city": "TORONTO", "province": "ON", "country": "CA", "postalCode": "M4N3P6", "twitter": "None", "instagram": "None", "facebook": "None", "youtube": "None", "website": "None", "summary": "None", "logo": "None", "latitude": 43.72931070330083, "longitude": -79.40334626576825}, "824420400RR0001": {"name": "Amazing Agape Christian Church", "designationCode": "C", "categoryCode": "39", "address": "35-10080 KILBY DR", "city": "RICHMOND", "province": "BC", "country": "CA", "postalCode": "V6X3W2", "twitter": "None", "instagram": "None", "facebook": "None", "youtube": "None", "website": "None", "summary": "None", "logo": "None", "latitude": 49.18583060518193, "longitude": -123.11310502436768}, "870400017RR0001": {"name": "Amazing Discoveries Ministries International", "designationCode": "C", "categoryCode": "47", "address": "2013 248TH STREET", "city": "LANGLEY", "province": "BC", "country": "CA", "postalCode": "V4W2B7", "twitter": "None", "instagram": "None", "facebook": "None", "youtube": "None", "website": "None", "summary": "None", "logo": "None", "latitude": 49.037705643632044, "longitude": -122.53694585743489}, "810722207RR0001": {"name": "Amazing Facts Ministries Inc.", "designationCode": "C", "categoryCode": "47", "address": "PO BOX 449", "city": "CRESTON", "province": "BC", "country": "CA", "postalCode": "V0B1G0", "twitter": "None", "instagram": "None", "facebook": "None", "youtube": "None", "website": "None", "summary": "None", "logo": "None", "latitude": 49.738704000000055, "longitude": -115.87167349999993}, "808594733RR0001": {"name": "Amazing Faith Victory Church", "designationCode": "C", "categoryCode": "39", "address": "231 HABKIRK DR", "city": "REGINA", "province": "SK", "country": "CA", "postalCode": "S4S2X5", "twitter": "None", "instagram": "None", "facebook": "None", "youtube": "None", "website": "None", "summary": "None", "logo": "None", "latitude": 50.41107054674262, "longitude": -104.63601069317329}, "757929096RR0001": {"name": "Amazing Grace of Christ Life Ministries", "designationCode": "C", "categoryCode": "39", "address": "200-230 EDDYSTONE AVENUE", "city": "TORONTO", "province": "ON", "country": "CA", "postalCode": "M3N1H7", "twitter": "None", "instagram": "None", "facebook": "None", "youtube": "None", "website": "None", "summary": "None", "logo": "None", "latitude": 43.74794315130678, "longitude": -79.52096009383101}, "833497084RR0001": {"name": "Amazon Rainforest Conservancy", "designationCode": "B", "categoryCode": "59", "address": "404 SCOTT DR", "city": "ORANGEVILLE", "province": "ON", "country": "CA", "postalCode": "L9W4M1", "twitter": "None", "instagram": "None", "facebook": "None", "youtube": "None", "website": "None", "summary": "None", "logo": "None", "latitude": 43.92765293421438, "longitude": -80.11404806148646}, "844273961RR0001": {"name": "Ambassador Baptist Church Inc.", "designationCode": "C", "categoryCode": "31", "address": "685 STEPHEN ST", "city": "MORDEN", "province": "MB", "country": "CA", "postalCode": "R6M1G1", "twitter": "None", "instagram": "None", "facebook": "None", "youtube": "None", "website": "None", "summary": "None", "logo": "None", "latitude": 49.189827456575614, "longitude": -98.11011191909516}, "837207497RR0001": {"name": "Amber Webb-Bowerman Memorial Foundation", "designationCode": "C", "categoryCode": "21", "address": "119 PALIS WAY SW", "city": "CALGARY", "province": "AB", "country": "CA", "postalCode": "T2V3V5", "twitter": "None", "instagram": "None", "facebook": "None", "youtube": "None", "website": "None", "summary": "None", "logo": "None", "latitude": 50.96659582737029, "longitude": -114.11494696696296}, "895792729RR0001": {"name": "Amberheart Cancer Foundation", "designationCode": "C", "categoryCode": "11", "address": "17-21707 DEWDNEY TRUNK RD", "city": "MAPLE RIDGE", "province": "BC", "country": "CA", "postalCode": "V2X3G8", "twitter": "None", "instagram": "None", "facebook": "None", "youtube": "None", "website": "None", "summary": "None", "logo": "None", "latitude": 49.220614504904745, "longitude": -122.61950002553522}, "807747126RR0001": {"name": "Ambi Gala Foundation", "designationCode": "B", "categoryCode": "03", "address": "240 LOGAN AVE", "city": "TORONTO", "province": "ON", "country": "CA", "postalCode": "M4M2N3", "twitter": "None", "instagram": "None", "facebook": "None", "youtube": "None", "website": "None", "summary": "None", "logo": "None", "latitude": 43.65996515875126, "longitude": -79.34229278492683}, "838576775RR0001": {"name": "Amecet Ministries", "designationCode": "C", "categoryCode": "47", "address": "395 ATWOOD LANE", "city": "OAKVILLE", "province": "ON", "country": "CA", "postalCode": "L6H5G4", "twitter": "None", "instagram": "None", "facebook": "None", "youtube": "None", "website": "None", "summary": "None", "logo": "None", "latitude": 43.46438550764605, "longitude": -79.73303407813488}, "805253713RR0001": {"name": "Amen FM", "designationCode": "C", "categoryCode": "45", "address": "206 - 1085 BELLAMY RD N", "city": "SCARBOROUGH", "province": "ON", "country": "CA", "postalCode": "M1H3C7", "twitter": "None", "instagram": "None", "facebook": "None", "youtube": "None", "website": "None", "summary": "None", "logo": "None", "latitude": 43.766741686185334, "longitude": -79.23886220805144}, "850339763RR0001": {"name": "American College of Trial Lawyers Canadian Foundation", "designationCode": "C", "categoryCode": "29", "address": "1300-100 QUEEN ST", "city": "OTTAWA", "province": "ON", "country": "CA", "postalCode": "K1P1J9", "twitter": "None", "instagram": "None", "facebook": "None", "youtube": "None", "website": "None", "summary": "None", "logo": "None", "latitude": 45.42139508037323, "longitude": -75.698793}, "823641295RR0001": {"name": "Ames Family Foundation", "designationCode": "B", "categoryCode": "03", "address": "2431 BETA AVENUE", "city": "BURNABY", "province": "BC", "country": "CA", "postalCode": "V5C5N1", "twitter": "None", "instagram": "None", "facebook": "None", "youtube": "None", "website": "None", "summary": "None", "logo": "None", "latitude": 49.26351637406419, "longitude": -122.99767968393563}, "835490327RR0001": {"name": "Amgits Community Involvement Association Inc.", "designationCode": "C", "categoryCode": "19", "address": "BOX 39", "city": "NORTH BATTLEFORD", "province": "SK", "country": "CA", "postalCode": "S9A2X8", "twitter": "None", "instagram": "None", "facebook": "None", "youtube": "None", "website": "None", "summary": "None", "logo": "None", "latitude": 52.77640200000006, "longitude": -108.29903299999994}, "119288918RR1607": {"name": "Amharic North Congregation of Jehovah's Witnesses, Calgary, Alberta", "designationCode": "C", "categoryCode": "61", "address": "2900 - 14 AVENUE NORTHEAST", "city": "CALGARY", "province": "AB", "country": "CA", "postalCode": "T2A6J4", "twitter": "None", "instagram": "None", "facebook": "None", "youtube": "None", "website": "None", "summary": "None", "logo": "None", "latitude": 51.06510652596792, "longitude": -113.99202008381903}, "854331394RR0001": {"name": "Amherst & District Residential Services Society", "designationCode": "C", "categoryCode": "10", "address": "82 WILLOW STREET", "city": "AMHERST", "province": "NS", "country": "CA", "postalCode": "B4H3W5", "twitter": "None", "instagram": "None", "facebook": "None", "youtube": "None", "website": "None", "summary": "None", "logo": "None", "latitude": 45.834892667522496, "longitude": -64.19422573907919}, "815545850RR0001": {"name": "Amherst Head Cemeteries Society", "designationCode": "C", "categoryCode": "59", "address": "3680 HIGHWAY 6                RR 4", "city": "AMHERST", "province": "NS", "country": "CA", "postalCode": "B4H3Y2", "twitter": "None", "instagram": "None", "facebook": "None", "youtube": "None", "website": "None", "summary": "None", "logo": "None", "latitude": 45.88583787237207, "longitude": -63.99928304775217}, "106708175RR0002": {"name": "Amherst Pre-School Association", "designationCode": "C", "categoryCode": "20", "address": "1 RATCHFORD STREET", "city": "AMHERST", "province": "NS", "country": "CA", "postalCode": "B4H1X2", "twitter": "None", "instagram": "None", "facebook": "None", "youtube": "None", "website": "None", "summary": "None", "logo": "None", "latitude": 45.834116284897796, "longitude": -64.21111390979694}, "853991453RR0001": {"name": "Amherstburg Community Foundation", "designationCode": "A", "categoryCode": "03", "address": "271 SANDWICH STREET SOUTH", "city": "AMHERSTBURG", "province": "ON", "country": "CA", "postalCode": "N9V2A5", "twitter": "None", "instagram": "None", "facebook": "None", "youtube": "None", "website": "None", "summary": "None", "logo": "None", "latitude": 42.101763316694466, "longitude": -83.1088201113744}, "848055893RR0001": {"name": "Amici String Program Association", "designationCode": "C", "categoryCode": "22", "address": "1412-47TH ST. SW", "city": "CALGARY", "province": "AB", "country": "CA", "postalCode": "T3C2C8", "twitter": "None", "instagram": "None", "facebook": "None", "youtube": "None", "website": "None", "summary": "None", "logo": "None", "latitude": 51.0411645262277, "longitude": -114.15574015347114}, "845859099RR0001": {"name": "Amigos de L.U.I.S. Inc.", "designationCode": "C", "categoryCode": "09", "address": "778 ARCHIBALD STREET", "city": "WINNIPEG", "province": "MB", "country": "CA", "postalCode": "R2J0Y4", "twitter": "None", "instagram": "None", "facebook": "None", "youtube": "None", "website": "None", "summary": "None", "logo": "None", "latitude": 49.87688007022903, "longitude": -97.0961606022278}, "834757627RR0001": {"name": "Amis de Gabrielle Roy inc. / Friends of Gabrielle Roy Inc.", "designationCode": "C", "categoryCode": "21", "address": "18 PLACE BEECHWOOD", "city": "WINNIPEG", "province": "MB", "country": "CA", "postalCode": "R2H1L1", "twitter": "None", "instagram": "None", "facebook": "None", "youtube": "None", "website": "None", "summary": "None", "logo": "None", "latitude": 49.874372550637766, "longitude": -97.13423155689883}, "834946063RR0001": {"name": "Amis du/Friends of Mus\u00e9e de Saint-Boniface Museum Inc.", "designationCode": "A", "categoryCode": "50", "address": "494, AVENUE TACH\u00c9", "city": "WINNIPEG", "province": "MB", "country": "CA", "postalCode": "R2H2B2", "twitter": "None", "instagram": "None", "facebook": "None", "youtube": "None", "website": "None", "summary": "None", "logo": "None", "latitude": 49.88775654454957, "longitude": -97.12391889889831}, "836815514RR0001": {"name": "Amis et Riverains de la Rivi\u00e8re Chateauguay", "designationCode": "C", "categoryCode": "52", "address": "62 SALABERRY NORD", "city": "CHATEAUGUAY", "province": "QC", "country": "CA", "postalCode": "J6J4K2", "twitter": "None", "instagram": "None", "facebook": "None", "youtube": "None", "website": "None", "summary": "None", "logo": "None", "latitude": 45.368347242858746, "longitude": -73.75104868177633}, "857317259RR0001": {"name": "Amistad Canada", "designationCode": "C", "categoryCode": "09", "address": "14 - 2530 SIXTH LINE", "city": "OAKVILLE", "province": "ON", "country": "CA", "postalCode": "L6H6W5", "twitter": "None", "instagram": "None", "facebook": "None", "youtube": "None", "website": "None", "summary": "None", "logo": "None", "latitude": 43.47685374961076, "longitude": -79.72609177857883}, "858951890RR0001": {"name": "Amiti\u00e9 Gatineau-Monde", "designationCode": "C", "categoryCode": "09", "address": "156 RUE DE L'OREE-DES-BOIS", "city": "GATINEAU", "province": "QC", "country": "CA", "postalCode": "J8R2L6", "twitter": "None", "instagram": "None", "facebook": "None", "youtube": "None", "website": "None", "summary": "None", "logo": "None", "latitude": 45.50591852120741, "longitude": -75.65739921856428}, "805965092RR0001": {"name": "Amity Foundation", "designationCode": "C", "categoryCode": "21", "address": "SUITE 201                     1300 STEELES AVENUE EAST", "city": "BRAMPTON", "province": "ON", "country": "CA", "postalCode": "L6T1A2", "twitter": "None", "instagram": "None", "facebook": "None", "youtube": "None", "website": "None", "summary": "None", "logo": "None", "latitude": 43.690706054705785, "longitude": -79.70615162453078}, "803509694RR0001": {"name": "Amped 2 go International Leadership Exchange", "designationCode": "C", "categoryCode": "47", "address": "107 SIMCOE ROAD", "city": "BRECHIN", "province": "ON", "country": "CA", "postalCode": "L0K1B0", "twitter": "None", "instagram": "None", "facebook": "None", "youtube": "None", "website": "None", "summary": "None", "logo": "None", "latitude": 44.541652885336966, "longitude": -79.19884617303376}, "119211282RR0001": {"name": "Amref Health Africa in Canada", "designationCode": "C", "categoryCode": "11", "address": "489 COLLEGE ST STE 403", "city": "TORONTO", "province": "ON", "country": "CA", "postalCode": "M6G1A5", "twitter": "None", "instagram": "None", "facebook": "None", "youtube": "None", "website": "None", "summary": "None", "logo": "None", "latitude": 43.65612194030255, "longitude": -79.40932477226045}, "106708977RR0002": {"name": "Amyotrophic Lateral Sclerosis Society of Canada Soci\u00e9t\u00e9 Canadienne de la Scl\u00e9rose Lat\u00e9rale Amyotrophique", "designationCode": "C", "categoryCode": "11", "address": "1701 - 393 UNIVERSITY AVE", "city": "TORONTO", "province": "ON", "country": "CA", "postalCode": "M5G1E6", "twitter": "None", "instagram": "None", "facebook": "None", "youtube": "None", "website": "None", "summary": "None", "logo": "None", "latitude": 43.653861019995304, "longitude": -79.38771027999343}, "888971371RR0001": {"name": "An-Noor Private School", "designationCode": "C", "categoryCode": "20", "address": "1480 JANETTE AVENUE", "city": "WINDSOR", "province": "ON", "country": "CA", "postalCode": "N8X1Z4", "twitter": "None", "instagram": "None", "facebook": "None", "youtube": "None", "website": "None", "summary": "None", "logo": "None", "latitude": 42.29862656658424, "longitude": -83.03479924728535}, "824795066RR0001": {"name": "Anandam Dancetheatre Productions", "designationCode": "C", "categoryCode": "22", "address": "307 - 38 ABELL ST", "city": "TORONTO", "province": "ON", "country": "CA", "postalCode": "M6J0A2", "twitter": "None", "instagram": "None", "facebook": "None", "youtube": "None", "website": "None", "summary": "None", "logo": "None", "latitude": 43.64253234638597, "longitude": -79.42426325254714}, "844104265RR0001": {"name": "Anatolia Cultural Foundation", "designationCode": "C", "categoryCode": "22", "address": "308 - 3701 CHESSWOOD DR", "city": "NORTH YORK", "province": "ON", "country": "CA", "postalCode": "M3J2P6", "twitter": "None", "instagram": "None", "facebook": "None", "youtube": "None", "website": "None", "summary": "None", "logo": "None", "latitude": 43.75604851736958, "longitude": -79.47429778960137}, "832107387RR0001": {"name": "Anatolian Turkish Islamic Centre of Calgary", "designationCode": "C", "categoryCode": "60", "address": "2937 19 ST NE", "city": "CALGARY", "province": "AB", "country": "CA", "postalCode": "T2E7A2", "twitter": "None", "instagram": "None", "facebook": "None", "youtube": "None", "website": "None", "summary": "None", "logo": "None", "latitude": 51.07870769608749, "longitude": -114.01169575800662}, "887593267RR0001": {"name": "Anba Abraam Charity", "designationCode": "C", "categoryCode": "09", "address": "1250 EGLINTON AVE W           BOX 207 A-12", "city": "MISSISSAUGA", "province": "ON", "country": "CA", "postalCode": "L5V1N3", "twitter": "None", "instagram": "None", "facebook": "None", "youtube": "None", "website": "None", "summary": "None", "logo": "None", "latitude": 43.57903706575697, "longitude": -79.68398310237203}, "845412550RR0001": {"name": "Ancaster Society for the Performing Arts Corporation", "designationCode": "C", "categoryCode": "22", "address": "105 WILSON STREET WEST        UNIT 14", "city": "ANCASTER", "province": "ON", "country": "CA", "postalCode": "L9G1N4", "twitter": "None", "instagram": "None", "facebook": "None", "youtube": "None", "website": "None", "summary": "None", "logo": "None", "latitude": 43.215119659041406, "longitude": -79.99150296001125}, "798049094RR0001": {"name": "Ancaster Village Church Of The Christian and Missionary Alliance in Canada", "designationCode": "C", "categoryCode": "39", "address": "37 HALSON ST", "city": "ANCASTER", "province": "ON", "country": "CA", "postalCode": "L9G2S2", "twitter": "None", "instagram": "None", "facebook": "None", "youtube": "None", "website": "None", "summary": "None", "logo": "None", "latitude": 43.22282085651218, "longitude": -79.97751735662774}, "802226977RR0001": {"name": "Anchor Point Church Inc.", "designationCode": "C", "categoryCode": "39", "address": "1400 PEMBINA HWY", "city": "WINNIPEG", "province": "MB", "country": "CA", "postalCode": "R3T2C1", "twitter": "None", "instagram": "None", "facebook": "None", "youtube": "None", "website": "None", "summary": "None", "logo": "None", "latitude": 49.83834211241269, "longitude": -97.15108252063047}, "766075295RR0001": {"name": "Anciennes Troupes Militaires de Montr\u00e9al", "designationCode": "C", "categoryCode": "50", "address": "1195 RUE SHERBROOKE O", "city": "MONTREAL", "province": "QC", "country": "CA", "postalCode": "H3A1H9", "twitter": "None", "instagram": "None", "facebook": "None", "youtube": "None", "website": "None", "summary": "None", "logo": "None", "latitude": 45.50071925258228, "longitude": -73.57773646367339}, "804860955RR0001": {"name": "Ancoura", "designationCode": "C", "categoryCode": "09", "address": "30 CLEARY AVE", "city": "OTTAWA", "province": "ON", "country": "CA", "postalCode": "K2A4A1", "twitter": "None", "instagram": "None", "facebook": "None", "youtube": "None", "website": "None", "summary": "None", "logo": "None", "latitude": 45.381881502654394, "longitude": -75.7718032598243}, "131690414RR0001": {"name": "Andison Family Foundation Inc.", "designationCode": "B", "categoryCode": "13", "address": "2600-SEVEN EVERGREEN PLACE", "city": "WINNIPEG", "province": "MB", "country": "CA", "postalCode": "R3L2T3", "twitter": "None", "instagram": "None", "facebook": "None", "youtube": "None", "website": "None", "summary": "None", "logo": "None", "latitude": 49.88038517951556, "longitude": -97.1493727004907}, "822656302RR0001": {"name": "Andrew Daniels Fish Stewardship Foundation", "designationCode": "C", "categoryCode": "52", "address": "3952 SOUTH PORTAGE ROAD       RURAL ROUTE 2", "city": "HUNTSVILLE", "province": "ON", "country": "CA", "postalCode": "P1H2J3", "twitter": "None", "instagram": "None", "facebook": "None", "youtube": "None", "website": "None", "summary": "None", "logo": "None", "latitude": 45.306694174372765, "longitude": -79.08302358322304}, "847484706RR0001": {"name": "Andrew J. Lutfy Foundation / Fondation Andrew J. Lutfy", "designationCode": "B", "categoryCode": "03", "address": "5592 FERRIER STREET", "city": "TOWN OF MOUNT-ROYAL", "province": "QC", "country": "CA", "postalCode": "H4P1M2", "twitter": "None", "instagram": "None", "facebook": "None", "youtube": "None", "website": "None", "summary": "None", "logo": "None", "latitude": 45.49244099717272, "longitude": -73.66414227759883}, "823498159RR0001": {"name": "Andrew Wommack Ministries Canada", "designationCode": "C", "categoryCode": "47", "address": "300 STEEPROCK DR", "city": "NORTH YORK", "province": "ON", "country": "CA", "postalCode": "M3J2X1", "twitter": "None", "instagram": "None", "facebook": "None", "youtube": "None", "website": "None", "summary": "None", "logo": "None", "latitude": 43.75878914467032, "longitude": -79.47088759772615}, "807796313RR0001": {"name": "Andrew's Fund Canada", "designationCode": "C", "categoryCode": "30", "address": "32 SPYGLASS RIDGE", "city": "OTTAWA", "province": "ON", "country": "CA", "postalCode": "K2S1R6", "twitter": "None", "instagram": "None", "facebook": "None", "youtube": "None", "website": "None", "summary": "None", "logo": "None", "latitude": 45.2720761517977, "longitude": -75.92506432180168}, "828718395RR0001": {"name": "Andy Polanski Charitable Foundation", "designationCode": "C", "categoryCode": "56", "address": "37 WESTPARK WAY", "city": "FORT SASKATCHEWAN", "province": "AB", "country": "CA", "postalCode": "T8L3W8", "twitter": "None", "instagram": "None", "facebook": "None", "youtube": "None", "website": "None", "summary": "None", "logo": "None"}, "878665017RR0001": {"name": "Angel Flight of British Columbia Society", "designationCode": "C", "categoryCode": "11", "address": "P.O. BOX 2623", "city": "SIDNEY", "province": "BC", "country": "CA", "postalCode": "V8L4C1", "twitter": "None", "instagram": "None", "facebook": "None", "youtube": "None", "website": "None", "summary": "None", "logo": "None", "latitude": 48.65020800000005, "longitude": -123.39842299999994}, "844253328RR0001": {"name": "Angel Flight Alberta Society", "designationCode": "C", "categoryCode": "09", "address": "16106 - 87 STREET NW", "city": "EDMONTON", "province": "AB", "country": "CA", "postalCode": "T5Z3K3", "twitter": "None", "instagram": "None", "facebook": "None", "youtube": "None", "website": "None", "summary": "None", "logo": "None", "latitude": 53.62266948903573, "longitude": -113.47437513284066}, "838593358RR0001": {"name": "Angel Philanthropy Foundation", "designationCode": "A", "categoryCode": "03", "address": "1500 WEST GEORGIA STREET      SUITE 1250   BOX 62", "city": "VANCOUVER", "province": "BC", "country": "CA", "postalCode": "V6G2Z6", "twitter": "None", "instagram": "None", "facebook": "None", "youtube": "None", "website": "None", "summary": "None", "logo": "None", "latitude": 49.2900638104334, "longitude": -123.12989899362336}, "847488269RR0001": {"name": "Angel's Animal Rescue Society", "designationCode": "C", "categoryCode": "54", "address": "2460 TORGERSON RD", "city": "MERRITT", "province": "BC", "country": "CA", "postalCode": "V1K1R5", "twitter": "None", "instagram": "None", "facebook": "None", "youtube": "None", "website": "None", "summary": "None", "logo": "None", "latitude": 50.13505858841791, "longitude": -121.003094249015}, "803356328RR0001": {"name": "Angela and Collin Herbers Family Charitable Foundation", "designationCode": "B", "categoryCode": "03", "address": "437 - 52328 RANGE ROAD 233", "city": "SHERWOOD PARK", "province": "AB", "country": "CA", "postalCode": "T8B0A2", "twitter": "None", "instagram": "None", "facebook": "None", "youtube": "None", "website": "None", "summary": "None", "logo": "None", "latitude": 53.50336317236994, "longitude": -113.32830037275657}, "824759773RR0001": {"name": "Angels & Friends Foundation Corporation", "designationCode": "C", "categoryCode": "11", "address": "1030 PATON TERRACE", "city": "SASKATOON", "province": "SK", "country": "CA", "postalCode": "S7W0C1", "twitter": "None", "instagram": "None", "facebook": "None", "youtube": "None", "website": "None", "summary": "None", "logo": "None", "latitude": 52.15544052899769, "longitude": -106.5565302485429}, "832376156RR0001": {"name": "Angels for Mexico Society Calgary", "designationCode": "C", "categoryCode": "59", "address": "107 SIERRA MORENA CIRCLE SW", "city": "CALGARY", "province": "AB", "country": "CA", "postalCode": "T3H2X1", "twitter": "None", "instagram": "None", "facebook": "None", "youtube": "None", "website": "None", "summary": "None", "logo": "None", "latitude": 51.0172843411045, "longitude": -114.18187840631322}, "858225782RR0001": {"name": "Angels from Heaven Youth Foundation Inc.", "designationCode": "B", "categoryCode": "03", "address": "93 DEERCHASE CIRCLE", "city": "WOODBRIDGE", "province": "ON", "country": "CA", "postalCode": "L4H1B4", "twitter": "None", "instagram": "None", "facebook": "None", "youtube": "None", "website": "None", "summary": "None", "logo": "None", "latitude": 43.80586806523737, "longitude": -79.61359070119471}, "758429526RR0001": {"name": "Angels of Compassion: The Samantha Mason Foundation", "designationCode": "B", "categoryCode": "05", "address": "125 HIGGINS AVE", "city": "WINNIPEG", "province": "MB", "country": "CA", "postalCode": "R3B0B6", "twitter": "None", "instagram": "None", "facebook": "None", "youtube": "None", "website": "None", "summary": "None", "logo": "None", "latitude": 49.90377939165537, "longitude": -97.12747967747715}, "748984929RR0001": {"name": "Angels of Hope Against Human Trafficking", "designationCode": "B", "categoryCode": "09", "address": "1 - 1191 LANSING AVE", "city": "SUDBURY", "province": "ON", "country": "CA", "postalCode": "P3A4C4", "twitter": "None", "instagram": "None", "facebook": "None", "youtube": "None", "website": "None", "summary": "None", "logo": "None", "latitude": 46.523890521422665, "longitude": -80.92911125867762}, "847328333RR0001": {"name": "Angels of Hope Animal Rescue Inc.", "designationCode": "C", "categoryCode": "54", "address": "POST OFFICE BOX 1212          17 BALL CRESCENT", "city": "ESTERHAZY", "province": "SK", "country": "CA", "postalCode": "S0A0X0", "twitter": "None", "instagram": "None", "facebook": "None", "youtube": "None", "website": "None", "summary": "None", "logo": "None", "latitude": 50.64878643864852, "longitude": -102.07400420157133}, "827902560RR0001": {"name": "Angels on Earth Society", "designationCode": "C", "categoryCode": "21", "address": "P.O. BOX 47119                RPO CITY SQUARE MALL", "city": "VANCOUVER", "province": "BC", "country": "CA", "postalCode": "V5Z4L6", "twitter": "None", "instagram": "None", "facebook": "None", "youtube": "None", "website": "None", "summary": "None", "logo": "None", "latitude": 49.26044006665104, "longitude": -123.11631992339431}, "730381720RR0001": {"name": "Anges du Bal", "designationCode": "C", "categoryCode": "09", "address": "2170 RUE DICKSON", "city": "QUEBEC", "province": "QC", "country": "CA", "postalCode": "G1T1C9", "twitter": "None", "instagram": "None", "facebook": "None", "youtube": "None", "website": "None", "summary": "None", "logo": "None", "latitude": 46.780135689162584, "longitude": -71.26144517320664}, "846853406RR0001": {"name": "Angevine Cemetery Society", "designationCode": "C", "categoryCode": "59", "address": "75 POLARA DRIVE", "city": "LOWER SACKVILLE", "province": "NS", "country": "CA", "postalCode": "B4C2B7", "twitter": "None", "instagram": "None", "facebook": "None", "youtube": "None", "website": "None", "summary": "None", "logo": "None", "latitude": 44.779609499567314, "longitude": -63.66895186317728}, "851604041RR0001": {"name": "Angioma Alliance Canada", "designationCode": "C", "categoryCode": "11", "address": "328 CARNEGIE BEACH RD", "city": "PORT PERRY", "province": "ON", "country": "CA", "postalCode": "L9L1B6", "twitter": "None", "instagram": "None", "facebook": "None", "youtube": "None", "website": "None", "summary": "None", "logo": "None", "latitude": 44.20089965973221, "longitude": -78.86089753433511}, "810374132RR0001": {"name": "Anglican Asian and Multicultural Ministries In Canada Society", "designationCode": "C", "categoryCode": "30", "address": "160 - 4611 NO. 6 RD", "city": "RICHMOND", "province": "BC", "country": "CA", "postalCode": "V6V2L3", "twitter": "None", "instagram": "None", "facebook": "None", "youtube": "None", "website": "None", "summary": "None", "logo": "None", "latitude": 49.17999600000002, "longitude": -123.06921249838388}, "826031627RR0001": {"name": "Anglican Church of the Messiah Ottawa", "designationCode": "C", "categoryCode": "30", "address": "315 LISGAR ST", "city": "OTTAWA", "province": "ON", "country": "CA", "postalCode": "K2P0E1", "twitter": "None", "instagram": "None", "facebook": "None", "youtube": "None", "website": "None", "summary": "None", "logo": "None", "latitude": 45.4169324690691, "longitude": -75.69704260895023}, "832496855RR0001": {"name": "Anglican Communion Alliance Inc.", "designationCode": "C", "categoryCode": "30", "address": "PO BOX 374", "city": "BRIGHTON", "province": "ON", "country": "CA", "postalCode": "K0K1H0", "twitter": "None", "instagram": "None", "facebook": "None", "youtube": "None", "website": "None", "summary": "None", "logo": "None", "latitude": 44.04197993003085, "longitude": -77.73788995224774}, "808502199RR0001": {"name": "Anglican Mission of St. Saviour Wabumun", "designationCode": "C", "categoryCode": "30", "address": "PO BOX 222", "city": "WABAMUN", "province": "AB", "country": "CA", "postalCode": "T0E2K0", "twitter": "None", "instagram": "None", "facebook": "None", "youtube": "None", "website": "None", "summary": "None", "logo": "None", "latitude": 53.568336633845774, "longitude": -114.64443560770479}, "833131907RR0001": {"name": "Anglican Network Church of the Good Shepherd (Richmond)", "designationCode": "C", "categoryCode": "39", "address": "7331 DAMPIER CRT", "city": "RICHMOND", "province": "BC", "country": "CA", "postalCode": "V7C5W4", "twitter": "None", "instagram": "None", "facebook": "None", "youtube": "None", "website": "None", "summary": "None", "logo": "None", "latitude": 49.160428018610325, "longitude": -123.17828739439665}}