{"125938555RR0001": {"name": "THE VALLEY BUS SOCIETY", "designationCode": "C", "categoryCode": "09", "address": "BOX 2848", "city": "DRUMHELLER", "province": "AB", "country": "CA", "postalCode": "T0J0Y0", "twitter": "None", "instagram": "None", "facebook": "None", "youtube": "None", "website": "None", "summary": "None", "logo": "None", "latitude": 51.46154700000005, "longitude": -112.70878099999993}, "897478269RR0001": {"name": "THE VALLEY CARE PREGNANCY CENTRE, A CHRISTIAN OUTREACH MINISTRY", "designationCode": "C", "categoryCode": "09", "address": "PO BOX 723                    104 WEBSTER STREET", "city": "KENTVILLE", "province": "NS", "country": "CA", "postalCode": "B4N3X9", "twitter": "None", "instagram": "None", "facebook": "None", "youtube": "None", "website": "None", "summary": "None", "logo": "None", "latitude": 45.07840064556529, "longitude": -64.49727570635925}, "119260909RR0001": {"name": "THE VALLEY CONCERT SOCIETY", "designationCode": "C", "categoryCode": "22", "address": "PO BOX 8000 STN DEL CTR", "city": "ABBOTSFORD", "province": "BC", "country": "CA", "postalCode": "V2S6H1", "twitter": "None", "instagram": "None", "facebook": "None", "youtube": "None", "website": "None", "summary": "None", "logo": "None", "latitude": 49.03851300000005, "longitude": -122.29441549999993}, "857173272RR0001": {"name": "THE VALLEY MUSEUM AND ARCHIVES SOCIETY", "designationCode": "C", "categoryCode": "50", "address": "521 MAIN STREET               PO BOX 775", "city": "MCBRIDE", "province": "BC", "country": "CA", "postalCode": "V0J2E0", "twitter": "None", "instagram": "None", "facebook": "None", "youtube": "None", "website": "None", "summary": "None", "logo": "None", "latitude": 53.302241280371035, "longitude": -120.16502144860864}, "119280774RR0001": {"name": "THE VALLEY PLAYERS OF ALMONTE", "designationCode": "C", "categoryCode": "22", "address": "240 JAMIESON ST", "city": "ALMONTE", "province": "ON", "country": "CA", "postalCode": "K0A1A0", "twitter": "None", "instagram": "None", "facebook": "None", "youtube": "None", "website": "None", "summary": "None", "logo": "None", "latitude": 45.2155012606037, "longitude": -76.19716955790844}, "132198490RR0001": {"name": "THE VALLEY REGIONAL HOSPITAL AUXILIARY", "designationCode": "C", "categoryCode": "19", "address": "150 EXHIBITION ST", "city": "KENTVILLE", "province": "NS", "country": "CA", "postalCode": "B4N5E3", "twitter": "None", "instagram": "None", "facebook": "None", "youtube": "None", "website": "None", "summary": "None", "logo": "None", "latitude": 45.08394314708527, "longitude": -64.50094199572872}, "119260917RR0001": {"name": "THE VALLEY SOCIETY FOR THE ADVANCEMENT AND PRESERVATION OF THE MUSIC OF THE BIG BANDS", "designationCode": "C", "categoryCode": "22", "address": "30885 POLAR AVENUE", "city": "ABBOTSFORD", "province": "BC", "country": "CA", "postalCode": "V4X1Y8", "twitter": "None", "instagram": "None", "facebook": "None", "youtube": "None", "website": "None", "summary": "None", "logo": "None", "latitude": 49.078600518051566, "longitude": -122.36677014375815}, "886397595RR0001": {"name": "THE VALLEY ZOO DEVELOPMENT SOCIETY", "designationCode": "C", "categoryCode": "53", "address": "PO BOX 2359", "city": "EDMONTON", "province": "AB", "country": "CA", "postalCode": "T5J2R7", "twitter": "None", "instagram": "None", "facebook": "None", "youtube": "None", "website": "None", "summary": "None", "logo": "None", "latitude": 53.54623500000005, "longitude": -113.49037249999994}, "108103094RR0001": {"name": "THE VAN EGMOND FOUNDATION", "designationCode": "C", "categoryCode": "52", "address": "80 KIPPEN ROAD", "city": "EGMONDVILLE", "province": "ON", "country": "CA", "postalCode": "N0K1G0", "twitter": "None", "instagram": "None", "facebook": "None", "youtube": "None", "website": "None", "summary": "None", "logo": "None", "latitude": 43.53888579880529, "longitude": -81.40575884491273}, "859090300RR0001": {"name": "THE VAN HORNE ESTATE ON MINISTERS ISLAND INC.", "designationCode": "C", "categoryCode": "52", "address": "199 CARRIAGE ROAD", "city": "MINISTERS ISLAND", "province": "NB", "country": "CA", "postalCode": "E5B0A4", "twitter": "None", "instagram": "None", "facebook": "None", "youtube": "None", "website": "None", "summary": "None", "logo": "None", "latitude": 45.10793061459085, "longitude": -67.0391099179572}, "119260941RR0001": {"name": "THE VANCOUVER AND DISTRICT GAELIC CHOIR", "designationCode": "C", "categoryCode": "22", "address": "3326 EAST 44TH AVENUE", "city": "VANCOUVER", "province": "BC", "country": "CA", "postalCode": "V5R3B4", "twitter": "None", "instagram": "None", "facebook": "None", "youtube": "None", "website": "None", "summary": "None", "logo": "None", "latitude": 49.23002453952926, "longitude": -123.033924}, "119260958RR0001": {"name": "THE VANCOUVER ART GALLERY ASSOCIATION", "designationCode": "C", "categoryCode": "50", "address": "750 HORNBY STREET", "city": "VANCOUVER", "province": "BC", "country": "CA", "postalCode": "V6Z2H7", "twitter": "None", "instagram": "None", "facebook": "None", "youtube": "None", "website": "None", "summary": "None", "logo": "None", "latitude": 49.28315467626438, "longitude": -123.12082222220515}, "863511713RR0001": {"name": "THE VANCOUVER BROADWAY HOUSING SOCIETY", "designationCode": "C", "categoryCode": "09", "address": "650 BUCKETWHEEL", "city": "VANCOUVER", "province": "BC", "country": "CA", "postalCode": "V5Z3Z2", "twitter": "None", "instagram": "None", "facebook": "None", "youtube": "None", "website": "None", "summary": "None", "logo": "None", "latitude": 49.26780600000005, "longitude": -123.11814049999992}, "873969760RR0001": {"name": "THE VANCOUVER CHILDREN'S CHOIR CHORAL SOCIETY", "designationCode": "C", "categoryCode": "22", "address": "85 - 2008 MCCAFFREY RD", "city": "AGASSIZ", "province": "BC", "country": "CA", "postalCode": "V0M1A1", "twitter": "None", "instagram": "None", "facebook": "None", "youtube": "None", "website": "None", "summary": "None", "logo": "None", "latitude": 49.24134699971154, "longitude": -121.77293498124544}, "118975275RR0001": {"name": "THE VANCOUVER CHINATOWN LIONS MEDICAL AND SCHOLARSHIP FOUNDATION", "designationCode": "A", "categoryCode": "13", "address": "830 CAMPBELL AVE", "city": "VANCOUVER", "province": "BC", "country": "CA", "postalCode": "V6A3V2", "twitter": "None", "instagram": "None", "facebook": "None", "youtube": "None", "website": "None", "summary": "None", "logo": "None", "latitude": 49.27693416180969, "longitude": -123.08488990337037}, "108166463RR0001": {"name": "THE VANCOUVER CHINESE ALLIANCE CHURCH", "designationCode": "C", "categoryCode": "39", "address": "#270 11331 COPPERSMITH WAY", "city": "RICHMOND", "province": "BC", "country": "CA", "postalCode": "V7A5J9", "twitter": "None", "instagram": "None", "facebook": "None", "youtube": "None", "website": "None", "summary": "None", "logo": "None", "latitude": 49.13078453043996, "longitude": -123.09902027699232}, "108166497RR0001": {"name": "THE VANCOUVER CHINESE EVANGELICAL FREE CHURCH", "designationCode": "C", "categoryCode": "39", "address": "3295 BROADWAY E", "city": "VANCOUVER", "province": "BC", "country": "CA", "postalCode": "V5M1Z9", "twitter": "None", "instagram": "None", "facebook": "None", "youtube": "None", "website": "None", "summary": "None", "logo": "None", "latitude": 49.261920504327826, "longitude": -123.03436402553523}, "881691562RR0001": {"name": "THE VANCOUVER CHOPIN SOCIETY", "designationCode": "C", "categoryCode": "22", "address": "400-601 BROADWAY W", "city": "VANCOUVER", "province": "BC", "country": "CA", "postalCode": "V5Z4C2", "twitter": "None", "instagram": "None", "facebook": "None", "youtube": "None", "website": "None", "summary": "None", "logo": "None", "latitude": 49.26336053134589, "longitude": -123.11772074999999}, "108166547RR0001": {"name": "THE VANCOUVER CHRISTIAN SCHOOL ASSOCIATION", "designationCode": "C", "categoryCode": "20", "address": "3496 MONS DRIVE", "city": "VANCOUVER", "province": "BC", "country": "CA", "postalCode": "V5M3E6", "twitter": "None", "instagram": "None", "facebook": "None", "youtube": "None", "website": "None", "summary": "None", "logo": "None", "latitude": 49.25400747280551, "longitude": -123.02919987611399}, "141017152RR0001": {"name": "THE VANCOUVER COMMUNITY NETWORK", "designationCode": "C", "categoryCode": "59", "address": "280-111 WEST HASTINGS ST.", "city": "VANCOUVER", "province": "BC", "country": "CA", "postalCode": "V6B1H4", "twitter": "None", "instagram": "None", "facebook": "None", "youtube": "None", "website": "None", "summary": "None", "logo": "None", "latitude": 49.282138914441255, "longitude": -123.10753795129177}, "119281574RR0001": {"name": "THE VANCOUVER EAST CULTURAL CENTRE", "designationCode": "C", "categoryCode": "22", "address": "1895 VENABLES ST", "city": "VANCOUVER", "province": "BC", "country": "CA", "postalCode": "V5L2H6", "twitter": "None", "instagram": "None", "facebook": "None", "youtube": "None", "website": "None", "summary": "None", "logo": "None", "latitude": 49.27675255504182, "longitude": -123.0658637775209}, "119261030RR0001": {"name": "THE VANCOUVER FOLK MUSIC FESTIVAL SOCIETY", "designationCode": "C", "categoryCode": "22", "address": "230 - 275 1ST AVE E", "city": "VANCOUVER", "province": "BC", "country": "CA", "postalCode": "V5T1A7", "twitter": "None", "instagram": "None", "facebook": "None", "youtube": "None", "website": "None", "summary": "None", "logo": "None", "latitude": 49.26856694247357, "longitude": -123.09752479437354}, "119281632RR0001": {"name": "THE VANCOUVER FOUNDATION OF ART, JUSTICE AND LIBERTY", "designationCode": "C", "categoryCode": "21", "address": "660-1188 WEST GEORGIA ST", "city": "VANCOUVER", "province": "BC", "country": "CA", "postalCode": "V6E4A2", "twitter": "None", "instagram": "None", "facebook": "None", "youtube": "None", "website": "None", "summary": "None", "logo": "None", "latitude": 49.28682173714596, "longitude": -123.1249372099946}, "138277728RR0001": {"name": "THE VANCOUVER FRIENDS FOR LIFE SOCIETY", "designationCode": "C", "categoryCode": "09", "address": "1459 BARCLAY ST", "city": "VANCOUVER", "province": "BC", "country": "CA", "postalCode": "V6G1J6", "twitter": "None", "instagram": "None", "facebook": "None", "youtube": "None", "website": "None", "summary": "None", "logo": "None", "latitude": 49.28714843358832, "longitude": -123.13295523921751}, "896583879RR0001": {"name": "THE VANCOUVER GLOBAL-MISSION CHURCH", "designationCode": "C", "categoryCode": "39", "address": "111-14914 104 AVE", "city": "SURREY", "province": "BC", "country": "CA", "postalCode": "V3R1M7", "twitter": "None", "instagram": "None", "facebook": "None", "youtube": "None", "website": "None", "summary": "None", "logo": "None", "latitude": 49.1914585434244, "longitude": -122.80834269317329}, "119261055RR0001": {"name": "THE VANCOUVER GUILD OF FABRIC ARTS", "designationCode": "C", "categoryCode": "22", "address": "4397 WEST 2ND AVENUE", "city": "VANCOUVER", "province": "BC", "country": "CA", "postalCode": "V6R1K4", "twitter": "None", "instagram": "None", "facebook": "None", "youtube": "None", "website": "None", "summary": "None", "logo": "None", "latitude": 49.27138669949517, "longitude": -123.2056515810812}, "874584329RR0001": {"name": "THE VANCOUVER HIGH SPIRITS CHORAL SOCIETY", "designationCode": "C", "categoryCode": "22", "address": "3-224 WEST 16TH ST.", "city": "NORTH VANCOUVER", "province": "BC", "country": "CA", "postalCode": "V7M1T6", "twitter": "None", "instagram": "None", "facebook": "None", "youtube": "None", "website": "None", "summary": "None", "logo": "None", "latitude": 49.315182159451545, "longitude": -123.08088925892382}, "119261071RR0001": {"name": "THE VANCOUVER INSTITUTE", "designationCode": "C", "categoryCode": "21", "address": "6388 CRESCENT ROAD", "city": "VANCOUVER", "province": "BC", "country": "CA", "postalCode": "V6T1Z2", "twitter": "None", "instagram": "None", "facebook": "None", "youtube": "None", "website": "None", "summary": "None", "logo": "None", "latitude": 49.267929469068456, "longitude": -123.25795224653719}, "875808511RR0001": {"name": "THE VANCOUVER INTER-CULTURAL ORCHESTRA SOCIETY", "designationCode": "C", "categoryCode": "22", "address": "#12 - 719 EAST, 31ST AVENUE", "city": "VANCOUVER", "province": "BC", "country": "CA", "postalCode": "V5V2W9", "twitter": "None", "instagram": "None", "facebook": "None", "youtube": "None", "website": "None", "summary": "None", "logo": "None", "latitude": 49.24260148600598, "longitude": -123.0899206902591}, "122605678RR0001": {"name": "THE VANCOUVER INTERNATIONAL WRITERS FESTIVAL SOCIETY", "designationCode": "C", "categoryCode": "22", "address": "1398 CARTWRIGHT STREET        SUITE 202", "city": "VANCOUVER", "province": "BC", "country": "CA", "postalCode": "V6H3R8", "twitter": "None", "instagram": "None", "facebook": "None", "youtube": "None", "website": "None", "summary": "None", "logo": "None", "latitude": 49.27000856677118, "longitude": -123.1351424230664}, "875272965RR0001": {"name": "THE VANCOUVER ISLAND BRANCH OF THE ROYAL COMMONWEALTH SOCIETY", "designationCode": "C", "categoryCode": "21", "address": "1110 - 6880 WALLACE DR", "city": "BRENTWOOD BAY", "province": "BC", "country": "CA", "postalCode": "V8M1N8", "twitter": "None", "instagram": "None", "facebook": "None", "youtube": "None", "website": "None", "summary": "None", "logo": "None", "latitude": 48.568884554153875, "longitude": -123.45954201690799}, "890686793RR0001": {"name": "THE VANCOUVER ISLAND CENTRE FOR ATTITUDINAL HEALING", "designationCode": "C", "categoryCode": "59", "address": "BOX 1678", "city": "LADYSMITH", "province": "BC", "country": "CA", "postalCode": "V9G1B2", "twitter": "None", "instagram": "None", "facebook": "None", "youtube": "None", "website": "None", "summary": "None", "logo": "None", "latitude": 48.99822900000005, "longitude": -123.82257049999993}, "803101278RR0001": {"name": "THE VANCOUVER ISLAND ZEN SANGHA", "designationCode": "C", "categoryCode": "35", "address": "2678 WINSTER ROAD             UNIT 104", "city": "VICRORIA", "province": "BC", "country": "CA", "postalCode": "V9B6V9", "twitter": "None", "instagram": "None", "facebook": "None", "youtube": "None", "website": "None", "summary": "None", "logo": "None", "latitude": 48.45093095299426, "longitude": -123.49345633231714}, "893050641RR0001": {"name": "THE VANCOUVER JAPANESE GOSPEL CHURCH", "designationCode": "C", "categoryCode": "47", "address": "427-11TH ST", "city": "NEW WESTMINSTER", "province": "BC", "country": "CA", "postalCode": "V3M4G1", "twitter": "None", "instagram": "None", "facebook": "None", "youtube": "None", "website": "None", "summary": "None", "logo": "None", "latitude": 49.2065270671706, "longitude": -122.92672213529352}, "119281996RR0001": {"name": "THE VANCOUVER JAPANESE LANGUAGE SCHOOL AND JAPANESE HALL", "designationCode": "C", "categoryCode": "21", "address": "475 ALEXANDER ST", "city": "VANCOUVER", "province": "BC", "country": "CA", "postalCode": "V6A1C6", "twitter": "None", "instagram": "None", "facebook": "None", "youtube": "None", "website": "None", "summary": "None", "logo": "None", "latitude": 49.28404049321933, "longitude": -123.09376972009349}, "890975998RR0001": {"name": "THE VANCOUVER LIFE DRAWING SOCIETY", "designationCode": "C", "categoryCode": "22", "address": "BASIC INQUIRY                 1011 MAIN STREET", "city": "VANCOUVER", "province": "BC", "country": "CA", "postalCode": "V6A4L4", "twitter": "None", "instagram": "None", "facebook": "None", "youtube": "None", "website": "None", "summary": "None", "logo": "None", "latitude": 49.27594465573753, "longitude": -123.09995006512052}, "119261147RR0001": {"name": "THE VANCOUVER MARITIME MUSEUM SOCIETY", "designationCode": "C", "categoryCode": "53", "address": "1905 OGDEN AVE", "city": "VANCOUVER", "province": "BC", "country": "CA", "postalCode": "V6J1A3", "twitter": "None", "instagram": "None", "facebook": "None", "youtube": "None", "website": "None", "summary": "None", "logo": "None", "latitude": 49.277053318367905, "longitude": -123.14888524395526}, "119261154RR0001": {"name": "THE VANCOUVER MEN'S CHORUS", "designationCode": "C", "categoryCode": "22", "address": "1270 CHESTNUT ST", "city": "VANCOUVER", "province": "BC", "country": "CA", "postalCode": "V6J4R9", "twitter": "None", "instagram": "None", "facebook": "None", "youtube": "None", "website": "None", "summary": "None", "logo": "None", "latitude": 49.27466566506806, "longitude": -123.14618561597229}, "890743792RR0001": {"name": "THE VANCOUVER OUT ON SCREEN FILM AND VIDEO SOCIETY", "designationCode": "C", "categoryCode": "22", "address": "405-207 W HASTINGS ST.", "city": "VANCOUVER", "province": "BC", "country": "CA", "postalCode": "V6B1H7", "twitter": "None", "instagram": "None", "facebook": "None", "youtube": "None", "website": "None", "summary": "None", "logo": "None", "latitude": 49.282745342777936, "longitude": -123.10981369856898}, "119261162RR0001": {"name": "THE VANCOUVER POLICE HISTORICAL SOCIETY", "designationCode": "C", "categoryCode": "50", "address": "240 CORDOVA ST E", "city": "VANCOUVER", "province": "BC", "country": "CA", "postalCode": "V6A1L3", "twitter": "None", "instagram": "None", "facebook": "None", "youtube": "None", "website": "None", "summary": "None", "logo": "None", "latitude": 49.28217017431821, "longitude": -123.09861581016591}, "890481773RR0001": {"name": "THE VANCOUVER RHODODENDRON SOCIETY", "designationCode": "C", "categoryCode": "56", "address": "PO BOX 20105 RPO FAIRVIEW", "city": "VANCOUVER", "province": "BC", "country": "CA", "postalCode": "V5Z0C1", "twitter": "None", "instagram": "None", "facebook": "None", "youtube": "None", "website": "None", "summary": "None", "logo": "None", "latitude": 49.26613000000003, "longitude": -123.13313}, "132712811RR0001": {"name": "THE VANCOUVER SECOND MILE SOCIETY", "designationCode": "C", "categoryCode": "09", "address": "509 EAST HASTINGS ST", "city": "VANCOUVER", "province": "BC", "country": "CA", "postalCode": "V6A1P9", "twitter": "None", "instagram": "None", "facebook": "None", "youtube": "None", "website": "None", "summary": "None", "logo": "None", "latitude": 49.2812932714634, "longitude": -123.09320308156929}, "891076978RR0001": {"name": "THE VANCOUVER SOCIETY OF STORYTELLING", "designationCode": "C", "categoryCode": "22", "address": "BOX 95109 KINGSGATE RPO", "city": "VANCOUVER", "province": "BC", "country": "CA", "postalCode": "V5T4T8", "twitter": "None", "instagram": "None", "facebook": "None", "youtube": "None", "website": "None", "summary": "None", "logo": "None", "latitude": 49.26037200000006, "longitude": -123.11336149999994}, "890440191RR0001": {"name": "THE VANCOUVER THALASSEMIA SOCIETY OF B C", "designationCode": "C", "categoryCode": "11", "address": "4285 PRICE CRESCENT", "city": "BURNABY", "province": "BC", "country": "CA", "postalCode": "V5G2N3", "twitter": "None", "instagram": "None", "facebook": "None", "youtube": "None", "website": "None", "summary": "None", "logo": "None", "latitude": 49.23836215072984, "longitude": -123.00872358200135}, "119261220RR0001": {"name": "THE VANCOUVER VEDIC EDUCATION SOCIETY", "designationCode": "C", "categoryCode": "49", "address": "BOX 704", "city": "ASHCROFT", "province": "BC", "country": "CA", "postalCode": "V0K1A0", "twitter": "None", "instagram": "None", "facebook": "None", "youtube": "None", "website": "None", "summary": "None", "logo": "None", "latitude": 50.7271758075652, "longitude": -121.28212858201184}, "108167917RR0001": {"name": "THE VANCOUVER WALDORF SCHOOL SOCIETY", "designationCode": "C", "categoryCode": "20", "address": "2725 ST. CHRISTOPHERS RD", "city": "NORTH VANCOUVER", "province": "BC", "country": "CA", "postalCode": "V7K2B6", "twitter": "None", "instagram": "None", "facebook": "None", "youtube": "None", "website": "None", "summary": "None", "logo": "None", "latitude": 49.33347092561605, "longitude": -123.04608471417819}, "892008244RR0001": {"name": "THE VANCOUVER WESTSIDE GERMAN SCHOOL SOCIETY", "designationCode": "C", "categoryCode": "20", "address": "2900-550 BURRARD STREET", "city": "VANCOUVER", "province": "BC", "country": "CA", "postalCode": "V6C0A3", "twitter": "None", "instagram": "None", "facebook": "None", "youtube": "None", "website": "None", "summary": "None", "logo": "None", "latitude": 49.28596391921073, "longitude": -123.11870289255033}, "890181449RR0001": {"name": "THE VANIER COLLEGE FOUNDATION - LA FONDATION DU COLL\u00c8GE VANIER", "designationCode": "C", "categoryCode": "21", "address": "821 SAINTE CROIX AVENUE", "city": "SAINT-LAURENT", "province": "QC", "country": "CA", "postalCode": "H4L3X9", "twitter": "None", "instagram": "None", "facebook": "None", "youtube": "None", "website": "None", "summary": "None", "logo": "None", "latitude": 45.513935321842816, "longitude": -73.67602868916406}, "108168337RR0001": {"name": "THE VANIER INSTITUTE OF THE FAMILY - L'INSTITUT VANIER DE LAFAMILLE", "designationCode": "C", "categoryCode": "09", "address": "94 CENTREPOINTE DR", "city": "OTTAWA", "province": "ON", "country": "CA", "postalCode": "K2G6B1", "twitter": "None", "instagram": "None", "facebook": "None", "youtube": "None", "website": "None", "summary": "None", "logo": "None", "latitude": 45.34574900859833, "longitude": -75.76543873731883}, "863706727RR0001": {"name": "THE VANISHA FOUNDATION", "designationCode": "B", "categoryCode": "13", "address": "P.O. BOX 60001                5965 FRASER STREET", "city": "VANCOUVER", "province": "BC", "country": "CA", "postalCode": "V5W4B5", "twitter": "None", "instagram": "None", "facebook": "None", "youtube": "None", "website": "None", "summary": "None", "logo": "None", "latitude": 49.23045725956813, "longitude": -123.09071069583278}, "119261311RR0001": {"name": "THE VANPAM SWIMMING POOL COMMITTEE", "designationCode": "C", "categoryCode": "56", "address": "BOX 306", "city": "VANGUARD", "province": "SK", "country": "CA", "postalCode": "S0N2V0", "twitter": "None", "instagram": "None", "facebook": "None", "youtube": "None", "website": "None", "summary": "None", "logo": "None", "latitude": 49.91676000000007, "longitude": -107.30129999999997}, "119261329RR0001": {"name": "THE VANSCOY AND DISTRICT AGRICULTURAL SOCIETY", "designationCode": "C", "categoryCode": "56", "address": "BOX 35", "city": "VANSCOY", "province": "SK", "country": "CA", "postalCode": "S0L3J0", "twitter": "None", "instagram": "None", "facebook": "None", "youtube": "None", "website": "None", "summary": "None", "logo": "None", "latitude": 52.00073000000003, "longitude": -106.97436999999996}, "877817304RR0001": {"name": "THE VARSCONA THEATRE ALLIANCE SOCIETY", "designationCode": "C", "categoryCode": "50", "address": "10329 83 AVE NW", "city": "EDMONTON", "province": "AB", "country": "CA", "postalCode": "T6E2C6", "twitter": "None", "instagram": "None", "facebook": "None", "youtube": "None", "website": "None", "summary": "None", "logo": "None", "latitude": 53.51902951399404, "longitude": -113.496372}, "863097499RR0001": {"name": "THE VARTAN AND LISE TOROUSSIAN FOUNDATION FONDATION VARTAN A", "designationCode": "B", "categoryCode": "03", "address": "1399 SAINT-AMOUR", "city": "SAINT-LAURENT", "province": "QC", "country": "CA", "postalCode": "H4S1T4", "twitter": "None", "instagram": "None", "facebook": "None", "youtube": "None", "website": "None", "summary": "None", "logo": "None", "latitude": 45.48652120125204, "longitude": -73.7257774012929}, "872030408RR0001": {"name": "THE VAUGHAN HEALTH CARE FOUNDATION", "designationCode": "A", "categoryCode": "13", "address": "135 QUEEN'S PLATE DRIVE       SUITE 600", "city": "TORONTO", "province": "ON", "country": "CA", "postalCode": "M9W6V7", "twitter": "None", "instagram": "None", "facebook": "None", "youtube": "None", "website": "None", "summary": "None", "logo": "None", "latitude": 43.71642904916588, "longitude": -79.59212537050621}, "890867179RR0001": {"name": "THE VAUGHAN TOWNSHIP HISTORICAL SOCIETY", "designationCode": "C", "categoryCode": "50", "address": "P.O.BOX 851", "city": "MAPLE", "province": "ON", "country": "CA", "postalCode": "L6A1S8", "twitter": "None", "instagram": "None", "facebook": "None", "youtube": "None", "website": "None", "summary": "None", "logo": "None", "latitude": 43.86033600000006, "longitude": -79.51369399999993}, "132977117RR0001": {"name": "THE VEGREVILLE ASSOCIATION FOR LIVING IN DIGNITY", "designationCode": "C", "categoryCode": "11", "address": "4843 49 ST", "city": "VEGREVILLE", "province": "AB", "country": "CA", "postalCode": "T9C1K7", "twitter": "None", "instagram": "None", "facebook": "None", "youtube": "None", "website": "None", "summary": "None", "logo": "None", "latitude": 53.49321952376767, "longitude": -112.05089868873796}, "892445164RR0001": {"name": "THE VENETO EDUCATIONAL AND CULTURAL CENTRE", "designationCode": "C", "categoryCode": "56", "address": "7465 KIPLING AVENUE", "city": "WOODBRIDGE", "province": "ON", "country": "CA", "postalCode": "L4L1Y5", "twitter": "None", "instagram": "None", "facebook": "None", "youtube": "None", "website": "None", "summary": "None", "logo": "None", "latitude": 43.771478144261394, "longitude": -79.59541912197868}, "898165170RR0001": {"name": "THE VENTURERS SOCIETY OF CALGARY", "designationCode": "C", "categoryCode": "59", "address": "PO BOX 2780 STN M", "city": "CALGARY", "province": "AB", "country": "CA", "postalCode": "T2P2M7", "twitter": "None", "instagram": "None", "facebook": "None", "youtube": "None", "website": "None", "summary": "None", "logo": "None", "latitude": 51.04531500000006, "longitude": -114.06301099999993}, "135807311RR0001": {"name": "THE VERA PERLIN CHARITABLE FOUNDATION INC", "designationCode": "A", "categoryCode": "13", "address": "PO BOX 7114 STN C", "city": "ST. JOHN'S", "province": "NL", "country": "CA", "postalCode": "A1E3Y3", "twitter": "None", "instagram": "None", "facebook": "None", "youtube": "None", "website": "None", "summary": "None", "logo": "None", "latitude": 47.56082100000006, "longitude": -52.71219349999993}, "123801011RR0001": {"name": "THE VERA PERLIN SOCIETY INC", "designationCode": "C", "categoryCode": "11", "address": "P.O. BOX 7114", "city": "ST. JOHN'S", "province": "NL", "country": "CA", "postalCode": "A1E3Y3", "twitter": "None", "instagram": "None", "facebook": "None", "youtube": "None", "website": "None", "summary": "None", "logo": "None", "latitude": 47.56082100000006, "longitude": -52.71219349999993}, "119261360RR0001": {"name": "THE VERED FOUNDATION", "designationCode": "B", "categoryCode": "03", "address": "1801 WOODWARD DRIVE", "city": "OTTAWA", "province": "ON", "country": "CA", "postalCode": "K2C0R3", "twitter": "None", "instagram": "None", "facebook": "None", "youtube": "None", "website": "None", "summary": "None", "logo": "None", "latitude": 45.36979357146978, "longitude": -75.75182079825703}, "119772440RR0001": {"name": "THE VERITAS FUND - LE FOND VERITAS", "designationCode": "A", "categoryCode": "23", "address": "95 COTE ST-ANTOINE", "city": "WESTMOUNT", "province": "QC", "country": "CA", "postalCode": "H3Y2H8", "twitter": "None", "instagram": "None", "facebook": "None", "youtube": "None", "website": "None", "summary": "None", "logo": "None", "latitude": 45.48584311076791, "longitude": -73.5973385856367}, "888583663RR0001": {"name": "THE VERMILION FITNESS AND AQUATIC CENTRE SOCIETY", "designationCode": "C", "categoryCode": "56", "address": "5021-49 AVENUE", "city": "VERMILION", "province": "AB", "country": "CA", "postalCode": "T9X1X1", "twitter": "None", "instagram": "None", "facebook": "None", "youtube": "None", "website": "None", "summary": "None", "logo": "None", "latitude": 53.353020510675826, "longitude": -110.85412066763806}, "873538029RR0001": {"name": "THE VERMILION TRAILS SOCIETY", "designationCode": "C", "categoryCode": "56", "address": "P.O. BOX 2104", "city": "PRINCETON", "province": "BC", "country": "CA", "postalCode": "V0X1W0", "twitter": "None", "instagram": "None", "facebook": "None", "youtube": "None", "website": "None", "summary": "None", "logo": "None"}, "119261394RR0001": {"name": "THE VERN AND FRIEDA HEINRICHS FOUNDATION", "designationCode": "B", "categoryCode": "05", "address": "5163 GUELPH RD #1", "city": "GUELPH", "province": "ON", "country": "CA", "postalCode": "N1H6J4", "twitter": "None", "instagram": "None", "facebook": "None", "youtube": "None", "website": "None", "summary": "None", "logo": "None", "latitude": 43.540504292990406, "longitude": -80.27067312915334}, "886383009RR0001": {"name": "THE VERNON MONTESSORI SOCIETY", "designationCode": "C", "categoryCode": "21", "address": "3605 10 ST", "city": "VERNON", "province": "BC", "country": "CA", "postalCode": "V1T6T2", "twitter": "None", "instagram": "None", "facebook": "None", "youtube": "None", "website": "None", "summary": "None", "logo": "None", "latitude": 50.26857434110451, "longitude": -119.24493807297033}, "867868358RR0001": {"name": "THE VERNON MS SOCIETY", "designationCode": "C", "categoryCode": "11", "address": "105-3402-27TH AVE.", "city": "VERNON", "province": "BC", "country": "CA", "postalCode": "V1T1S1", "twitter": "None", "instagram": "None", "facebook": "None", "youtube": "None", "website": "None", "summary": "None", "logo": "None", "latitude": 50.26130859781307, "longitude": -119.27748610949848}, "892919564RR0001": {"name": "THE VERY USEFUL THEATRE COMPANY", "designationCode": "C", "categoryCode": "22", "address": "60 HARRISON DR", "city": "NEWMARKET", "province": "ON", "country": "CA", "postalCode": "L3Y4P4", "twitter": "None", "instagram": "None", "facebook": "None", "youtube": "None", "website": "None", "summary": "None", "logo": "None", "latitude": 44.058777098245756, "longitude": -79.4728089363205}, "107809345RR0001": {"name": "THE VI FINEDAY FAMILY SHELTER SOCIETY", "designationCode": "C", "categoryCode": "01", "address": "1906 WEST 15TH AVENUE", "city": "VANCOUVER", "province": "BC", "country": "CA", "postalCode": "V6J2L3", "twitter": "None", "instagram": "None", "facebook": "None", "youtube": "None", "website": "None", "summary": "None", "logo": "None", "latitude": 49.25810648845882, "longitude": -123.14858263780367}, "890916661RR0001": {"name": "THE VIC-WEST HOUSING SOCIETY", "designationCode": "C", "categoryCode": "09", "address": "1419 MALLEK CRESCENT", "city": "VICTORIA", "province": "BC", "country": "CA", "postalCode": "V8T2R3", "twitter": "None", "instagram": "None", "facebook": "None", "youtube": "None", "website": "None", "summary": "None", "logo": "None", "latitude": 48.445512831525214, "longitude": -123.34801588550985}, "108171612RR0001": {"name": "THE VICTIMS OF FAMILY VIOLENCE ASSOCIATION", "designationCode": "C", "categoryCode": "59", "address": "P.O. BOX 1681", "city": "TRURO", "province": "NS", "country": "CA", "postalCode": "B2N5Z5", "twitter": "None", "instagram": "None", "facebook": "None", "youtube": "None", "website": "None", "summary": "None", "logo": "None", "latitude": 45.36602700000006, "longitude": -63.289042999999936}, "119261469RR0001": {"name": "THE VICTOR & ANNA KERN FOUNDATION", "designationCode": "B", "categoryCode": "53", "address": "255 - 8600 CAMBIE RD", "city": "RICHMOND", "province": "BC", "country": "CA", "postalCode": "V6X4J9", "twitter": "None", "instagram": "None", "facebook": "None", "youtube": "None", "website": "None", "summary": "None", "logo": "None", "latitude": 49.18458787718879, "longitude": -123.12801335204755}, "134058585RR0001": {"name": "THE VICTOR AND LETHA COLLEAUX FOUNDATION", "designationCode": "B", "categoryCode": "25", "address": "PO BOX 10085                  PACIFIC CENTRE", "city": "VANCOUVER", "province": "BC", "country": "CA", "postalCode": "V7Y1B6", "twitter": "None", "instagram": "None", "facebook": "None", "youtube": "None", "website": "None", "summary": "None", "logo": "None", "latitude": 49.28299000000004, "longitude": -123.11890999999997}, "885336511RR0001": {"name": "THE VICTOR AND MARGUERITE LAVOIE CHARITABLE TRUST", "designationCode": "B", "categoryCode": "05", "address": "PO BOX 10085                  PACIFIC CENTRE", "city": "VANCOUVER", "province": "BC", "country": "CA", "postalCode": "V7Y1B6", "twitter": "None", "instagram": "None", "facebook": "None", "youtube": "None", "website": "None", "summary": "None", "logo": "None", "latitude": 49.28299000000004, "longitude": -123.11890999999997}, "119261485RR0001": {"name": "THE VICTORIA BEACH CLUB", "designationCode": "C", "categoryCode": "56", "address": "50 TWEEDSMUIR RD", "city": "WINNIPEG", "province": "MB", "country": "CA", "postalCode": "R3P1Z1", "twitter": "None", "instagram": "None", "facebook": "None", "youtube": "None", "website": "None", "summary": "None", "logo": "None", "latitude": 49.84188514573818, "longitude": -97.19642792365413}, "119261493RR0001": {"name": "THE VICTORIA CAT RESCUE CORPS SOCIETY", "designationCode": "C", "categoryCode": "54", "address": "PO BOX 5478 LCD 9", "city": "VICTORIA", "province": "BC", "country": "CA", "postalCode": "V8R6S4", "twitter": "None", "instagram": "None", "facebook": "None", "youtube": "None", "website": "None", "summary": "None", "logo": "None", "latitude": 48.42854700000005, "longitude": -123.36445249999994}, "132114786RR0001": {"name": "THE VICTORIA CHRISTIAN RETIREMENT SOCIETY", "designationCode": "C", "categoryCode": "01", "address": "312-4535 VIEWMONT AVE", "city": "VICTORIA", "province": "BC", "country": "CA", "postalCode": "V8Z5L3", "twitter": "None", "instagram": "None", "facebook": "None", "youtube": "None", "website": "None", "summary": "None", "logo": "None", "latitude": 48.4960054099199, "longitude": -123.38807041153602}, "133583005RR0001": {"name": "THE VICTORIA FAULKNER WOMEN'S CENTRE", "designationCode": "C", "categoryCode": "59", "address": "503 HANSON STREET", "city": "WHITEHORSE", "province": "YT", "country": "CA", "postalCode": "Y1A1Y9", "twitter": "None", "instagram": "None", "facebook": "None", "youtube": "None", "website": "None", "summary": "None", "logo": "None", "latitude": 60.71602762003007, "longitude": -135.0572655180334}, "119261527RR0001": {"name": "THE VICTORIA FIRST CHURCH OF THE NAZARENE", "designationCode": "C", "categoryCode": "39", "address": "4277 QUADRA STREET", "city": "VICTORIA", "province": "BC", "country": "CA", "postalCode": "V8X1L5", "twitter": "None", "instagram": "None", "facebook": "None", "youtube": "None", "website": "None", "summary": "None", "logo": "None", "latitude": 48.48446200167343, "longitude": -123.38060132457166}, "141045880RR0001": {"name": "THE VICTORIA GENEALOGICAL SOCIETY", "designationCode": "C", "categoryCode": "21", "address": "209 - 4475 VIEWMONT AVE", "city": "VICTORIA", "province": "BC", "country": "CA", "postalCode": "V8Z6L8", "twitter": "None", "instagram": "None", "facebook": "None", "youtube": "None", "website": "None", "summary": "None", "logo": "None", "latitude": 48.49339555591788, "longitude": -123.38973269008622}, "867553620RR0001": {"name": "THE VICTORIA GILBERT AND SULLIVAN SOCIETY", "designationCode": "C", "categoryCode": "22", "address": "PO BOX 42057 RPO OAK BAY", "city": "VICTORIA", "province": "BC", "country": "CA", "postalCode": "V8R6T4", "twitter": "None", "instagram": "None", "facebook": "None", "youtube": "None", "website": "None", "summary": "None", "logo": "None", "latitude": 48.42854700000005, "longitude": -123.36445249999994}, "135737997RR0001": {"name": "THE VICTORIA HUMAN EXCHANGE SOCIETY", "designationCode": "C", "categoryCode": "09", "address": "60 CHOWN PL", "city": "VICTORIA", "province": "BC", "country": "CA", "postalCode": "V9A1H5", "twitter": "None", "instagram": "None", "facebook": "None", "youtube": "None", "website": "None", "summary": "None", "logo": "None", "latitude": 48.44558892838599, "longitude": -123.3868161051993}, "108103219RR0001": {"name": "THE VICTORIA PLAYHOUSE INC.", "designationCode": "C", "categoryCode": "22", "address": "PO BOX 83", "city": "VICTORIA", "province": "PE", "country": "CA", "postalCode": "C0A2G0", "twitter": "None", "instagram": "None", "facebook": "None", "youtube": "None", "website": "None", "summary": "None", "logo": "None", "latitude": 46.21638150000001, "longitude": -63.495344249999995}, "899277529RR0001": {"name": "THE VICTORIA REFORM JEWISH CONGREGATION", "designationCode": "C", "categoryCode": "39", "address": "3636 SHELBOURNE STREET", "city": "VICTORIA", "province": "BC", "country": "CA", "postalCode": "V8P4H2", "twitter": "None", "instagram": "None", "facebook": "None", "youtube": "None", "website": "None", "summary": "None", "logo": "None", "latitude": 48.45971792200936, "longitude": -123.3330049405041}, "885734731RR0001": {"name": "THE VICTORIA SCHOLARS MEN'S CHORAL ENSEMBLE", "designationCode": "C", "categoryCode": "22", "address": "146 WILLOWRIDGE ROAD", "city": "TORONTO", "province": "ON", "country": "CA", "postalCode": "M9R3Z7", "twitter": "None", "instagram": "None", "facebook": "None", "youtube": "None", "website": "None", "summary": "None", "logo": "None", "latitude": 43.6769645542731, "longitude": -79.57149812213619}, "135848950RR0001": {"name": "THE VICTORIA YOUTH EMPOWERMENT SOCIETY", "designationCode": "C", "categoryCode": "09", "address": "533 YATES ST", "city": "VICTORIA", "province": "BC", "country": "CA", "postalCode": "V8W1K7", "twitter": "None", "instagram": "None", "facebook": "None", "youtube": "None", "website": "None", "summary": "None", "logo": "None", "latitude": 48.42676765609687, "longitude": -123.36922503442203}, "888923265RR0001": {"name": "THE VICTORIA-VANUATU PHYSICIANS' ASSOCIATION", "designationCode": "C", "categoryCode": "11", "address": "1259 OLIVER STREET", "city": "VICTORIA", "province": "BC", "country": "CA", "postalCode": "V8S4X1", "twitter": "None", "instagram": "None", "facebook": "None", "youtube": "None", "website": "None", "summary": "None", "logo": "None", "latitude": 48.42395966472387, "longitude": -123.31281907781776}, "119261576RR0001": {"name": "THE VICTORIAN ORDER OF NURSES FOR CANADA TRUST", "designationCode": "B", "categoryCode": "15", "address": "130 KING ST W  20TH FLOOR     BOX 430 STN FIRST CANADIAN PL", "city": "TORONTO", "province": "ON", "country": "CA", "postalCode": "M5X1K1", "twitter": "None", "instagram": "None", "facebook": "None", "youtube": "None", "website": "None", "summary": "None", "logo": "None", "latitude": 43.64826932503962, "longitude": -79.38190945606182}, "139538185RR0001": {"name": "THE VICTORY CHURCH OF GOD OF OTTAWA-CARLETON", "designationCode": "C", "categoryCode": "39", "address": "192 TACOM CIRCLE", "city": "NEPEAN", "province": "ON", "country": "CA", "postalCode": "K2G4P8", "twitter": "None", "instagram": "None", "facebook": "None", "youtube": "None", "website": "None", "summary": "None", "logo": "None", "latitude": 45.27346611183575, "longitude": -75.71612322355594}, "119261642RR0001": {"name": "THE VICTORY VAN ASSOCIATION", "designationCode": "C", "categoryCode": "09", "address": "2260 VICTOR ST", "city": "VICTORIA", "province": "BC", "country": "CA", "postalCode": "V8R4C5", "twitter": "None", "instagram": "None", "facebook": "None", "youtube": "None", "website": "None", "summary": "None", "logo": "None", "latitude": 48.43215956564139, "longitude": -123.33709274069436}, "119261659RR0001": {"name": "THE VIETNAMESE BUDDHIST CONGREGATION IN EDMONTON, ALBERTA", "designationCode": "C", "categoryCode": "35", "address": "3104-48ST", "city": "EDMONTON", "province": "AB", "country": "CA", "postalCode": "T6L5Z3", "twitter": "None", "instagram": "None", "facebook": "None", "youtube": "None", "website": "None", "summary": "None", "logo": "None", "latitude": 53.461760353049726, "longitude": -113.416474893069}, "853591469RR0001": {"name": "THE VIEW ROYAL READING CENTRE", "designationCode": "C", "categoryCode": "50", "address": "266 ISLAND HWY", "city": "VICTORIA", "province": "BC", "country": "CA", "postalCode": "V9B1G5", "twitter": "None", "instagram": "None", "facebook": "None", "youtube": "None", "website": "None", "summary": "None", "logo": "None", "latitude": 48.453962215763156, "longitude": -123.4379007804096}, "856182597RR0001": {"name": "THE VIJAY FAMILY CHARITABLE FOUNDATION OF CANADA", "designationCode": "B", "categoryCode": "03", "address": "150 ROCKWOOD CRESCENT", "city": "THORNHILL", "province": "ON", "country": "CA", "postalCode": "L4J7W1", "twitter": "None", "instagram": "None", "facebook": "None", "youtube": "None", "website": "None", "summary": "None", "logo": "None", "latitude": 43.819055076894124, "longitude": -79.46309690186982}, "120549886RR0001": {"name": "THE VIKING VOLUNTEER FIRE DEPARTMENT SOCIETY", "designationCode": "C", "categoryCode": "59", "address": "P.O. BOX 154", "city": "VIKING", "province": "AB", "country": "CA", "postalCode": "T0B4N0", "twitter": "None", "instagram": "None", "facebook": "None", "youtube": "None", "website": "None", "summary": "None", "logo": "None", "latitude": 53.10014000000007, "longitude": -111.76843999999994}, "119261675RR0001": {"name": "THE VILIAM FRANKEL FAMILY CHARITABLE FOUNDATION - LA FONDATION DE CHARITE DE LA FAMILLE VILIAM FRANKEL", "designationCode": "B", "categoryCode": "03", "address": "333 CHABANEL ST WEST          SUITE 410", "city": "MONTREAL", "province": "QC", "country": "CA", "postalCode": "H2N2E7", "twitter": "None", "instagram": "None", "facebook": "None", "youtube": "None", "website": "None", "summary": "None", "logo": "None", "latitude": 45.53951277352986, "longitude": -73.65400245340162}, "890556467RR0001": {"name": "THE VILLAGE - CHILDREN'S PROGRAMS", "designationCode": "C", "categoryCode": "01", "address": "5300-14TH AVENUE", "city": "MARKHAM", "province": "ON", "country": "CA", "postalCode": "L3S3K8", "twitter": "None", "instagram": "None", "facebook": "None", "youtube": "None", "website": "None", "summary": "None", "logo": "None", "latitude": 43.849589002567484, "longitude": -79.27831769848207}, "848420949RR0001": {"name": "THE VILLAGE AT BLUE MOUNTAIN FOUNDATION", "designationCode": "A", "categoryCode": "03", "address": "2 - 796455 GREY ROAD 19", "city": "BLUE MOUNTAINS", "province": "ON", "country": "CA", "postalCode": "L9Y0N8", "twitter": "None", "instagram": "None", "facebook": "None", "youtube": "None", "website": "None", "summary": "None", "logo": "None", "latitude": 44.511396947039614, "longitude": -80.32326940131902}, "834533986RR0002": {"name": "THE VILLAGE CHURCH", "designationCode": "C", "categoryCode": "39", "address": "P.O. BOX 47", "city": "THOROLD", "province": "ON", "country": "CA", "postalCode": "L2V3Y7", "twitter": "None", "instagram": "None", "facebook": "None", "youtube": "None", "website": "None", "summary": "None", "logo": "None", "latitude": 43.124280000000056, "longitude": -79.19772199999993}, "807564166RR0001": {"name": "THE VILLAGE OF EDGERTON LIBRARY BOARD", "designationCode": "C", "categoryCode": "50", "address": "BOX 180", "city": "EDGERTON", "province": "AB", "country": "CA", "postalCode": "T0B1K0", "twitter": "None", "instagram": "None", "facebook": "None", "youtube": "None", "website": "None", "summary": "None", "logo": "None", "latitude": 52.750140000000044, "longitude": -110.45159999999998}}