{"858081284RR0001": {"name": "Beautiful Baptist Church of Vancouver", "designationCode": "C", "categoryCode": "39", "address": "102 - 827 RODERICK AVE", "city": "COQUITLAM", "province": "BC", "country": "CA", "postalCode": "V3K0E3", "twitter": "None", "instagram": "None", "facebook": "None", "youtube": "None", "website": "None", "summary": "None", "logo": "None", "latitude": 49.237930024571824, "longitude": -122.87583810856043}, "829766526RR0001": {"name": "Beautiful Gate Ministries", "designationCode": "B", "categoryCode": "39", "address": "21 DENBURY COURT", "city": "BROOKLIN", "province": "ON", "country": "CA", "postalCode": "L1M0H5", "twitter": "None", "instagram": "None", "facebook": "None", "youtube": "None", "website": "None", "summary": "None", "logo": "None", "latitude": 43.95818376890305, "longitude": -78.9702653886034}, "816851786RR0001": {"name": "Beautiful Gate Mission Fellowship Edmonton", "designationCode": "C", "categoryCode": "39", "address": "16424 59 ST NW", "city": "EDMONTON", "province": "AB", "country": "CA", "postalCode": "T5Y0B1", "twitter": "None", "instagram": "None", "facebook": "None", "youtube": "None", "website": "None", "summary": "None", "logo": "None", "latitude": 53.6268308731606, "longitude": -113.4274460577642}, "830387148RR0001": {"name": "Beautiful Plains Archives Incorporated", "designationCode": "C", "categoryCode": "50", "address": "282 HAMILTON STREET           PO BOX 67", "city": "NEEPAWA", "province": "MB", "country": "CA", "postalCode": "R0J1H0", "twitter": "None", "instagram": "None", "facebook": "None", "youtube": "None", "website": "None", "summary": "None", "logo": "None", "latitude": 50.22838612724359, "longitude": -99.46449101636478}, "803472760RR0001": {"name": "Beautiful Presbyterian Church Corporation", "designationCode": "C", "categoryCode": "37", "address": "4011 PASQUA ST", "city": "REGINA", "province": "SK", "country": "CA", "postalCode": "S4S6C8", "twitter": "None", "instagram": "None", "facebook": "None", "youtube": "None", "website": "None", "summary": "None", "logo": "None", "latitude": 50.41486076019967, "longitude": -104.64086749189259}, "842133480RR0001": {"name": "Beautiful World Canada Foundation", "designationCode": "B", "categoryCode": "03", "address": "5012 - 3080 YONGE ST", "city": "TORONTO", "province": "ON", "country": "CA", "postalCode": "M4N3N1", "twitter": "None", "instagram": "None", "facebook": "None", "youtube": "None", "website": "None", "summary": "None", "logo": "None", "latitude": 43.72561462669516, "longitude": -79.40237629577553}, "828253435RR0001": {"name": "Beaver Creek Farm Sanctuary", "designationCode": "C", "categoryCode": "54", "address": "12368 LAKESHORE ROAD", "city": "WAINFLEET", "province": "ON", "country": "CA", "postalCode": "L0S1V0", "twitter": "None", "instagram": "None", "facebook": "None", "youtube": "None", "website": "None", "summary": "None", "logo": "None", "latitude": 42.870313866811834, "longitude": -79.39380701005516}, "865836753RR0001": {"name": "Beaver Harbour Community Venture Ltd.", "designationCode": "C", "categoryCode": "50", "address": "18 QUAKER LANE", "city": "BEAVER HARBOUR", "province": "NB", "country": "CA", "postalCode": "E5H1N3", "twitter": "None", "instagram": "None", "facebook": "None", "youtube": "None", "website": "None", "summary": "None", "logo": "None", "latitude": 45.06917917064487, "longitude": -66.74466467859534}, "811460385RR0001": {"name": "Beaver Point Community Hall Association", "designationCode": "C", "categoryCode": "56", "address": "1361 BEAVER POINT RD", "city": "SALT SPRING ISLAND", "province": "BC", "country": "CA", "postalCode": "V8K1W9", "twitter": "None", "instagram": "None", "facebook": "None", "youtube": "None", "website": "None", "summary": "None", "logo": "None", "latitude": 48.77086527093795, "longitude": -123.40506040575036}, "767582299RR0001": {"name": "Beaver Valley United Church", "designationCode": "C", "categoryCode": "44", "address": "PO BOX 399                    1917 COLUMBIA GARDENS ROAD", "city": "FRUITVALE", "province": "BC", "country": "CA", "postalCode": "V0G1L0", "twitter": "None", "instagram": "None", "facebook": "None", "youtube": "None", "website": "None", "summary": "None", "logo": "None", "latitude": 49.11362421577158, "longitude": -117.54243340706826}, "867031395RR0001": {"name": "Beaverbrook House Commission", "designationCode": "C", "categoryCode": "50", "address": "518 KING GEORGE HIGHWAY", "city": "MIRAMICHI", "province": "NB", "country": "CA", "postalCode": "E1V1N1", "twitter": "None", "instagram": "None", "facebook": "None", "youtube": "None", "website": "None", "summary": "None", "logo": "None", "latitude": 47.000506174877906, "longitude": -65.56889675990882}, "808668222RR0001": {"name": "Beaverlodge & Grande Prairie Evangelical Strangers Assembly", "designationCode": "C", "categoryCode": "39", "address": "27-714042 RANGE RD 72", "city": "COUNTY OF GRAND PRAIRIE", "province": "AB", "country": "CA", "postalCode": "T8W5J6", "twitter": "None", "instagram": "None", "facebook": "None", "youtube": "None", "website": "None", "summary": "None", "logo": "None", "latitude": 55.16959189786974, "longitude": -118.97456285386632}, "883385510RR0001": {"name": "Beaverlodge Care for Kids Inc.", "designationCode": "C", "categoryCode": "01", "address": "6691 RANNOCK AVENUE", "city": "WINNIPEG", "province": "MB", "country": "CA", "postalCode": "R3R1Z3", "twitter": "None", "instagram": "None", "facebook": "None", "youtube": "None", "website": "None", "summary": "None", "logo": "None", "latitude": 49.85069952712177, "longitude": -97.317432}, "808783831RR0001": {"name": "Beaverlodge Hidden Potential Society", "designationCode": "C", "categoryCode": "01", "address": "POST OFFICE BOX 2072", "city": "BEAVERLODGE", "province": "AB", "country": "CA", "postalCode": "T0H0C0", "twitter": "None", "instagram": "None", "facebook": "None", "youtube": "None", "website": "None", "summary": "None", "logo": "None", "latitude": 55.209100000000035, "longitude": -119.42957999999999}, "806755518RR0001": {"name": "Beaverton Special Events", "designationCode": "C", "categoryCode": "53", "address": "P O BOX 125", "city": "BEAVERTON", "province": "ON", "country": "CA", "postalCode": "L0K1A0", "twitter": "None", "instagram": "None", "facebook": "None", "youtube": "None", "website": "None", "summary": "None", "logo": "None", "latitude": 44.43273000000005, "longitude": -79.15524999999997}, "833382609RR0001": {"name": "Beca Foundation Canada Ltd.", "designationCode": "C", "categoryCode": "21", "address": "219-6203 28 AVE", "city": "EDMONTON", "province": "AB", "country": "CA", "postalCode": "T6L6K3", "twitter": "None", "instagram": "None", "facebook": "None", "youtube": "None", "website": "None", "summary": "None", "logo": "None", "latitude": 53.45855221626255, "longitude": -113.42872253250113}, "843552431RR0001": {"name": "Because I Care (Canada) Children's Charity", "designationCode": "A", "categoryCode": "09", "address": "710 SWAN PLACE,", "city": "PICKERING", "province": "ON", "country": "CA", "postalCode": "L1X2V7", "twitter": "None", "instagram": "None", "facebook": "None", "youtube": "None", "website": "None", "summary": "None", "logo": "None", "latitude": 43.840371676241396, "longitude": -79.12188454592736}, "847274339RR0001": {"name": "Because I Love You Parent and Youth Support Society", "designationCode": "C", "categoryCode": "09", "address": "6015 184 STREET", "city": "EDMONTON", "province": "AB", "country": "CA", "postalCode": "T6M1T8", "twitter": "None", "instagram": "None", "facebook": "None", "youtube": "None", "website": "None", "summary": "None", "logo": "None", "latitude": 53.49427312143688, "longitude": -113.64010133838812}, "805694916RR0001": {"name": "Bedeque Area Historical Society Inc.", "designationCode": "C", "categoryCode": "50", "address": "950 CALLBECK ST", "city": "CENTRAL BEDEQUE", "province": "PE", "country": "CA", "postalCode": "C0B1G0", "twitter": "None", "instagram": "None", "facebook": "None", "youtube": "None", "website": "None", "summary": "None", "logo": "None", "latitude": 46.33974646378898, "longitude": -63.70294450735759}, "119288918RR1349": {"name": "Bedford Congregation of Jehovah's Witnesses, Halifax, Nova Scotia", "designationCode": "C", "categoryCode": "61", "address": "20 CUNNINGHAM DR", "city": "BEDFORD", "province": "NS", "country": "CA", "postalCode": "B4A2B4", "twitter": "None", "instagram": "None", "facebook": "None", "youtube": "None", "website": "None", "summary": "None", "logo": "None", "latitude": 44.73014373772286, "longitude": -63.66498472664302}, "106781677RR0001": {"name": "Bedrock Playschool society", "designationCode": "C", "categoryCode": "20", "address": "BOX 2954", "city": "DRUMHELLER", "province": "AB", "country": "CA", "postalCode": "T0J0Y0", "twitter": "None", "instagram": "None", "facebook": "None", "youtube": "None", "website": "None", "summary": "None", "logo": "None", "latitude": 51.46154700000005, "longitude": -112.70878099999993}, "745761692RR0001": {"name": "Bee City Canada", "designationCode": "C", "categoryCode": "52", "address": "17 - 1875 LESLIE ST", "city": "NORTH YORK", "province": "ON", "country": "CA", "postalCode": "M3B2M5", "twitter": "None", "instagram": "None", "facebook": "None", "youtube": "None", "website": "None", "summary": "None", "logo": "None", "latitude": 43.756235338623, "longitude": -79.36067576449976}, "804253177RR0001": {"name": "Bee Me Kidz Inc.", "designationCode": "B", "categoryCode": "21", "address": "200-1920 YONGE STREET", "city": "TORONTO", "province": "ON", "country": "CA", "postalCode": "M4S3E2", "twitter": "None", "instagram": "None", "facebook": "None", "youtube": "None", "website": "None", "summary": "None", "logo": "None", "latitude": 43.698824843181974, "longitude": -79.39675730451809}, "774959910RR0001": {"name": "Beechy Pastoral Charge", "designationCode": "C", "categoryCode": "44", "address": "PO BOX 54", "city": "BEECHY", "province": "SK", "country": "CA", "postalCode": "S0L0C0", "twitter": "None", "instagram": "None", "facebook": "None", "youtube": "None", "website": "None", "summary": "None", "logo": "None", "latitude": 50.87650000000008, "longitude": -107.38328999999999}, "826665200RR0001": {"name": "Beeton Pastoral Charge", "designationCode": "C", "categoryCode": "44", "address": "37 CENTRE STREET NORTH        BOX 44", "city": "BEETON", "province": "ON", "country": "CA", "postalCode": "L0G1A0", "twitter": "None", "instagram": "None", "facebook": "None", "youtube": "None", "website": "None", "summary": "None", "logo": "None", "latitude": 44.0804029923267, "longitude": -79.7847778642666}, "800475881RR0001": {"name": "Before the Bridge Senior K-9 Rescue Inc.", "designationCode": "C", "categoryCode": "54", "address": "7 PRINCE STREET               POST OFFICE BOX 11", "city": "STONY MOUNTAIN", "province": "MB", "country": "CA", "postalCode": "R0C3A0", "twitter": "None", "instagram": "None", "facebook": "None", "youtube": "None", "website": "None", "summary": "None", "logo": "None", "latitude": 50.086526677842045, "longitude": -97.2161211661933}, "118802370RR0001": {"name": "Beginning Again Richmond Hill", "designationCode": "C", "categoryCode": "01", "address": "12 LEVENDALE RD", "city": "RICHMOND HILL", "province": "ON", "country": "CA", "postalCode": "L4C4H2", "twitter": "None", "instagram": "None", "facebook": "None", "youtube": "None", "website": "None", "summary": "None", "logo": "None", "latitude": 43.88235589312724, "longitude": -79.44109481903173}, "815689856RR0001": {"name": "Beginnings Family Services Care Centres", "designationCode": "B", "categoryCode": "03", "address": "1 YOUNG STREET                SUITE 308", "city": "HAMILTON", "province": "ON", "country": "CA", "postalCode": "L8N1T8", "twitter": "None", "instagram": "None", "facebook": "None", "youtube": "None", "website": "None", "summary": "None", "logo": "None", "latitude": 43.25126996087477, "longitude": -79.87107463835193}, "855552477RR0001": {"name": "Behaviour Therapy and Learning Centre Ltd.", "designationCode": "C", "categoryCode": "20", "address": "100 - 2107 SIROCCO DR SW", "city": "CALGARY", "province": "AB", "country": "CA", "postalCode": "T3H5P1", "twitter": "None", "instagram": "None", "facebook": "None", "youtube": "None", "website": "None", "summary": "None", "logo": "None", "latitude": 51.03241549093836, "longitude": -114.17071285221779}, "888546009RR0001": {"name": "Behta Darya Community Church", "designationCode": "C", "categoryCode": "39", "address": "3479 AUTUMNLEAF CRESCENT", "city": "MISSISSAUGA", "province": "ON", "country": "CA", "postalCode": "L5L1K6", "twitter": "None", "instagram": "None", "facebook": "None", "youtube": "None", "website": "None", "summary": "None", "logo": "None", "latitude": 43.536681168734596, "longitude": -79.69419492313452}, "815688320RR0001": {"name": "Beis Hatavshil And Hachnosas Orchim Of Toronto Charitable Fund", "designationCode": "C", "categoryCode": "09", "address": "83 SULTANA AVENUE", "city": "TORONTO", "province": "ON", "country": "CA", "postalCode": "M6A1T4", "twitter": "None", "instagram": "None", "facebook": "None", "youtube": "None", "website": "None", "summary": "None", "logo": "None", "latitude": 43.7273978748054, "longitude": -79.43805748666979}, "837846757RR0001": {"name": "Bel-Fran Charitable Foundation", "designationCode": "B", "categoryCode": "03", "address": "2600-1075 GEORGIA ST W", "city": "VANCOUVER", "province": "BC", "country": "CA", "postalCode": "V6E3C9", "twitter": "None", "instagram": "None", "facebook": "None", "youtube": "None", "website": "None", "summary": "None", "logo": "None", "latitude": 49.28546952210143, "longitude": -123.12275585354067}, "803068311RR0001": {"name": "Belbeck-Fukakusa Family Foundation", "designationCode": "B", "categoryCode": "03", "address": "151 BLOOR ST WEST, 12TH FLOOR", "city": "TORONTO", "province": "ON", "country": "CA", "postalCode": "M5A1S4", "twitter": "None", "instagram": "None", "facebook": "None", "youtube": "None", "website": "None", "summary": "None", "logo": "None", "latitude": 43.65438900000005, "longitude": -79.36975249999993}, "834651630RR0001": {"name": "Believe in the Gold", "designationCode": "C", "categoryCode": "11", "address": "307 SPRINGBANK PLACE SW", "city": "CALGARY", "province": "AB", "country": "CA", "postalCode": "T3H3S4", "twitter": "None", "instagram": "None", "facebook": "None", "youtube": "None", "website": "None", "summary": "None", "logo": "None", "latitude": 51.019026349702855, "longitude": -114.20346301093561}, "820179935RR0001": {"name": "Believers House of Hope Church", "designationCode": "C", "categoryCode": "39", "address": "PO BOX 20018 CHINGUACOUSY", "city": "BRAMPTON", "province": "ON", "country": "CA", "postalCode": "L6Y0L9", "twitter": "None", "instagram": "None", "facebook": "None", "youtube": "None", "website": "None", "summary": "None", "logo": "None", "latitude": 43.656616656783406, "longitude": -79.7679286017001}, "891526741RR0001": {"name": "Bell Aliant Pioneers-NB Chapter 51 Scholarship Foundation Inc.", "designationCode": "C", "categoryCode": "21", "address": "25 RIVERDALE DR", "city": "HAMPTON", "province": "NB", "country": "CA", "postalCode": "E5N5K2", "twitter": "None", "instagram": "None", "facebook": "None", "youtube": "None", "website": "None", "summary": "None", "logo": "None", "latitude": 45.52047266002068, "longitude": -65.8145594411966}, "801795790RR0001": {"name": "Belledune St. Luke's Church & Cemetery Property Ltd.", "designationCode": "C", "categoryCode": "59", "address": "83 CHALEUR DR", "city": "BELLEDUNE", "province": "NB", "country": "CA", "postalCode": "E8G1Z3", "twitter": "None", "instagram": "None", "facebook": "None", "youtube": "None", "website": "None", "summary": "None", "logo": "None", "latitude": 47.90381983542035, "longitude": -65.8781996606845}, "840546824RR0001": {"name": "Belleisle Firefighters Association Inc.", "designationCode": "C", "categoryCode": "59", "address": "1656 RTE 124", "city": "SPRINGFIELD", "province": "NB", "country": "CA", "postalCode": "E5T2J8", "twitter": "None", "instagram": "None", "facebook": "None", "youtube": "None", "website": "None", "summary": "None", "logo": "None", "latitude": 45.67641893184039, "longitude": -65.81669143323596}, "832756332RR0001": {"name": "Belleisle Watershed Coalition Inc.", "designationCode": "C", "categoryCode": "52", "address": "PO BOX 856", "city": "HATFIELD PT.", "province": "NB", "country": "CA", "postalCode": "E5T2S4", "twitter": "None", "instagram": "None", "facebook": "None", "youtube": "None", "website": "None", "summary": "None", "logo": "None", "latitude": 45.650074195082226, "longitude": -65.86112676693986}, "851501627RR0001": {"name": "Belleville and Quinte West Community Health Centre", "designationCode": "C", "categoryCode": "11", "address": "161 BRIDGE ST W", "city": "BELLEVILLE", "province": "ON", "country": "CA", "postalCode": "K8P1K2", "twitter": "None", "instagram": "None", "facebook": "None", "youtube": "None", "website": "None", "summary": "None", "logo": "None", "latitude": 44.16084261670451, "longitude": -77.39618659190131}, "873711832RR0001": {"name": "Bellsite Community Cemetery", "designationCode": "C", "categoryCode": "59", "address": "POST OFFICE BOX 430           310 VICTORIA AVENUE", "city": "BIRCH RIVER", "province": "MB", "country": "CA", "postalCode": "R0L0E0", "twitter": "None", "instagram": "None", "facebook": "None", "youtube": "None", "website": "None", "summary": "None", "logo": "None", "latitude": 52.394936574842355, "longitude": -101.1071202755861}, "811312131RR0001": {"name": "Beloved Women Organization", "designationCode": "C", "categoryCode": "20", "address": "1102 CUMMING BOULEVARD", "city": "MILTON", "province": "ON", "country": "CA", "postalCode": "L9T6T6", "twitter": "None", "instagram": "None", "facebook": "None", "youtube": "None", "website": "None", "summary": "None", "logo": "None", "latitude": 43.52679397140635, "longitude": -79.85596030723073}, "838825735RR0001": {"name": "Beltline Urban Society", "designationCode": "C", "categoryCode": "52", "address": "1500 14 ST SW SUITE 68", "city": "CALGARY", "province": "AB", "country": "CA", "postalCode": "T3C1C9", "twitter": "None", "instagram": "None", "facebook": "None", "youtube": "None", "website": "None", "summary": "None", "logo": "None", "latitude": 51.039320732080775, "longitude": -114.09466623208077}, "807732524RR0001": {"name": "Belz Avreichim Community Center", "designationCode": "C", "categoryCode": "49", "address": "6027 RUE JEANNE-MANCE", "city": "MONTREAL", "province": "QC", "country": "CA", "postalCode": "H2V4K9", "twitter": "None", "instagram": "None", "facebook": "None", "youtube": "None", "website": "None", "summary": "None", "logo": "None", "latitude": 45.52581917375491, "longitude": -73.6080221010157}, "847836624RR0001": {"name": "Belz Community Center", "designationCode": "C", "categoryCode": "42", "address": "5810 JEANNE MANCE", "city": "MONTREAL", "province": "QC", "country": "CA", "postalCode": "H2V4K8", "twitter": "None", "instagram": "None", "facebook": "None", "youtube": "None", "website": "None", "summary": "None", "logo": "None", "latitude": 45.52447881513659, "longitude": -73.60522388455756}, "804552495RR0001": {"name": "Beneflick Foundation", "designationCode": "A", "categoryCode": "03", "address": "1500 WEST GEORGIA STREET      SUITE 1250   BOX 62", "city": "VANCOUVER", "province": "BC", "country": "CA", "postalCode": "V6G2Z6", "twitter": "None", "instagram": "None", "facebook": "None", "youtube": "None", "website": "None", "summary": "None", "logo": "None", "latitude": 49.2900638104334, "longitude": -123.12989899362336}, "804213759RR0001": {"name": "BenefAction Foundation", "designationCode": "A", "categoryCode": "03", "address": "100 KING STREET W, SUITE 5700", "city": "TORONTO", "province": "ON", "country": "CA", "postalCode": "M5X1C7", "twitter": "None", "instagram": "None", "facebook": "None", "youtube": "None", "website": "None", "summary": "None", "logo": "None", "latitude": 43.64837316573348, "longitude": -79.3815457146978}, "816758759RR0001": {"name": "Benevolent Irish Society Charitable Foundation Inc.", "designationCode": "A", "categoryCode": "03", "address": "30 HARVEY ROAD                P.O. BOX 1034", "city": "SAINT JOHN'S", "province": "NL", "country": "CA", "postalCode": "A1C5M3", "twitter": "None", "instagram": "None", "facebook": "None", "youtube": "None", "website": "None", "summary": "None", "logo": "None", "latitude": 47.56552450320265, "longitude": -52.71155729560264}, "841687361RR0001": {"name": "Benevolent Relief Senior Care Society", "designationCode": "C", "categoryCode": "09", "address": "250-11800 VOYAGEUR WAY", "city": "RICHMOND", "province": "BC", "country": "CA", "postalCode": "V6X3G9", "twitter": "None", "instagram": "None", "facebook": "None", "youtube": "None", "website": "None", "summary": "None", "logo": "None", "latitude": 49.19118248845882, "longitude": -123.09380247388785}, "836707497RR0001": {"name": "Benevolent Trust Foundation", "designationCode": "B", "categoryCode": "05", "address": "PO BOX 162", "city": "BON ACCORD", "province": "AB", "country": "CA", "postalCode": "T0A0K0", "twitter": "None", "instagram": "None", "facebook": "None", "youtube": "None", "website": "None", "summary": "None", "logo": "None", "latitude": 53.837270000000046, "longitude": -113.41078999999996}, "890894850RR0002": {"name": "Bengali Association of Calgary", "designationCode": "C", "categoryCode": "48", "address": "P.O.BOX 68233 RPO CROWFOOT", "city": "CALGARY", "province": "AB", "country": "CA", "postalCode": "T3G3N8", "twitter": "None", "instagram": "None", "facebook": "None", "youtube": "None", "website": "None", "summary": "None", "logo": "None", "latitude": 51.1236451049707, "longitude": -114.20901030054168}, "119288918RR1111": {"name": "Bengough Congregation of Jehovah's Witnesses, Bengough, Saskatchewan", "designationCode": "C", "categoryCode": "61", "address": "BOX 386", "city": "OGEMA", "province": "SK", "country": "CA", "postalCode": "S0C1Y0", "twitter": "None", "instagram": "None", "facebook": "None", "youtube": "None", "website": "None", "summary": "None", "logo": "None", "latitude": 49.58337000000006, "longitude": -104.91778999999997}, "140825266RR0001": {"name": "Benign Essential Blepharospasm Canadian Research Foundation Inc.", "designationCode": "C", "categoryCode": "11", "address": "107 WINNERS CIRCLE", "city": "TORONTO", "province": "ON", "country": "CA", "postalCode": "M4L3Y7", "twitter": "None", "instagram": "None", "facebook": "None", "youtube": "None", "website": "None", "summary": "None", "logo": "None", "latitude": 43.66715315098965, "longitude": -79.3100374593169}, "818670069RR0001": {"name": "Benin Orphanage Foundation", "designationCode": "B", "categoryCode": "01", "address": "1902 ROUTE 845", "city": "SUMMERVILLE", "province": "NB", "country": "CA", "postalCode": "E5S1G2", "twitter": "None", "instagram": "None", "facebook": "None", "youtube": "None", "website": "None", "summary": "None", "logo": "None", "latitude": 45.35223076242491, "longitude": -66.09143074861946}, "119147379RR0001": {"name": "Benjamin and Vanda Treiser Maison Shalom Inc./Benjamin and Vanda Treiser Shalom House Inc.", "designationCode": "C", "categoryCode": "01", "address": "4927 CARLTON AVE.,", "city": "MONTREAL", "province": "QC", "country": "CA", "postalCode": "H3W1G9", "twitter": "None", "instagram": "None", "facebook": "None", "youtube": "None", "website": "None", "summary": "None", "logo": "None", "latitude": 45.49316459645676, "longitude": -73.64146585195321}, "703234526RR0001": {"name": "Benjamin Herbert Birstein Trust #1", "designationCode": "B", "categoryCode": "15", "address": "3560 BATHURST ST", "city": "NORTH YORK", "province": "ON", "country": "CA", "postalCode": "M6A2E1", "twitter": "None", "instagram": "None", "facebook": "None", "youtube": "None", "website": "None", "summary": "None", "logo": "None", "latitude": 43.730265584771324, "longitude": -79.43232918168847}, "793683087RR0001": {"name": "Benjamin Herbert Birstein Trust #2", "designationCode": "A", "categoryCode": "15", "address": "1001 - 522 UNIVERSITY AVE", "city": "TORONTO", "province": "ON", "country": "CA", "postalCode": "M5G1W7", "twitter": "None", "instagram": "None", "facebook": "None", "youtube": "None", "website": "None", "summary": "None", "logo": "None", "latitude": 43.65597971994926, "longitude": -79.38900529894951}, "775327489RR0001": {"name": "Benjamin Herbert Birstein Trust #5", "designationCode": "A", "categoryCode": "15", "address": "4001 LESLIE ST", "city": "NORTH YORK", "province": "ON", "country": "CA", "postalCode": "M2K1E1", "twitter": "None", "instagram": "None", "facebook": "None", "youtube": "None", "website": "None", "summary": "None", "logo": "None", "latitude": 43.7694693407383, "longitude": -79.36422415926172}, "777871880RR0001": {"name": "Benjamin Herbert Birstein Trust #6", "designationCode": "A", "categoryCode": "15", "address": "541 FINCH AVENUE WEST", "city": "TORONTO", "province": "ON", "country": "CA", "postalCode": "M2R3Y3", "twitter": "None", "instagram": "None", "facebook": "None", "youtube": "None", "website": "None", "summary": "None", "logo": "None", "latitude": 43.77306241073215, "longitude": -79.4469466001084}, "810202556RR0001": {"name": "Beraca International Church", "designationCode": "C", "categoryCode": "39", "address": "1510-120 WIDDICOMBE HILL BLVD", "city": "TORONTO", "province": "ON", "country": "CA", "postalCode": "M9R4A6", "twitter": "None", "instagram": "None", "facebook": "None", "youtube": "None", "website": "None", "summary": "None", "logo": "None", "latitude": 43.676489116567616, "longitude": -79.5581254632407}, "819746892RR0001": {"name": "Berean Church of God International Global Missions", "designationCode": "C", "categoryCode": "47", "address": "217 MOUNTAINBERRY ROAD", "city": "BRAMPTON", "province": "ON", "country": "CA", "postalCode": "L6R1W3", "twitter": "None", "instagram": "None", "facebook": "None", "youtube": "None", "website": "None", "summary": "None", "logo": "None", "latitude": 43.7615532489756, "longitude": -79.72763620497427}, "865768915RR0001": {"name": "Berhan Semay Church of Toronto", "designationCode": "C", "categoryCode": "39", "address": "345 BLOOR STREET EAST         P.O. BOX 72616", "city": "TORONTO", "province": "ON", "country": "CA", "postalCode": "M4W3S9", "twitter": "None", "instagram": "None", "facebook": "None", "youtube": "None", "website": "None", "summary": "None", "logo": "None", "latitude": 43.67207081204951, "longitude": -79.37813779251556}, "800066722RR0001": {"name": "Berkshire Hathaway Energy Canada Foundation", "designationCode": "B", "categoryCode": "03", "address": "2611 3 AVE SE", "city": "CALGARY", "province": "AB", "country": "CA", "postalCode": "T2A7W7", "twitter": "None", "instagram": "None", "facebook": "None", "youtube": "None", "website": "None", "summary": "None", "logo": "None", "latitude": 51.04729659781307, "longitude": -113.99957664045806}, "868230194RR0001": {"name": "Bernadette N. Swan Social Care Foundation", "designationCode": "C", "categoryCode": "09", "address": "10211-105 STREET", "city": "EDMONTON", "province": "AB", "country": "CA", "postalCode": "T5J1E3", "twitter": "None", "instagram": "None", "facebook": "None", "youtube": "None", "website": "None", "summary": "None", "logo": "None", "latitude": 53.54344800000001, "longitude": -113.50106780345118}, "847000205RR0001": {"name": "Bernhard Melitz Foundation", "designationCode": "B", "categoryCode": "05", "address": "1203 4 AVE S", "city": "LETHBRIDGE", "province": "AB", "country": "CA", "postalCode": "T1J0P9", "twitter": "None", "instagram": "None", "facebook": "None", "youtube": "None", "website": "None", "summary": "None", "logo": "None", "latitude": 49.69482147879261, "longitude": -112.8287816662531}, "804580173RR0001": {"name": "Bernie's Buddies", "designationCode": "C", "categoryCode": "09", "address": "227 MARTELL ROAD NORTHEAST", "city": "CALGARY", "province": "AB", "country": "CA", "postalCode": "T2A2X2", "twitter": "None", "instagram": "None", "facebook": "None", "youtube": "None", "website": "None", "summary": "None", "logo": "None", "latitude": 51.054845029141916, "longitude": -113.95941721663104}, "804735306RR0001": {"name": "Bertie Church", "designationCode": "C", "categoryCode": "39", "address": "3841 PEARL STREET             POST OFFICE BOX 547", "city": "RIDGEWAY", "province": "ON", "country": "CA", "postalCode": "L0S1N0", "twitter": "None", "instagram": "None", "facebook": "None", "youtube": "None", "website": "None", "summary": "None", "logo": "None", "latitude": 42.88999847013694, "longitude": -79.05824066472387}, "836361972RR0001": {"name": "Bessie Nichols School Fundraising Society", "designationCode": "C", "categoryCode": "21", "address": "189 HEMINGWAY ROAD", "city": "EDMONTON", "province": "AB", "country": "CA", "postalCode": "T6M2Z7", "twitter": "None", "instagram": "None", "facebook": "None", "youtube": "None", "website": "None", "summary": "None", "logo": "None", "latitude": 53.487709733001196, "longitude": -113.67211937561073}, "858632458RR0001": {"name": "BestCure Foundation / Fondation BestCure", "designationCode": "C", "categoryCode": "21", "address": "160 ELGIN ST                  SUITE 2600", "city": "OTTAWA", "province": "ON", "country": "CA", "postalCode": "K1P1C3", "twitter": "None", "instagram": "None", "facebook": "None", "youtube": "None", "website": "None", "summary": "None", "logo": "None", "latitude": 45.42103723991791, "longitude": -75.6931236390969}, "851174045RR0001": {"name": "Bete Saida Evangelical Church of Lethbridge", "designationCode": "C", "categoryCode": "39", "address": "416-12 ST.S.", "city": "LETHBRIDGE", "province": "AB", "country": "CA", "postalCode": "T1J2R4", "twitter": "None", "instagram": "None", "facebook": "None", "youtube": "None", "website": "None", "summary": "None", "logo": "None", "latitude": 49.69448846614358, "longitude": -112.82911861533543}, "795084698RR0001": {"name": "Betesda Church of Calgary", "designationCode": "C", "categoryCode": "36", "address": "115 EVANSBOROUGH COMMON NW", "city": "CALGARY", "province": "AB", "country": "CA", "postalCode": "T3P0N8", "twitter": "None", "instagram": "None", "facebook": "None", "youtube": "None", "website": "None", "summary": "None", "logo": "None", "latitude": 51.181800831525216, "longitude": -114.12385833319865}, "896678661RR0001": {"name": "Beth Donovan Hospice", "designationCode": "C", "categoryCode": "11", "address": "PO BOX 339                    25 HILLTOP CRESCENT", "city": "KEMPTVILLE", "province": "ON", "country": "CA", "postalCode": "K0G1J0", "twitter": "None", "instagram": "None", "facebook": "None", "youtube": "None", "website": "None", "summary": "None", "logo": "None", "latitude": 45.01069949235396, "longitude": -75.64118036222499}, "889979480RR0006": {"name": "Beth Emanuel Church", "designationCode": "C", "categoryCode": "39", "address": "430 GREY STREET", "city": "LONDON", "province": "ON", "country": "CA", "postalCode": "N6B1H3", "twitter": "None", "instagram": "None", "facebook": "None", "youtube": "None", "website": "None", "summary": "None", "logo": "None", "latitude": 42.97966298309177, "longitude": -81.23497962129947}, "829438696RR0001": {"name": "Beth Potter's Home Incorporated", "designationCode": "C", "categoryCode": "01", "address": "142 HIDDLETON CRESCENT", "city": "WINNIPEG", "province": "MB", "country": "CA", "postalCode": "R2P0S1", "twitter": "None", "instagram": "None", "facebook": "None", "youtube": "None", "website": "None", "summary": "None", "logo": "None", "latitude": 49.95864306076531, "longitude": -97.17013970664772}, "850071754RR0001": {"name": "Beth-El Congregation of Cornwall", "designationCode": "C", "categoryCode": "59", "address": "122 CRAIG HENRY DR", "city": "NEPEAN", "province": "ON", "country": "CA", "postalCode": "K2G4J1", "twitter": "None", "instagram": "None", "facebook": "None", "youtube": "None", "website": "None", "summary": "None", "logo": "None", "latitude": 45.33408952510255, "longitude": -75.76330402553522}, "800647075RR0001": {"name": "Bethany Care Home of Norwich", "designationCode": "C", "categoryCode": "01", "address": "1 - 35 MAIN ST E              RR 3", "city": "NORWICH", "province": "ON", "country": "CA", "postalCode": "N0J1P0", "twitter": "None", "instagram": "None", "facebook": "None", "youtube": "None", "website": "None", "summary": "None", "logo": "None", "latitude": 42.9177309674049, "longitude": -80.66295843771199}, "805193653RR0001": {"name": "Bethany International Church of Calgary", "designationCode": "C", "categoryCode": "39", "address": "20 HANOVER RD SW", "city": "CALGARY", "province": "AB", "country": "CA", "postalCode": "T2V3J4", "twitter": "None", "instagram": "None", "facebook": "None", "youtube": "None", "website": "None", "summary": "None", "logo": "None", "latitude": 50.97257941326677, "longitude": -114.0893303480294}, "835459330RR0001": {"name": "Bethany Methodist Church - Brampton", "designationCode": "C", "categoryCode": "39", "address": "10661 CHINGUACOUSY RD         RPO FLETCHERS CREEK, 70047", "city": "BRAMPTON", "province": "ON", "country": "CA", "postalCode": "L7A0N5", "twitter": "None", "instagram": "None", "facebook": "None", "youtube": "None", "website": "None", "summary": "None", "logo": "None", "latitude": 43.69768722485402, "longitude": -79.82385393721547}, "836567651RR0001": {"name": "Bethany Romanian Pentecostal Church", "designationCode": "C", "categoryCode": "39", "address": "PO BOX 11044 RPO SETON", "city": "CALGARY", "province": "AB", "country": "CA", "postalCode": "T3M1Y6", "twitter": "None", "instagram": "None", "facebook": "None", "youtube": "None", "website": "None", "summary": "None", "logo": "None", "latitude": 50.8740905587295, "longitude": -113.9571987535017}, "852607019RR0001": {"name": "Bethany Village Baptist Church", "designationCode": "C", "categoryCode": "31", "address": "820 WILLOWDALE AVE", "city": "NORTH YORK", "province": "ON", "country": "CA", "postalCode": "M2N5B8", "twitter": "None", "instagram": "None", "facebook": "None", "youtube": "None", "website": "None", "summary": "None", "logo": "None", "latitude": 43.78104155092621, "longitude": -79.40689701667708}, "119166783RR0001": {"name": "Bethel - St. Andrews United Church", "designationCode": "C", "categoryCode": "44", "address": "184 STUBBLE RD", "city": "FITZROY HARBOUR", "province": "ON", "country": "CA", "postalCode": "K0A1X0", "twitter": "None", "instagram": "None", "facebook": "None", "youtube": "None", "website": "None", "summary": "None", "logo": "None", "latitude": 45.489159298655665, "longitude": -76.22674802233945}, "106788573RR0001": {"name": "Bethel Baptist Church, Sechelt", "designationCode": "C", "categoryCode": "31", "address": "PO BOX 534", "city": "SECHELT", "province": "BC", "country": "CA", "postalCode": "V0N3A0", "twitter": "None", "instagram": "None", "facebook": "None", "youtube": "None", "website": "None", "summary": "None", "logo": "None", "latitude": 49.473460000000046, "longitude": -123.75460999999996}, "816217244RR0001": {"name": "Bethel Children's Home Inc.", "designationCode": "C", "categoryCode": "01", "address": "POST OFFICE BOX 778", "city": "STONEWALL", "province": "MB", "country": "CA", "postalCode": "R0C2Z0", "twitter": "None", "instagram": "None", "facebook": "None", "youtube": "None", "website": "None", "summary": "None", "logo": "None", "latitude": 50.36947800000006, "longitude": -96.84479599999993}, "843660333RR0001": {"name": "Bethel Christian Fellowship of Prince Albert", "designationCode": "C", "categoryCode": "39", "address": "1204 3 AVE WEST", "city": "PRINCE ALBERT", "province": "SK", "country": "CA", "postalCode": "S6V5G4", "twitter": "None", "instagram": "None", "facebook": "None", "youtube": "None", "website": "None", "summary": "None", "logo": "None", "latitude": 53.20209092180953, "longitude": -105.7622530473541}, "814173464RR0001": {"name": "Bethel Community", "designationCode": "C", "categoryCode": "39", "address": "95 STEELCASE RD E", "city": "MARKHAM", "province": "ON", "country": "CA", "postalCode": "L3R1E9", "twitter": "None", "instagram": "None", "facebook": "None", "youtube": "None", "website": "None", "summary": "None", "logo": "None", "latitude": 43.82016638686619, "longitude": -79.34740001217635}, "813366606RR0001": {"name": "Bethel Ethiopian Evangelical Church", "designationCode": "C", "categoryCode": "39", "address": "310-525 HIGHLAND ROAD WEST", "city": "KITCHENER", "province": "ON", "country": "CA", "postalCode": "N2M5P4", "twitter": "None", "instagram": "None", "facebook": "None", "youtube": "None", "website": "None", "summary": "None", "logo": "None", "latitude": 43.43533340931432, "longitude": -80.51576421640084}, "752622498RR0001": {"name": "Bethel Gloire en Gloire Bethel Glory To Glory", "designationCode": "B", "categoryCode": "39", "address": "8980 AV SAN-FRANCISCO", "city": "BROSSARD", "province": "QC", "country": "CA", "postalCode": "J4X2S8", "twitter": "None", "instagram": "None", "facebook": "None", "youtube": "None", "website": "None", "summary": "None", "logo": "None", "latitude": 45.44121246768411, "longitude": -73.47959066472387}, "837820489RR0001": {"name": "Bethel Kingdom Ministries Inc.", "designationCode": "C", "categoryCode": "39", "address": "112 PADFIELD DRIVE", "city": "BOWMANVILLE", "province": "ON", "country": "CA", "postalCode": "L1C5H6", "twitter": "None", "instagram": "None", "facebook": "None", "youtube": "None", "website": "None", "summary": "None", "logo": "None", "latitude": 43.90247841355523, "longitude": -78.71156760978694}, "708588892RR0001": {"name": "Bethel Methodist Church, Calgary", "designationCode": "C", "categoryCode": "39", "address": "3545 - 32 ND AVENUE NE        BOX 652", "city": "CALGARY", "province": "AB", "country": "CA", "postalCode": "T1Y6M6", "twitter": "None", "instagram": "None", "facebook": "None", "youtube": "None", "website": "None", "summary": "None", "logo": "None", "latitude": 51.081398510098886, "longitude": -113.98430255395505}, "860144385RR0001": {"name": "Bethel Mission Community Church", "designationCode": "B", "categoryCode": "39", "address": "RR 2, 6929 HWY 3", "city": "MAHONE BAY", "province": "NS", "country": "CA", "postalCode": "B0J2E0", "twitter": "None", "instagram": "None", "facebook": "None", "youtube": "None", "website": "None", "summary": "None", "logo": "None", "latitude": 44.44868733432666, "longitude": -64.38135963611465}, "808219240RR0001": {"name": "Bethel New Covenant Apostolic Church of Calgary Fellowship", "designationCode": "C", "categoryCode": "39", "address": "2220 39TH AVENUE NORTHEAST", "city": "CALGARY", "province": "AB", "country": "CA", "postalCode": "T2E6P7", "twitter": "None", "instagram": "None", "facebook": "None", "youtube": "None", "website": "None", "summary": "None", "logo": "None", "latitude": 51.0882825004327, "longitude": -114.00770313918865}, "839807484RR0001": {"name": "Bethel New Covenant Church", "designationCode": "C", "categoryCode": "39", "address": "39 PONYMEADOW WAY", "city": "BRAMPTON", "province": "ON", "country": "CA", "postalCode": "L6X0M5", "twitter": "None", "instagram": "None", "facebook": "None", "youtube": "None", "website": "None", "summary": "None", "logo": "None", "latitude": 43.67670076934627, "longitude": -79.80968756618965}, "816179618RR0001": {"name": "Bethel Outreach Church", "designationCode": "C", "categoryCode": "39", "address": "59 SCOTCH COVE RD", "city": "CHESTER", "province": "NS", "country": "CA", "postalCode": "B0J1J0", "twitter": "None", "instagram": "None", "facebook": "None", "youtube": "None", "website": "None", "summary": "None", "logo": "None", "latitude": 44.569087794073425, "longitude": -64.2110905861563}, "808171516RR0001": {"name": "Bethel Outreach End-Time Message Tabernacle", "designationCode": "C", "categoryCode": "39", "address": "338 QUEEN STREET EAST         SUITE 215", "city": "BRAMPTON", "province": "ON", "country": "CA", "postalCode": "L6V1C4", "twitter": "None", "instagram": "None", "facebook": "None", "youtube": "None", "website": "None", "summary": "None", "logo": "None", "latitude": 43.70175741704116, "longitude": -79.7426193600527}, "106788987RR0001": {"name": "Bethel Pentecostal Church", "designationCode": "C", "categoryCode": "36", "address": "92 MAIN STREET                P.O. BOX 250", "city": "SMOOTH ROCK FALLS", "province": "ON", "country": "CA", "postalCode": "P0L2B0", "twitter": "None", "instagram": "None", "facebook": "None", "youtube": "None", "website": "None", "summary": "None", "logo": "None", "latitude": 49.27610420204172, "longitude": -81.62280209754026}, "868976531RR0001": {"name": "Bethel Pentecostal Church", "designationCode": "C", "categoryCode": "36", "address": "20411 DOUGLAS CRES", "city": "LANGLEY", "province": "BC", "country": "CA", "postalCode": "V3A4B6", "twitter": "None", "instagram": "None", "facebook": "None", "youtube": "None", "website": "None", "summary": "None", "logo": "None", "latitude": 49.10360045726032, "longitude": -122.65630487164188}, "893775924RR0001": {"name": "Bethel Pentecostal Church", "designationCode": "C", "categoryCode": "36", "address": "11501 17TH ST", "city": "DAWSON CREEK", "province": "BC", "country": "CA", "postalCode": "V1G4S7", "twitter": "None", "instagram": "None", "facebook": "None", "youtube": "None", "website": "None", "summary": "None", "logo": "None", "latitude": 55.745405077990654, "longitude": -120.25054176219022}, "801881111RR0001": {"name": "Bethel Pentecostal Church (Stratford)", "designationCode": "C", "categoryCode": "36", "address": "RR # 4", "city": "STRATFORD", "province": "ON", "country": "CA", "postalCode": "N5A6S5", "twitter": "None", "instagram": "None", "facebook": "None", "youtube": "None", "website": "None", "summary": "None", "logo": "None", "latitude": 43.358289000000056, "longitude": -80.96315299999993}, "820924934RR0001": {"name": "Bethel Pentecostal Church Property Corporation", "designationCode": "C", "categoryCode": "43", "address": "500, VIEWMOUNT DRIVE", "city": "OTTAWA", "province": "ON", "country": "CA", "postalCode": "K2E7P2", "twitter": "None", "instagram": "None", "facebook": "None", "youtube": "None", "website": "None", "summary": "None", "logo": "None", "latitude": 45.35486750871392, "longitude": -75.70752052925747}, "829987528RR0001": {"name": "Bethel Romanian Church", "designationCode": "C", "categoryCode": "39", "address": "26831- 26 AVENUE", "city": "ALDERGROVE", "province": "BC", "country": "CA", "postalCode": "V4W4A4", "twitter": "None", "instagram": "None", "facebook": "None", "youtube": "None", "website": "None", "summary": "None", "logo": "None", "latitude": 49.04949752928614, "longitude": -122.48091352553521}}