{"841055205RR0001": {"name": "Anglican Network Church of the Good Shepherd (St. Catharines)", "designationCode": "C", "categoryCode": "30", "address": "677 NIAGARA STREET", "city": "ST. CATHERINES", "province": "ON", "country": "CA", "postalCode": "L2M3R4", "twitter": "None", "instagram": "None", "facebook": "None", "youtube": "None", "website": "None", "summary": "None", "logo": "None", "latitude": 43.20653201806207, "longitude": -79.21963472796975}, "106713456RR0001": {"name": "Anglican Parish of Heart of Hastings", "designationCode": "C", "categoryCode": "30", "address": "P.O. BOX 329", "city": "MARMORA", "province": "ON", "country": "CA", "postalCode": "K0K2M0", "twitter": "None", "instagram": "None", "facebook": "None", "youtube": "None", "website": "None", "summary": "None", "logo": "None", "latitude": 44.424105000000054, "longitude": -77.62367149999993}, "893117440RR0001": {"name": "Anglican Parish of Penetanguishene", "designationCode": "C", "categoryCode": "30", "address": "1 PEEL STREET", "city": "PENETANGUISHENE", "province": "ON", "country": "CA", "postalCode": "L9M1A5", "twitter": "None", "instagram": "None", "facebook": "None", "youtube": "None", "website": "None", "summary": "None", "logo": "None", "latitude": 44.76935000083673, "longitude": -79.93363453173897}, "131958738RR0001": {"name": "Anglican Parish of St. John The Evangelist, Stirling", "designationCode": "C", "categoryCode": "30", "address": "P.O.BOX 262 73 NORTH STREET", "city": "STIRLING", "province": "ON", "country": "CA", "postalCode": "K0K3E0", "twitter": "None", "instagram": "None", "facebook": "None", "youtube": "None", "website": "None", "summary": "None", "logo": "None", "latitude": 44.29807278994916, "longitude": -77.5484149428086}, "808499792RR0001": {"name": "Anglican Parish of St. Mark - Jieng, Edmonton", "designationCode": "C", "categoryCode": "30", "address": "10035 103 ST NW", "city": "EDMONTON", "province": "AB", "country": "CA", "postalCode": "T5J0X5", "twitter": "None", "instagram": "None", "facebook": "None", "youtube": "None", "website": "None", "summary": "None", "logo": "None", "latitude": 53.540019, "longitude": -113.49735679623781}, "847301413RR0001": {"name": "Anglican Relief and Development Fund (Canada) (ARDFC)", "designationCode": "C", "categoryCode": "49", "address": "BOX 1013", "city": "BURLINGTON", "province": "ON", "country": "CA", "postalCode": "L7R4R8", "twitter": "None", "instagram": "None", "facebook": "None", "youtube": "None", "website": "None", "summary": "None", "logo": "None", "latitude": 43.326195000000055, "longitude": -79.79863399999994}, "108221938RR0001": {"name": "Anglican United Refugee Alliance - AURA", "designationCode": "C", "categoryCode": "59", "address": "2723 ST CLAIR AVE EAST", "city": "TORONTO", "province": "ON", "country": "CA", "postalCode": "M4B1M8", "twitter": "None", "instagram": "None", "facebook": "None", "youtube": "None", "website": "None", "summary": "None", "logo": "None", "latitude": 43.70598979819971, "longitude": -79.31011726366211}, "822234712RR0001": {"name": "Angus Glen Foundation", "designationCode": "B", "categoryCode": "03", "address": "10060 KENNEDY ROAD", "city": "MARKHAM", "province": "ON", "country": "CA", "postalCode": "L6C1N9", "twitter": "None", "instagram": "None", "facebook": "None", "youtube": "None", "website": "None", "summary": "None", "logo": "None", "latitude": 43.89883833997934, "longitude": -79.31918565580747}, "119890317RR0001": {"name": "Angus McKay Nursery School Incorporated", "designationCode": "C", "categoryCode": "01", "address": "850 WOODVALE STREET", "city": "WINNIPEG", "province": "MB", "country": "CA", "postalCode": "R2K2G8", "twitter": "None", "instagram": "None", "facebook": "None", "youtube": "None", "website": "None", "summary": "None", "logo": "None", "latitude": 49.93395948378427, "longitude": -97.10420823278852}, "873344303RR0001": {"name": "Angus Reid Institute", "designationCode": "B", "categoryCode": "03", "address": "600 - 1190 MELVILLE ST", "city": "VANCOUVER", "province": "BC", "country": "CA", "postalCode": "V6E3W1", "twitter": "None", "instagram": "None", "facebook": "None", "youtube": "None", "website": "None", "summary": "None", "logo": "None", "latitude": 49.28770276268118, "longitude": -123.12398074274317}, "835608282RR0001": {"name": "Anhart Foundation", "designationCode": "A", "categoryCode": "03", "address": "1060 HOWE ST", "city": "VANCOUVER", "province": "BC", "country": "CA", "postalCode": "V6Z1P5", "twitter": "None", "instagram": "None", "facebook": "None", "youtube": "None", "website": "None", "summary": "None", "logo": "None", "latitude": 49.27909770439735, "longitude": -123.12519633386248}, "844567065RR0001": {"name": "Animal Haven Rescue League", "designationCode": "C", "categoryCode": "54", "address": "POST OFFICE BOX 448", "city": "STETTLER", "province": "AB", "country": "CA", "postalCode": "T0C2L0", "twitter": "None", "instagram": "None", "facebook": "None", "youtube": "None", "website": "None", "summary": "None", "logo": "None", "latitude": 52.32597900000006, "longitude": -112.70698099999993}, "803997212RR0001": {"name": "Animal Justice Canada", "designationCode": "C", "categoryCode": "54", "address": "5700-100 KING ST W", "city": "TORONTO", "province": "ON", "country": "CA", "postalCode": "M5X1C7", "twitter": "None", "instagram": "None", "facebook": "None", "youtube": "None", "website": "None", "summary": "None", "logo": "None", "latitude": 43.64826932503962, "longitude": -79.38190945606182}, "754482693RR0001": {"name": "Animal Legacy Foundation", "designationCode": "B", "categoryCode": "54", "address": "POST OFFICE BOX 1205", "city": "PENTICTON", "province": "BC", "country": "CA", "postalCode": "V2A6J9", "twitter": "None", "instagram": "None", "facebook": "None", "youtube": "None", "website": "None", "summary": "None", "logo": "None", "latitude": 49.50021300000006, "longitude": -119.59384399999993}, "829992544RR0001": {"name": "Animal Rescue Committee of Slave Lake", "designationCode": "C", "categoryCode": "54", "address": "PO BOX 1523", "city": "SLAVE LAKE", "province": "AB", "country": "CA", "postalCode": "T0G2A0", "twitter": "None", "instagram": "None", "facebook": "None", "youtube": "None", "website": "None", "summary": "None", "logo": "None", "latitude": 55.28284800000006, "longitude": -114.77156299999993}, "830354189RR0001": {"name": "Animal Rescue Team Yorkton Inc.", "designationCode": "C", "categoryCode": "54", "address": "266 THIRD AVE. N", "city": "YORKTON", "province": "SK", "country": "CA", "postalCode": "S3N1C9", "twitter": "None", "instagram": "None", "facebook": "None", "youtube": "None", "website": "None", "summary": "None", "logo": "None", "latitude": 51.220086220049176, "longitude": -102.46009145516497}, "809479793RR0001": {"name": "Animal Rescue Transfer Society", "designationCode": "C", "categoryCode": "54", "address": "5108 52 ST", "city": "STONY PLAIN", "province": "AB", "country": "CA", "postalCode": "T7Z1C1", "twitter": "None", "instagram": "None", "facebook": "None", "youtube": "None", "website": "None", "summary": "None", "logo": "None", "latitude": 53.52767579877665, "longitude": -114.01313767337953}, "864352539RR0001": {"name": "Animal Shelter & Adoption Society for St. Paul & Area", "designationCode": "C", "categoryCode": "54", "address": "P.O. BOX 422", "city": "ST. PAUL", "province": "AB", "country": "CA", "postalCode": "T0A3A0", "twitter": "None", "instagram": "None", "facebook": "None", "youtube": "None", "website": "None", "summary": "None", "logo": "None", "latitude": 53.99207006217902, "longitude": -111.26834992613558}, "118983550RR0001": {"name": "Animal Welfare Agency South Central Ontario", "designationCode": "C", "categoryCode": "54", "address": "250 RIVERBEND DRIVE", "city": "KITCHENER", "province": "ON", "country": "CA", "postalCode": "N2B2E9", "twitter": "None", "instagram": "None", "facebook": "None", "youtube": "None", "website": "None", "summary": "None", "logo": "None", "latitude": 43.46964145354585, "longitude": -80.47058912871532}, "816591721RR0001": {"name": "Animals in Science Policy Institute Society", "designationCode": "C", "categoryCode": "21", "address": "210 - 128 HASTINGS ST W", "city": "VANCOUVER", "province": "BC", "country": "CA", "postalCode": "V6B1G8", "twitter": "None", "instagram": "None", "facebook": "None", "youtube": "None", "website": "None", "summary": "None", "logo": "None", "latitude": 49.282042145290724, "longitude": -123.10798179037513}, "852375161RR0001": {"name": "Animals of Distinction Arts Society", "designationCode": "C", "categoryCode": "22", "address": "104-336 1ST AVE E", "city": "VANCOUVER", "province": "BC", "country": "CA", "postalCode": "V5T4R6", "twitter": "None", "instagram": "None", "facebook": "None", "youtube": "None", "website": "None", "summary": "None", "logo": "None", "latitude": 49.267835582001375, "longitude": -123.09651320970615}, "826951030RR0001": {"name": "Animikii Wajiw Miinigoowizwinan", "designationCode": "C", "categoryCode": "20", "address": "90 ANEMKI DR                  SUITE 200", "city": "FORT WILLIAM FIRST NATION", "province": "ON", "country": "CA", "postalCode": "P7J1L3", "twitter": "None", "instagram": "None", "facebook": "None", "youtube": "None", "website": "None", "summary": "None", "logo": "None", "latitude": 48.35398449069656, "longitude": -89.26274439422122}, "839600715RR0001": {"name": "Anishinaabe Cultural and Language Support Centre", "designationCode": "C", "categoryCode": "56", "address": "237 AIRPORT ROAD              PO BOX 1720", "city": "KENORA", "province": "ON", "country": "CA", "postalCode": "P9N3X7", "twitter": "None", "instagram": "None", "facebook": "None", "youtube": "None", "website": "None", "summary": "None", "logo": "None", "latitude": 49.78273865722206, "longitude": -94.44106414028518}, "849991914RR0001": {"name": "Anishnawbe Health Foundation", "designationCode": "A", "categoryCode": "03", "address": "225 QUEEN STREET EAST", "city": "TORONTO", "province": "ON", "country": "CA", "postalCode": "M5A1S4", "twitter": "None", "instagram": "None", "facebook": "None", "youtube": "None", "website": "None", "summary": "None", "logo": "None", "latitude": 43.6543898531653, "longitude": -79.36983431181838}, "833394000RR0001": {"name": "Aniyei Ircho", "designationCode": "C", "categoryCode": "09", "address": "783 QUERBES", "city": "MONTREAL", "province": "QC", "country": "CA", "postalCode": "H2Y3W8", "twitter": "None", "instagram": "None", "facebook": "None", "youtube": "None", "website": "None", "summary": "None", "logo": "None", "latitude": 45.52354621761199, "longitude": -73.61132908269386}, "861327005RR0001": {"name": "Anjuman-e-Burhani (TORONTO)", "designationCode": "C", "categoryCode": "60", "address": "8929 BAYVIEW AVE", "city": "RICHMOND HILL", "province": "ON", "country": "CA", "postalCode": "L4B3M8", "twitter": "None", "instagram": "None", "facebook": "None", "youtube": "None", "website": "None", "summary": "None", "logo": "None", "latitude": 43.84910240994856, "longitude": -79.4088646886439}, "850346354RR0001": {"name": "Anluan Foundation", "designationCode": "B", "categoryCode": "03", "address": "7-3424-26TH STREET N.E.", "city": "CALGARY", "province": "AB", "country": "CA", "postalCode": "T1Y4T7", "twitter": "None", "instagram": "None", "facebook": "None", "youtube": "None", "website": "None", "summary": "None", "logo": "None", "latitude": 51.08279784119782, "longitude": -113.99825249999999}, "819111535RR0001": {"name": "Anna & Peter Lercara Family Foundation Inc.", "designationCode": "B", "categoryCode": "03", "address": "30 CHOPIN BLVD", "city": "WINNIPEG", "province": "MB", "country": "CA", "postalCode": "R2G2E1", "twitter": "None", "instagram": "None", "facebook": "None", "youtube": "None", "website": "None", "summary": "None", "logo": "None", "latitude": 49.94722669135561, "longitude": -97.05354619429846}, "802822692RR0001": {"name": "Anna et la mer", "designationCode": "C", "categoryCode": "11", "address": "3635, RUE DE MONTPELLIER", "city": "TROIS-RIVI\u00c8RES", "province": "QC", "country": "CA", "postalCode": "G8Y3P4", "twitter": "None", "instagram": "None", "facebook": "None", "youtube": "None", "website": "None", "summary": "None", "logo": "None", "latitude": 46.34117298138967, "longitude": -72.60586689635855}, "823622071RR0001": {"name": "Annapolis County Children's Foundation", "designationCode": "C", "categoryCode": "09", "address": "PO BOX 70", "city": "ANNAPOLIS ROYAL", "province": "NS", "country": "CA", "postalCode": "B0S1A0", "twitter": "None", "instagram": "None", "facebook": "None", "youtube": "None", "website": "None", "summary": "None", "logo": "None", "latitude": 44.74294007660574, "longitude": -65.518980048906}, "886693431RR0001": {"name": "Annapolis County 4-H Leaders Council", "designationCode": "C", "categoryCode": "29", "address": "P.O. BOX 69", "city": "LAWRENCETOWN", "province": "NS", "country": "CA", "postalCode": "B0S1M0", "twitter": "None", "instagram": "None", "facebook": "None", "youtube": "None", "website": "None", "summary": "None", "logo": "None"}, "848004255RR0001": {"name": "Annapolis Valley Farmland Trust Society", "designationCode": "C", "categoryCode": "52", "address": "PO BOX 351 STN MAIN", "city": "KENTVILLE", "province": "NS", "country": "CA", "postalCode": "B4N3X1", "twitter": "None", "instagram": "None", "facebook": "None", "youtube": "None", "website": "None", "summary": "None", "logo": "None", "latitude": 45.075664563871186, "longitude": -64.48999821967875}, "818529463RR0001": {"name": "Anne McGrath Memorial Foundation Inc.", "designationCode": "B", "categoryCode": "03", "address": "20 ROSEDALE HEIGHTS DRIVE", "city": "TORONTO", "province": "ON", "country": "CA", "postalCode": "M4T1C3", "twitter": "None", "instagram": "None", "facebook": "None", "youtube": "None", "website": "None", "summary": "None", "logo": "None", "latitude": 43.68671638386509, "longitude": -79.38259771565009}, "816337547RR0001": {"name": "Annette & Paul Wolf Family Foundation", "designationCode": "B", "categoryCode": "03", "address": "136 CLIFTON AVE", "city": "NORTH YORK", "province": "ON", "country": "CA", "postalCode": "M3H4L5", "twitter": "None", "instagram": "None", "facebook": "None", "youtube": "None", "website": "None", "summary": "None", "logo": "None", "latitude": 43.759772139621354, "longitude": -79.45905742951118}, "107910259RR0031": {"name": "Annunciation of the Blessed Virgin Mary Parish", "designationCode": "C", "categoryCode": "38", "address": "3 COMBERMERE DRIVE", "city": "DON MILLS", "province": "ON", "country": "CA", "postalCode": "M3A2W4", "twitter": "None", "instagram": "None", "facebook": "None", "youtube": "None", "website": "None", "summary": "None", "logo": "None", "latitude": 43.75583594751593, "longitude": -79.3153431629062}, "817969850RR0001": {"name": "Anointed Chapel", "designationCode": "C", "categoryCode": "39", "address": "1 LOWRY DR", "city": "BRAMPTON", "province": "ON", "country": "CA", "postalCode": "L7A1A3", "twitter": "None", "instagram": "None", "facebook": "None", "youtube": "None", "website": "None", "summary": "None", "logo": "None", "latitude": 43.702124807894585, "longitude": -79.80331286782315}, "811059641RR0001": {"name": "Another Chance Wildlife Rehabilitation", "designationCode": "C", "categoryCode": "54", "address": "98 HEMLOCK STREET", "city": "ST. THOMAS", "province": "ON", "country": "CA", "postalCode": "N5R1X9", "twitter": "None", "instagram": "None", "facebook": "None", "youtube": "None", "website": "None", "summary": "None", "logo": "None", "latitude": 42.76909655761071, "longitude": -81.18289755287016}, "123582348RR0001": {"name": "Anova: A Future Without Violence", "designationCode": "C", "categoryCode": "09", "address": "255 HORTON ST. EAST 3RD FLOOR", "city": "LONDON", "province": "ON", "country": "CA", "postalCode": "N6B1L1", "twitter": "None", "instagram": "None", "facebook": "None", "youtube": "None", "website": "None", "summary": "None", "logo": "None", "latitude": 42.97989302743981, "longitude": -81.24370692587583}, "848018891RR0001": {"name": "Ansaar Foundation", "designationCode": "C", "categoryCode": "09", "address": "438A MILITARY TRAIL", "city": "SCARBOROUGH", "province": "ON", "country": "CA", "postalCode": "M1G1E1", "twitter": "None", "instagram": "None", "facebook": "None", "youtube": "None", "website": "None", "summary": "None", "logo": "None", "latitude": 43.78899654091178, "longitude": -79.20713805498039}, "840240295RR0001": {"name": "Anspayaxw: Pierce Memorial (NM) Pastoral Charge", "designationCode": "C", "categoryCode": "44", "address": "2505 PIERCE AVENUE            RR4", "city": "KISPIOX", "province": "BC", "country": "CA", "postalCode": "V0J1Y4", "twitter": "None", "instagram": "None", "facebook": "None", "youtube": "None", "website": "None", "summary": "None", "logo": "None", "latitude": 55.34805337853937, "longitude": -127.6870288750306}, "855958823RR0001": {"name": "Anstruther Charitable Foundation", "designationCode": "A", "categoryCode": "03", "address": "2259 LONGRIDGE DR SW", "city": "CALGARY", "province": "AB", "country": "CA", "postalCode": "T3E5N5", "twitter": "None", "instagram": "None", "facebook": "None", "youtube": "None", "website": "None", "summary": "None", "logo": "None", "latitude": 50.996352268942246, "longitude": -114.11164661780838}, "846004802RR0001": {"name": "Answering T.T.P. (Thrombotic Thrombocytopenic Purpura) Foundation", "designationCode": "A", "categoryCode": "13", "address": "22 PRINCE GEORGE DRIVE", "city": "TORONTO", "province": "ON", "country": "CA", "postalCode": "M9A1Y1", "twitter": "None", "instagram": "None", "facebook": "None", "youtube": "None", "website": "None", "summary": "None", "logo": "None", "latitude": 43.67184004414556, "longitude": -79.5388258168387}, "876546961RR0001": {"name": "Antenne Communications", "designationCode": "C", "categoryCode": "11", "address": "C.P. 274                      SUCC. DU PARC", "city": "MONTREAL", "province": "QC", "country": "CA", "postalCode": "H2S3K9", "twitter": "None", "instagram": "None", "facebook": "None", "youtube": "None", "website": "None", "summary": "None", "logo": "None", "latitude": 45.51239400000006, "longitude": -73.55469049999994}, "835569856RR0001": {"name": "Anthem Foundation of Canada", "designationCode": "A", "categoryCode": "05", "address": "2900-550 BURRARD STREET", "city": "VANCOUVER", "province": "BC", "country": "CA", "postalCode": "V6C0A3", "twitter": "None", "instagram": "None", "facebook": "None", "youtube": "None", "website": "None", "summary": "None", "logo": "None", "latitude": 49.28596391921073, "longitude": -123.11870289255033}, "815574785RR0001": {"name": "Anti Violence Educational Services", "designationCode": "C", "categoryCode": "59", "address": "402 OLD BARRIE RD W", "city": "ORO-MEDONTE", "province": "ON", "country": "CA", "postalCode": "L0L2E0", "twitter": "None", "instagram": "None", "facebook": "None", "youtube": "None", "website": "None", "summary": "None", "logo": "None", "latitude": 44.51747311854697, "longitude": -79.58862200187717}, "834767352RR0001": {"name": "Anti-Hunger Coalition Timmins", "designationCode": "C", "categoryCode": "09", "address": "97 PINE ST S.  UNIT 5", "city": "TIMMINS", "province": "ON", "country": "CA", "postalCode": "P4N2K2", "twitter": "None", "instagram": "None", "facebook": "None", "youtube": "None", "website": "None", "summary": "None", "logo": "None", "latitude": 48.47450880164973, "longitude": -81.32834129340114}, "877266718RR0002": {"name": "Antigonish Affordable Housing Society", "designationCode": "C", "categoryCode": "09", "address": "20 EAST MAIN ST", "city": "ANTIGONISH", "province": "NS", "country": "CA", "postalCode": "B2G2E9", "twitter": "None", "instagram": "None", "facebook": "None", "youtube": "None", "website": "None", "summary": "None", "logo": "None", "latitude": 45.62475796367341, "longitude": -61.97991720840714}, "119288918RR0628": {"name": "Antigonish Congregation of Jehovah's Witnesses, Antigonish, Nova Scotia", "designationCode": "C", "categoryCode": "61", "address": "191 HAWTHORNE ST", "city": "ANTIGONISH", "province": "NS", "country": "CA", "postalCode": "B2G1B5", "twitter": "None", "instagram": "None", "facebook": "None", "youtube": "None", "website": "None", "summary": "None", "logo": "None", "latitude": 45.62861154925278, "longitude": -62.00750234208545}, "832571640RR0001": {"name": "Antigonish Emergency Fuel Fund Society", "designationCode": "C", "categoryCode": "09", "address": "204-219 MAIN STREET", "city": "ANTIGONISH", "province": "NS", "country": "CA", "postalCode": "B2G2C1", "twitter": "None", "instagram": "None", "facebook": "None", "youtube": "None", "website": "None", "summary": "None", "logo": "None", "latitude": 45.62257164888353, "longitude": -61.989608630301845}, "813946696RR0001": {"name": "Antigonish Town and County Recreation Association", "designationCode": "C", "categoryCode": "56", "address": "15 WEBSTER ST", "city": "KENTVILLE", "province": "NS", "country": "CA", "postalCode": "B4N1H4", "twitter": "None", "instagram": "None", "facebook": "None", "youtube": "None", "website": "None", "summary": "None", "logo": "None", "latitude": 45.07809442382702, "longitude": -64.49471065445208}, "785664681RR0001": {"name": "Antioch Apostolic Fellowship of Simcoe", "designationCode": "C", "categoryCode": "39", "address": "22 KORLEA CRES", "city": "ORILLIA", "province": "ON", "country": "CA", "postalCode": "L3V7K5", "twitter": "None", "instagram": "None", "facebook": "None", "youtube": "None", "website": "None", "summary": "None", "logo": "None", "latitude": 44.59342602934795, "longitude": -79.40495663546488}, "823918446RR0001": {"name": "Antioch Community Church", "designationCode": "C", "categoryCode": "37", "address": "2364 CORNERBROOKE CRESCENT", "city": "OAKVILLE", "province": "ON", "country": "CA", "postalCode": "L6M4B5", "twitter": "None", "instagram": "None", "facebook": "None", "youtube": "None", "website": "None", "summary": "None", "logo": "None", "latitude": 43.44918442602006, "longitude": -79.75155999030514}, "845896638RR0001": {"name": "Antioch Reformation Ministry", "designationCode": "C", "categoryCode": "39", "address": "8 HUSON COURT", "city": "ETOBICOKE", "province": "ON", "country": "CA", "postalCode": "M9V4L1", "twitter": "None", "instagram": "None", "facebook": "None", "youtube": "None", "website": "None", "summary": "None", "logo": "None", "latitude": 43.75587441661365, "longitude": -79.59341544907377}, "801563867RR0001": {"name": "Antiphony", "designationCode": "C", "categoryCode": "22", "address": "604-B STRADBROOK AVENUE", "city": "WINNIPEG", "province": "MB", "country": "CA", "postalCode": "R3L0K4", "twitter": "None", "instagram": "None", "facebook": "None", "youtube": "None", "website": "None", "summary": "None", "logo": "None", "latitude": 49.87628713289894, "longitude": -97.14909194148505}, "139265292RR0001": {"name": "Antyx Community Arts Society", "designationCode": "C", "categoryCode": "22", "address": "205 - 4202 17 AVE SE", "city": "CALGARY", "province": "AB", "country": "CA", "postalCode": "T2A0T2", "twitter": "None", "instagram": "None", "facebook": "None", "youtube": "None", "website": "None", "summary": "None", "logo": "None", "latitude": 51.037880467684104, "longitude": -113.97407383236194}, "810968404RR0001": {"name": "Aphasia Association of Nova Scotia", "designationCode": "C", "categoryCode": "11", "address": "23 BRAESIDE LANE", "city": "HALIFAX", "province": "NS", "country": "CA", "postalCode": "B3M3J6", "twitter": "None", "instagram": "None", "facebook": "None", "youtube": "None", "website": "None", "summary": "None", "logo": "None", "latitude": 44.662239082722515, "longitude": -63.6398852781175}, "875572265RR0001": {"name": "Aplastic Anemia and Myelodysplasia Association of Canada/Association canadienne de l'an\u00e9mie aplasique et de la my\u00e9lodysplasie", "designationCode": "C", "categoryCode": "11", "address": "4 - 2201 KING RD", "city": "KING CITY", "province": "ON", "country": "CA", "postalCode": "L7B1G2", "twitter": "None", "instagram": "None", "facebook": "None", "youtube": "None", "website": "None", "summary": "None", "logo": "None", "latitude": 43.92914780541307, "longitude": -79.52604474534026}, "853410967RR0001": {"name": "Apostles Doctrinal End-Time Ministry of Jesus Christ", "designationCode": "C", "categoryCode": "39", "address": "53 CARRON AVE", "city": "MAPLE", "province": "ON", "country": "CA", "postalCode": "L6A1Y6", "twitter": "None", "instagram": "None", "facebook": "None", "youtube": "None", "website": "None", "summary": "None", "logo": "None", "latitude": 43.856161690807355, "longitude": -79.5351599407639}, "856036587RR0001": {"name": "Apostolic Bible Church of Alberta", "designationCode": "C", "categoryCode": "39", "address": "103-160 MAGRATH RD NW", "city": "EDMONTON", "province": "AB", "country": "CA", "postalCode": "T6R3T7", "twitter": "None", "instagram": "None", "facebook": "None", "youtube": "None", "website": "None", "summary": "None", "logo": "None", "latitude": 53.45278745749198, "longitude": -113.55980658315625}, "850294612RR0001": {"name": "Apostolic Catholic Church of Canada", "designationCode": "C", "categoryCode": "39", "address": "25-750 OAKDALE ROAD", "city": "TORONTO", "province": "ON", "country": "CA", "postalCode": "M2N2Z4", "twitter": "None", "instagram": "None", "facebook": "None", "youtube": "None", "website": "None", "summary": "None", "logo": "None", "latitude": 43.74661294912623, "longitude": -79.52637519943444}, "856355029RR0001": {"name": "Apostolic Christ the Saviour Fellowship United Pentecostal Church International", "designationCode": "C", "categoryCode": "39", "address": "4021 VICTORIA DRIVE", "city": "VANCOUVER", "province": "BC", "country": "CA", "postalCode": "V5N4M9", "twitter": "None", "instagram": "None", "facebook": "None", "youtube": "None", "website": "None", "summary": "None", "logo": "None", "latitude": 49.24923442492354, "longitude": -123.06509406719925}, "815347588RR0001": {"name": "Apostolic Christian Faith Church of Elmira", "designationCode": "C", "categoryCode": "45", "address": "7098 SIDEROAD 5", "city": "ELMIRA", "province": "ON", "country": "CA", "postalCode": "N3B2Z1", "twitter": "None", "instagram": "None", "facebook": "None", "youtube": "None", "website": "None", "summary": "None", "logo": "None", "latitude": 43.67628818564754, "longitude": -80.54087863356096}, "832191084RR0001": {"name": "Apostolic Christian Relief of Canada", "designationCode": "A", "categoryCode": "45", "address": "9401 ALMA ST", "city": "MCGREGOR", "province": "ON", "country": "CA", "postalCode": "N0R1J0", "twitter": "None", "instagram": "None", "facebook": "None", "youtube": "None", "website": "None", "summary": "None", "logo": "None", "latitude": 42.106679528997674, "longitude": -82.98019344754458}, "837098995RR0001": {"name": "Apostolic Evangelistic Ministries", "designationCode": "C", "categoryCode": "39", "address": "26455 30A AVE", "city": "ALDERGROVE", "province": "BC", "country": "CA", "postalCode": "V4W3E1", "twitter": "None", "instagram": "None", "facebook": "None", "youtube": "None", "website": "None", "summary": "None", "logo": "None", "latitude": 49.05822401539799, "longitude": -122.49093519363885}, "757966320RR0001": {"name": "Apostolic Exarchate For The Syro-Malabar Catholics in Canada", "designationCode": "C", "categoryCode": "38", "address": "6630 TURNER VALLEY ROAD", "city": "MISSISSAUGA", "province": "ON", "country": "CA", "postalCode": "L5N2P1", "twitter": "None", "instagram": "None", "facebook": "None", "youtube": "None", "website": "None", "summary": "None", "logo": "None", "latitude": 43.5978327976228, "longitude": -79.74209964920064}, "828818906RR0001": {"name": "Apostolic Faith - Tabernacle of Praise", "designationCode": "C", "categoryCode": "39", "address": "218 - 238 BONIS AVE", "city": "SCARBOROUGH", "province": "ON", "country": "CA", "postalCode": "M1T3W7", "twitter": "None", "instagram": "None", "facebook": "None", "youtube": "None", "website": "None", "summary": "None", "logo": "None", "latitude": 43.785717274510816, "longitude": -79.28974578879331}, "837867498RR0001": {"name": "Apostolic Lighthouse Church", "designationCode": "C", "categoryCode": "39", "address": "26 KNOTSBERRY BAY", "city": "WINNIPEG", "province": "MB", "country": "CA", "postalCode": "R2N2X1", "twitter": "None", "instagram": "None", "facebook": "None", "youtube": "None", "website": "None", "summary": "None", "logo": "None", "latitude": 49.80311922344037, "longitude": -97.11289926187311}, "810364067RR0001": {"name": "Apostolic Pentecostal Church of Jesus Christ", "designationCode": "C", "categoryCode": "36", "address": "1350 WHITELAW AVENUE", "city": "OSHAWA", "province": "ON", "country": "CA", "postalCode": "L1K0M6", "twitter": "None", "instagram": "None", "facebook": "None", "youtube": "None", "website": "None", "summary": "None", "logo": "None", "latitude": 43.93929438525006, "longitude": -78.82997330212352}, "805713054RR0001": {"name": "Apostolic Pentecostal Church International", "designationCode": "C", "categoryCode": "39", "address": "43-8631 BENNETT ROAD", "city": "RICHMOND", "province": "BC", "country": "CA", "postalCode": "V6Y3K9", "twitter": "None", "instagram": "None", "facebook": "None", "youtube": "None", "website": "None", "summary": "None", "logo": "None", "latitude": 49.16088548658289, "longitude": -123.12796041618097}, "822423653RR0001": {"name": "Apostolic Tabernacle of Jesus Christ United Pentecostal Church International", "designationCode": "C", "categoryCode": "36", "address": "6280 AZURE RD", "city": "RICHMOND", "province": "BC", "country": "CA", "postalCode": "V7C2N9", "twitter": "None", "instagram": "None", "facebook": "None", "youtube": "None", "website": "None", "summary": "None", "logo": "None", "latitude": 49.1668633133476, "longitude": -123.15669493461839}, "715129094RR0001": {"name": "Appartements du quartier Rivi\u00e8re-Rouge", "designationCode": "C", "categoryCode": "09", "address": "220 RUE LABELLE S", "city": "RIVIERE-ROUGE", "province": "QC", "country": "CA", "postalCode": "J0T1T0", "twitter": "None", "instagram": "None", "facebook": "None", "youtube": "None", "website": "None", "summary": "None", "logo": "None", "latitude": 46.40775457092153, "longitude": -74.87049883498767}, "851009811RR0001": {"name": "Apple River Cemetery Society", "designationCode": "C", "categoryCode": "59", "address": "87 HWY 209, RR 3 PARRSBORO", "city": "APPLE RIVER", "province": "NS", "country": "CA", "postalCode": "B0M1S0", "twitter": "None", "instagram": "None", "facebook": "None", "youtube": "None", "website": "None", "summary": "None", "logo": "None", "latitude": 45.47004908411446, "longitude": -64.77146095026373}, "119288918RR1659": {"name": "Appleby Tagalog Congregation of Jehovah's Witnesses, Burlington, Ontario", "designationCode": "C", "categoryCode": "61", "address": "4025 MAINWAY", "city": "BURLINGTON", "province": "ON", "country": "CA", "postalCode": "L7M2L7", "twitter": "None", "instagram": "None", "facebook": "None", "youtube": "None", "website": "None", "summary": "None", "logo": "None", "latitude": 43.3746304765709, "longitude": -79.79346716755114}, "850242413RR0001": {"name": "Applewood Centre for Adult Learning", "designationCode": "C", "categoryCode": "11", "address": "3566 SOUTH COMMON COURT", "city": "MISSISSAUGA", "province": "ON", "country": "CA", "postalCode": "L5L2B1", "twitter": "None", "instagram": "None", "facebook": "None", "youtube": "None", "website": "None", "summary": "None", "logo": "None", "latitude": 43.54367864415167, "longitude": -79.68706155597519}, "889745840RR0001": {"name": "Applewood Heights Gospel Hall", "designationCode": "C", "categoryCode": "39", "address": "2451 NICHOLS DR", "city": "OAKVILLE", "province": "ON", "country": "CA", "postalCode": "L6H6T2", "twitter": "None", "instagram": "None", "facebook": "None", "youtube": "None", "website": "None", "summary": "None", "logo": "None", "latitude": 43.49026414377629, "longitude": -79.71014287287214}, "803438928RR0001": {"name": "Apprentissage Brightstart Canada Inc. / Brightstart LearningCanada Inc.", "designationCode": "C", "categoryCode": "21", "address": "475 RUE MONTFORD", "city": "DOLLARD-DES-ORMEAUX", "province": "QC", "country": "CA", "postalCode": "H9G1M7", "twitter": "None", "instagram": "None", "facebook": "None", "youtube": "None", "website": "None", "summary": "None", "logo": "None", "latitude": 45.46777229669916, "longitude": -73.8382170607653}, "118870336RR0001": {"name": "Apsley Community Chapel", "designationCode": "C", "categoryCode": "39", "address": "PO BOX 370", "city": "APSLEY", "province": "ON", "country": "CA", "postalCode": "K0L1A0", "twitter": "None", "instagram": "None", "facebook": "None", "youtube": "None", "website": "None", "summary": "None", "logo": "None", "latitude": 44.74924000000004, "longitude": -78.09319999999997}, "831870209RR0001": {"name": "Aptowitzer Family Foundation", "designationCode": "B", "categoryCode": "05", "address": "564 HIGHCROFT AVE", "city": "OTTAWA", "province": "ON", "country": "CA", "postalCode": "K1Z5J5", "twitter": "None", "instagram": "None", "facebook": "None", "youtube": "None", "website": "None", "summary": "None", "logo": "None", "latitude": 45.38685839938833, "longitude": -75.74963085596391}, "131169591RR0001": {"name": "Aquaculture Association of Canada", "designationCode": "C", "categoryCode": "59", "address": "16 LOBSTER LANE", "city": "ST. ANDREWS", "province": "NB", "country": "CA", "postalCode": "E5B3T6", "twitter": "None", "instagram": "None", "facebook": "None", "youtube": "None", "website": "None", "summary": "None", "logo": "None", "latitude": 45.08304894858249, "longitude": -67.0815200375828}, "793335498RR0001": {"name": "Aquaforum", "designationCode": "A", "categoryCode": "03", "address": "999 BOUL DE MAISONNEUVE O", "city": "MONTREAL", "province": "QC", "country": "CA", "postalCode": "H3A3L4", "twitter": "None", "instagram": "None", "facebook": "None", "youtube": "None", "website": "None", "summary": "None", "logo": "None", "latitude": 45.50179755510983, "longitude": -73.57387450461628}, "831481387RR0001": {"name": "Aquarium Society of Albert", "designationCode": "C", "categoryCode": "50", "address": "66 CYPRESS LINK", "city": "FORT SASKATCHEWAN", "province": "AB", "country": "CA", "postalCode": "T8L0H3", "twitter": "None", "instagram": "None", "facebook": "None", "youtube": "None", "website": "None", "summary": "None", "logo": "None", "latitude": 53.68030540631322, "longitude": -113.2629279065157}, "816860779RR0001": {"name": "Aquatarium", "designationCode": "C", "categoryCode": "50", "address": "P.O. BOX 5000 STATION MAIN", "city": "BROCKVILLE", "province": "ON", "country": "CA", "postalCode": "K6V7A5", "twitter": "None", "instagram": "None", "facebook": "None", "youtube": "None", "website": "None", "summary": "None", "logo": "None", "latitude": 44.59037100000006, "longitude": -75.68301049999994}, "844491449RR0001": {"name": "Ar Rashaad Centre Inc.", "designationCode": "C", "categoryCode": "60", "address": "2 - 18 AUTOMATIC RD", "city": "BRAMPTON", "province": "ON", "country": "CA", "postalCode": "L6S5N5", "twitter": "None", "instagram": "None", "facebook": "None", "youtube": "None", "website": "None", "summary": "None", "logo": "None", "latitude": 43.75799238273989, "longitude": -79.71120081894482}, "816337810RR0001": {"name": "Ar-Rahman Islamic Organization", "designationCode": "C", "categoryCode": "60", "address": "40-1110 FINCH AVENUE WEST     SUITE 1129", "city": "TORONTO", "province": "ON", "country": "CA", "postalCode": "M3J3M2", "twitter": "None", "instagram": "None", "facebook": "None", "youtube": "None", "website": "None", "summary": "None", "logo": "None", "latitude": 43.764423902088836, "longitude": -79.48682251720832}, "810525915RR0001": {"name": "Arab Jewish Dialogue Inc.", "designationCode": "C", "categoryCode": "21", "address": "360 MAIN STREET               25TH FLOOR", "city": "WINNIPEG", "province": "MB", "country": "CA", "postalCode": "R3C4H6", "twitter": "None", "instagram": "None", "facebook": "None", "youtube": "None", "website": "None", "summary": "None", "logo": "None", "latitude": 49.89459781320337, "longitude": -97.1381563866637}, "106861800RR0001": {"name": "Arabian Muslim Association", "designationCode": "C", "categoryCode": "60", "address": "13070 - 113 STREET NW", "city": "EDMONTON", "province": "AB", "country": "CA", "postalCode": "T5E5A8", "twitter": "None", "instagram": "None", "facebook": "None", "youtube": "None", "website": "None", "summary": "None", "logo": "None", "latitude": 53.59114732944775, "longitude": -113.5151362515144}, "830196606RR0001": {"name": "Arabic New Life Ministries", "designationCode": "C", "categoryCode": "39", "address": "49 ELMA STREET", "city": "ST. CATHARINES", "province": "ON", "country": "CA", "postalCode": "L2N6Z2", "twitter": "None", "instagram": "None", "facebook": "None", "youtube": "None", "website": "None", "summary": "None", "logo": "None", "latitude": 43.18192221593856, "longitude": -79.25496619429846}, "845740836RR0001": {"name": "Arax Community Support Centre Incorporated", "designationCode": "C", "categoryCode": "56", "address": "809 ARROW ROAD", "city": "TORONTO", "province": "ON", "country": "CA", "postalCode": "M9M2L4", "twitter": "None", "instagram": "None", "facebook": "None", "youtube": "None", "website": "None", "summary": "None", "logo": "None", "latitude": 43.749080936176284, "longitude": -79.53220224949519}, "850477134RR0001": {"name": "Arbonne Charitable Foundation", "designationCode": "A", "categoryCode": "03", "address": "7135, KENNEDY ROAD", "city": "MISSISSAUGA", "province": "ON", "country": "CA", "postalCode": "L5S0A6", "twitter": "None", "instagram": "None", "facebook": "None", "youtube": "None", "website": "None", "summary": "None", "logo": "None", "latitude": 43.659342290351184, "longitude": -79.69994509042681}, "839497757RR0001": {"name": "Arbor Gallery - Centre for Contemporary Art", "designationCode": "C", "categoryCode": "50", "address": "36 HOME AVENUE                POST OFFICE BOX 869", "city": "VANKLEEK HILL", "province": "ON", "country": "CA", "postalCode": "K0B1R0", "twitter": "None", "instagram": "None", "facebook": "None", "youtube": "None", "website": "None", "summary": "None", "logo": "None", "latitude": 45.52034357201458, "longitude": -74.64925920859378}, "805854114RR0001": {"name": "Arbor Memorial Foundation", "designationCode": "B", "categoryCode": "03", "address": "2 JANE STREET", "city": "TORONTO", "province": "ON", "country": "CA", "postalCode": "M6S4W8", "twitter": "None", "instagram": "None", "facebook": "None", "youtube": "None", "website": "None", "summary": "None", "logo": "None", "latitude": 43.64948793282939, "longitude": -79.4846052011078}, "851270355RR0001": {"name": "Arbres et Nature-Qu\u00e9bec", "designationCode": "C", "categoryCode": "52", "address": "10745 GRANDE ALLEE", "city": "MONTREAL", "province": "QC", "country": "CA", "postalCode": "H3L2M8", "twitter": "None", "instagram": "None", "facebook": "None", "youtube": "None", "website": "None", "summary": "None", "logo": "None", "latitude": 45.551670851520534, "longitude": -73.67167580016161}, "861259273RR0001": {"name": "Arc Angels", "designationCode": "C", "categoryCode": "09", "address": "PO BOX 99                     140 MAIN ST", "city": "DASHWOOD", "province": "ON", "country": "CA", "postalCode": "N0M1N0", "twitter": "None", "instagram": "None", "facebook": "None", "youtube": "None", "website": "None", "summary": "None", "logo": "None", "latitude": 43.16509374661105, "longitude": -81.85265612028103}, "834928632RR0001": {"name": "Arc En Ciel d'Afrique", "designationCode": "C", "categoryCode": "59", "address": "576 RUE SAINTE-CATHERINE E    UNITE 104", "city": "MONTREAL", "province": "QC", "country": "CA", "postalCode": "H2L2E1", "twitter": "None", "instagram": "None", "facebook": "None", "youtube": "None", "website": "None", "summary": "None", "logo": "None", "latitude": 45.51527361642339, "longitude": -73.55901964236263}, "893127969RR0001": {"name": "Arc Poetry Society", "designationCode": "C", "categoryCode": "22", "address": "16 ELVINA ST", "city": "GLOUCESTER", "province": "ON", "country": "CA", "postalCode": "K1J7L1", "twitter": "None", "instagram": "None", "facebook": "None", "youtube": "None", "website": "None", "summary": "None", "logo": "None", "latitude": 45.443879225085155, "longitude": -75.61135153915389}, "849325279RR0001": {"name": "Archaeological Land Trust of Nova Scotia Society", "designationCode": "C", "categoryCode": "52", "address": "38 AARON AVENUE", "city": "SHAD BAY", "province": "NS", "country": "CA", "postalCode": "B3T2B5", "twitter": "None", "instagram": "None", "facebook": "None", "youtube": "None", "website": "None", "summary": "None", "logo": "None", "latitude": 44.52512582237862, "longitude": -63.78101784823095}, "733846521RR0001": {"name": "Archangel Raphael & St. Marina Coptic Orthodox Church", "designationCode": "C", "categoryCode": "39", "address": "1245 EGLINTON AVENUE WEST", "city": "MISSISSAUGA", "province": "ON", "country": "CA", "postalCode": "L5V2M4", "twitter": "None", "instagram": "None", "facebook": "None", "youtube": "None", "website": "None", "summary": "None", "logo": "None", "latitude": 43.580229043597285, "longitude": -79.68276072998991}, "823251343RR0001": {"name": "Archdiocese, Ethiopian Orthodox Tewahedo Church in Canada ofthe Holy Synod of Ethiopia", "designationCode": "C", "categoryCode": "39", "address": "306-1684 VICTORIA PARK AVENUE", "city": "TORONTO", "province": "ON", "country": "CA", "postalCode": "M1R1R1", "twitter": "None", "instagram": "None", "facebook": "None", "youtube": "None", "website": "None", "summary": "None", "logo": "None", "latitude": 43.73294844295696, "longitude": -79.3061040769228}, "831067012RR0001": {"name": "Architectes de l'urgence et de la coop\u00e9ration / Emergency and Development Architects", "designationCode": "C", "categoryCode": "01", "address": "4000 RUE STE-AMBROISE         BUREAU 278", "city": "MONTREAL", "province": "QC", "country": "CA", "postalCode": "H4C2C7", "twitter": "None", "instagram": "None", "facebook": "None", "youtube": "None", "website": "None", "summary": "None", "logo": "None", "latitude": 45.475488746292555, "longitude": -73.58044257308589}, "104725155RR0001": {"name": "Architectural Heritage Society of Saskatchewan Inc.", "designationCode": "C", "categoryCode": "52", "address": "3042 ANGUS ST", "city": "REGINA", "province": "SK", "country": "CA", "postalCode": "S4S1P3", "twitter": "None", "instagram": "None", "facebook": "None", "youtube": "None", "website": "None", "summary": "None", "logo": "None", "latitude": 50.43079833527614, "longitude": -104.61966715684667}}