{"893818237RR0001": {"name": "FAITH BAPTIST CHURCH", "designationCode": "C", "categoryCode": "31", "address": "218 NELSON ST", "city": "WALLACEBURG", "province": "ON", "country": "CA", "postalCode": "N8A4G4", "twitter": "None", "instagram": "None", "facebook": "None", "youtube": "None", "website": "None", "summary": "None", "logo": "None", "latitude": 42.5956167865716, "longitude": -82.38353274381103}, "856635735RR0001": {"name": "FAITH BAPTIST CHURCH (IND.) OF GREENWOOD", "designationCode": "C", "categoryCode": "39", "address": "1196 BRIDGE STREET", "city": "GREENWOOD", "province": "NS", "country": "CA", "postalCode": "B0P1R0", "twitter": "None", "instagram": "None", "facebook": "None", "youtube": "None", "website": "None", "summary": "None", "logo": "None", "latitude": 44.97285826201735, "longitude": -64.94108494639073}, "107372591RR0001": {"name": "FAITH BAPTIST CHURCH HUNTSVILLE", "designationCode": "C", "categoryCode": "31", "address": "169 WEST ROAD", "city": "HUNTSVILLE", "province": "ON", "country": "CA", "postalCode": "P1H1M7", "twitter": "None", "instagram": "None", "facebook": "None", "youtube": "None", "website": "None", "summary": "None", "logo": "None", "latitude": 45.33152973544386, "longitude": -79.23116544044677}, "853760726RR0001": {"name": "FAITH BAPTIST CHURCH OAKVILLE", "designationCode": "C", "categoryCode": "31", "address": "1415 TRAFALGAR ROAD", "city": "OAKVILLE", "province": "ON", "country": "CA", "postalCode": "L6H4R7", "twitter": "None", "instagram": "None", "facebook": "None", "youtube": "None", "website": "None", "summary": "None", "logo": "None", "latitude": 43.47138601725399, "longitude": -79.69672565142233}, "845868728RR0001": {"name": "FAITH BAPTIST CHURCH OF VERNON", "designationCode": "C", "categoryCode": "31", "address": "3908 27TH STREET", "city": "VERNON", "province": "BC", "country": "CA", "postalCode": "V1T4X7", "twitter": "None", "instagram": "None", "facebook": "None", "youtube": "None", "website": "None", "summary": "None", "logo": "None", "latitude": 50.270301231427915, "longitude": -119.26670727550942}, "118911411RR0001": {"name": "FAITH BELIEVERS APOSTOLIC MINISTRY", "designationCode": "C", "categoryCode": "39", "address": "43-130 INDUSTRY STREET", "city": "NORTH YORK", "province": "ON", "country": "CA", "postalCode": "M6M5G3", "twitter": "None", "instagram": "None", "facebook": "None", "youtube": "None", "website": "None", "summary": "None", "logo": "None", "latitude": 43.694503940619676, "longitude": -79.49519099596063}, "119232502RR0001": {"name": "FAITH BIBLE BAPTIST FELLOWSHIP, INC.", "designationCode": "C", "categoryCode": "31", "address": "33 PINE ST", "city": "SUSSEX", "province": "NB", "country": "CA", "postalCode": "E4E5R7", "twitter": "None", "instagram": "None", "facebook": "None", "youtube": "None", "website": "None", "summary": "None", "logo": "None", "latitude": 45.72671979762279, "longitude": -65.51203782526414}, "107764573RR0005": {"name": "FAITH BIBLE CAMP", "designationCode": "C", "categoryCode": "56", "address": "PO BOX 6283 STN MAIN", "city": "WETASKIWIN", "province": "AB", "country": "CA", "postalCode": "T9A2E9", "twitter": "None", "instagram": "None", "facebook": "None", "youtube": "None", "website": "None", "summary": "None", "logo": "None", "latitude": 52.96987500000006, "longitude": -113.37725149999994}, "118911429RR0001": {"name": "FAITH BIBLE CAMP", "designationCode": "C", "categoryCode": "56", "address": "1150 DIPLOMAT DR", "city": "WINNIPEG", "province": "MB", "country": "CA", "postalCode": "R2V3K7", "twitter": "None", "instagram": "None", "facebook": "None", "youtube": "None", "website": "None", "summary": "None", "logo": "None", "latitude": 49.950163466010686, "longitude": -97.12934328201264}, "118911445RR0001": {"name": "FAITH BIBLE CHAPEL", "designationCode": "C", "categoryCode": "39", "address": "43 KENMOUNT RD", "city": "ST. JOHN'S", "province": "NL", "country": "CA", "postalCode": "A1B1W1", "twitter": "None", "instagram": "None", "facebook": "None", "youtube": "None", "website": "None", "summary": "None", "logo": "None"}, "860221639RR0001": {"name": "FAITH BIBLE CHAPEL, LONDON", "designationCode": "C", "categoryCode": "39", "address": "439 MOORE STREET", "city": "LONDON", "province": "ON", "country": "CA", "postalCode": "N6C2C1", "twitter": "None", "instagram": "None", "facebook": "None", "youtube": "None", "website": "None", "summary": "None", "logo": "None", "latitude": 42.96656858338635, "longitude": -81.23593107646143}, "107372773RR0001": {"name": "FAITH BIBLE CHURCH INC.", "designationCode": "C", "categoryCode": "39", "address": "392 ST. PETERS RD", "city": "EAST ROYALTY", "province": "PE", "country": "CA", "postalCode": "C1C1H1", "twitter": "None", "instagram": "None", "facebook": "None", "youtube": "None", "website": "None", "summary": "None", "logo": "None", "latitude": 46.320149337123674, "longitude": -63.03641798397564}, "839542859RR0001": {"name": "FAITH BIBLE CHURCH OF WINNIPEG INC.", "designationCode": "C", "categoryCode": "39", "address": "600 MINTO ST", "city": "WINNIPEG", "province": "MB", "country": "CA", "postalCode": "R3G2R1", "twitter": "None", "instagram": "None", "facebook": "None", "youtube": "None", "website": "None", "summary": "None", "logo": "None", "latitude": 49.8848858170985, "longitude": -97.18036345354584}, "118911486RR0001": {"name": "FAITH CENTENNIAL UNITED CHURCH", "designationCode": "C", "categoryCode": "44", "address": "RR 3 86 IRISH LINE", "city": "CAYUGA", "province": "ON", "country": "CA", "postalCode": "N0A1E0", "twitter": "None", "instagram": "None", "facebook": "None", "youtube": "None", "website": "None", "summary": "None", "logo": "None", "latitude": 42.91727490365883, "longitude": -79.91464564028517}, "107372799RR0001": {"name": "FAITH CHAPEL", "designationCode": "C", "categoryCode": "39", "address": "193 BRUCE STREET              POST OFFICE BOX 10218", "city": "THUNDER BAY", "province": "ON", "country": "CA", "postalCode": "P7B6T7", "twitter": "None", "instagram": "None", "facebook": "None", "youtube": "None", "website": "None", "summary": "None", "logo": "None", "latitude": 48.38168400000005, "longitude": -89.24550199999993}, "864005749RR0001": {"name": "FAITH CHAPEL CHRISTIAN CENTRE NORTH BAY INC.", "designationCode": "C", "categoryCode": "39", "address": "367 DELAWARE AVE", "city": "NORTH BAY", "province": "ON", "country": "CA", "postalCode": "P1B7A1", "twitter": "None", "instagram": "None", "facebook": "None", "youtube": "None", "website": "None", "summary": "None", "logo": "None", "latitude": 46.327992884528896, "longitude": -79.45779451125273}, "106915663RR0001": {"name": "FAITH CHINESE NORTH AMERICAN BAPTIST CHURCH", "designationCode": "C", "categoryCode": "39", "address": "6858 FRASER STREET", "city": "VANCOUVER", "province": "BC", "country": "CA", "postalCode": "V5X3V1", "twitter": "None", "instagram": "None", "facebook": "None", "youtube": "None", "website": "None", "summary": "None", "logo": "None", "latitude": 49.22228234801343, "longitude": -123.09078861784027}, "888590106RR0001": {"name": "FAITH CHRISTIAN CHURCH", "designationCode": "C", "categoryCode": "39", "address": "71-16388 85TH AVE", "city": "SURREY", "province": "BC", "country": "CA", "postalCode": "V4N5G2", "twitter": "None", "instagram": "None", "facebook": "None", "youtube": "None", "website": "None", "summary": "None", "logo": "None", "latitude": 49.157359492353955, "longitude": -122.76943077407813}, "896203155RR0001": {"name": "FAITH CHRISTIAN CHURCH", "designationCode": "C", "categoryCode": "39", "address": "MCGRAY POST OFFICE", "city": "CAPE SALE ISLAND", "province": "NS", "country": "CA", "postalCode": "B0W2G0", "twitter": "None", "instagram": "None", "facebook": "None", "youtube": "None", "website": "None", "summary": "None", "logo": "None", "latitude": 43.52370000000006, "longitude": -65.61252349999994}, "118911544RR0001": {"name": "FAITH CHRISTIAN FELLOWSHIP INC.", "designationCode": "C", "categoryCode": "47", "address": "940 THORNHILL AVE", "city": "MORDEN", "province": "MB", "country": "CA", "postalCode": "R6M1J9", "twitter": "None", "instagram": "None", "facebook": "None", "youtube": "None", "website": "None", "summary": "None", "logo": "None", "latitude": 49.1922384767734, "longitude": -98.12112198499636}, "140465881RR0001": {"name": "FAITH CHRISTIAN FELLOWSHIP OF CANADA, INC", "designationCode": "C", "categoryCode": "47", "address": "PO BOX 1202 STN MAIN", "city": "MONCTON", "province": "NB", "country": "CA", "postalCode": "E1C8P9", "twitter": "None", "instagram": "None", "facebook": "None", "youtube": "None", "website": "None", "summary": "None", "logo": "None", "latitude": 46.08872243840578, "longitude": -64.77642630797114}, "890856198RR0001": {"name": "FAITH CHRISTIAN FELLOWSHIP OF LINDSAY, INC", "designationCode": "C", "categoryCode": "39", "address": "59 MARY STREET WEST", "city": "LINDSAY", "province": "ON", "country": "CA", "postalCode": "K9V5Z6", "twitter": "None", "instagram": "None", "facebook": "None", "youtube": "None", "website": "None", "summary": "None", "logo": "None", "latitude": 44.345921816521574, "longitude": -78.7355669866698}, "107372955RR0001": {"name": "FAITH CHRISTIAN REFORMED CHURCH", "designationCode": "C", "categoryCode": "39", "address": "73 CROMBE ROAD", "city": "SHUBENACADIE", "province": "NS", "country": "CA", "postalCode": "B0N2H0", "twitter": "None", "instagram": "None", "facebook": "None", "youtube": "None", "website": "None", "summary": "None", "logo": "None", "latitude": 45.07222671335028, "longitude": -63.42045271955937}, "118911593RR0001": {"name": "FAITH CHURCH OF JESUS CHRIST", "designationCode": "C", "categoryCode": "39", "address": "1855 MAIN ST E", "city": "HAMILTON", "province": "ON", "country": "CA", "postalCode": "L8H1G2", "twitter": "None", "instagram": "None", "facebook": "None", "youtube": "None", "website": "None", "summary": "None", "logo": "None", "latitude": 43.235824074124174, "longitude": -79.7898634582204}, "118911601RR0001": {"name": "FAITH CHURCH OF LOVE IN CHRIST JESUS", "designationCode": "C", "categoryCode": "39", "address": "197 ROSSMERE CRES", "city": "WINNIPEG", "province": "MB", "country": "CA", "postalCode": "R2K0G1", "twitter": "None", "instagram": "None", "facebook": "None", "youtube": "None", "website": "None", "summary": "None", "logo": "None", "latitude": 49.93485222563342, "longitude": -97.09750198263043}, "118911619RR0001": {"name": "FAITH CHURCH OF THE BACK TO GOD HOUR OF BURLINGTON", "designationCode": "C", "categoryCode": "39", "address": "2265 MOUNTAINSIDE DR", "city": "BURLINGTON", "province": "ON", "country": "CA", "postalCode": "L7P1B6", "twitter": "None", "instagram": "None", "facebook": "None", "youtube": "None", "website": "None", "summary": "None", "logo": "None", "latitude": 43.35007112213619, "longitude": -79.8161392331639}, "138031141RR0001": {"name": "FAITH CITY CHURCH", "designationCode": "C", "categoryCode": "39", "address": "360 BLACK BAY RD", "city": "THUNDER BAY", "province": "ON", "country": "CA", "postalCode": "P7A1P5", "twitter": "None", "instagram": "None", "facebook": "None", "youtube": "None", "website": "None", "summary": "None", "logo": "None", "latitude": 48.47364135890676, "longitude": -89.18622779407343}, "107373011RR0001": {"name": "FAITH COMMUNITY BAPTIST CHURCH", "designationCode": "C", "categoryCode": "31", "address": "BOX 506", "city": "CLARESHOLM", "province": "AB", "country": "CA", "postalCode": "T0L0T0", "twitter": "None", "instagram": "None", "facebook": "None", "youtube": "None", "website": "None", "summary": "None", "logo": "None", "latitude": 50.026080000000036, "longitude": -113.58213999999998}, "895047256RR0001": {"name": "FAITH COMMUNITY BAPTIST CHURCH OF SOURIS INC.", "designationCode": "C", "categoryCode": "31", "address": "PO BOX 220", "city": "SOURIS", "province": "MB", "country": "CA", "postalCode": "R0K2C0", "twitter": "None", "instagram": "None", "facebook": "None", "youtube": "None", "website": "None", "summary": "None", "logo": "None", "latitude": 49.59915625917259, "longitude": -99.8622610573006}, "888192267RR0001": {"name": "FAITH COMMUNITY BIBLE CHURCH", "designationCode": "C", "categoryCode": "39", "address": "1607 - 18 KENASTON GDNS", "city": "NORTH YORK", "province": "ON", "country": "CA", "postalCode": "M2K3C7", "twitter": "None", "instagram": "None", "facebook": "None", "youtube": "None", "website": "None", "summary": "None", "logo": "None", "latitude": 43.76583426449884, "longitude": -79.38583805386907}, "838346617RR0001": {"name": "FAITH COMMUNITY CHRISTIAN CHURCH", "designationCode": "C", "categoryCode": "39", "address": "3463-37TH AVE W", "city": "VANCOUVER", "province": "BC", "country": "CA", "postalCode": "V6N2V5", "twitter": "None", "instagram": "None", "facebook": "None", "youtube": "None", "website": "None", "summary": "None", "logo": "None", "latitude": 49.238589518754544, "longitude": -123.18129352553522}, "108188004RR0001": {"name": "FAITH COMMUNITY CHURCH", "designationCode": "C", "categoryCode": "31", "address": "PO BOX 878", "city": "WAKAW", "province": "SK", "country": "CA", "postalCode": "S0K4P0", "twitter": "None", "instagram": "None", "facebook": "None", "youtube": "None", "website": "None", "summary": "None", "logo": "None", "latitude": 52.65295000000003, "longitude": -105.74270999999999}, "890327729RR0001": {"name": "FAITH COMMUNITY CHURCH", "designationCode": "C", "categoryCode": "39", "address": "PO BOX 68", "city": "ENDERBY", "province": "BC", "country": "CA", "postalCode": "V0E1V0", "twitter": "None", "instagram": "None", "facebook": "None", "youtube": "None", "website": "None", "summary": "None", "logo": "None", "latitude": 50.55260000000004, "longitude": -119.14013999999997}, "894036003RR0001": {"name": "FAITH COMMUNITY CHURCH OF WINNIPEG INCORPORATED", "designationCode": "C", "categoryCode": "39", "address": "6 KERN DRIVE", "city": "WINNIPEG", "province": "MB", "country": "CA", "postalCode": "R2C0L7", "twitter": "None", "instagram": "None", "facebook": "None", "youtube": "None", "website": "None", "summary": "None", "logo": "None", "latitude": 49.89830434664444, "longitude": -96.99988786286016}, "893846527RR0001": {"name": "FAITH COMMUNITY CHURCH-LASALLE", "designationCode": "C", "categoryCode": "39", "address": "1313 KENWICK WAY", "city": "WINDSOR", "province": "ON", "country": "CA", "postalCode": "N9H2G9", "twitter": "None", "instagram": "None", "facebook": "None", "youtube": "None", "website": "None", "summary": "None", "logo": "None", "latitude": 42.2339226103845, "longitude": -83.00450791262557}, "845660521RR0001": {"name": "FAITH COMMUNITY CHURCH, NEW TECUMSETH", "designationCode": "C", "categoryCode": "39", "address": "18 VICTORIA STREET EAST       P.O. BOX 957", "city": "ALLISTON", "province": "ON", "country": "CA", "postalCode": "L9R1W1", "twitter": "None", "instagram": "None", "facebook": "None", "youtube": "None", "website": "None", "summary": "None", "logo": "None", "latitude": 44.154116223440376, "longitude": -79.86861673633788}, "107833394RR0056": {"name": "FAITH COVENANT CHURCH", "designationCode": "C", "categoryCode": "36", "address": "#1 BUCHANS HIGHWAY", "city": "BADGER", "province": "NL", "country": "CA", "postalCode": "A0H1A0", "twitter": "None", "instagram": "None", "facebook": "None", "youtube": "None", "website": "None", "summary": "None", "logo": "None", "latitude": 48.97820264683087, "longitude": -56.043271357471866}, "132056938RR0001": {"name": "FAITH COVENANT CHURCH INC", "designationCode": "C", "categoryCode": "39", "address": "1229 WINDERMERE AVE", "city": "WINNIPEG", "province": "MB", "country": "CA", "postalCode": "R3T1A7", "twitter": "None", "instagram": "None", "facebook": "None", "youtube": "None", "website": "None", "summary": "None", "logo": "None", "latitude": 49.84606485541566, "longitude": -97.15904287428579}, "118911684RR0001": {"name": "FAITH DELIVERANCE CHURCH OF CANADA", "designationCode": "C", "categoryCode": "36", "address": "315 DERRYDOWN ROAD", "city": "DOWNSVIEW", "province": "ON", "country": "CA", "postalCode": "M3J1S6", "twitter": "None", "instagram": "None", "facebook": "None", "youtube": "None", "website": "None", "summary": "None", "logo": "None", "latitude": 43.75285824479199, "longitude": -79.50472209299429}, "852170109RR0001": {"name": "FAITH DOMINION MINISTRY", "designationCode": "C", "categoryCode": "39", "address": "#1-12988 84 AVENUE", "city": "SURREY", "province": "BC", "country": "CA", "postalCode": "V3W0K9", "twitter": "None", "instagram": "None", "facebook": "None", "youtube": "None", "website": "None", "summary": "None", "logo": "None", "latitude": 49.15537553231589, "longitude": -122.86297252553523}, "870789146RR0001": {"name": "FAITH EVANGELICAL BIBLE CHURCH INC.", "designationCode": "C", "categoryCode": "34", "address": "159 3RD STREET SOUTH", "city": "WINKLER", "province": "MB", "country": "CA", "postalCode": "R6W2V9", "twitter": "None", "instagram": "None", "facebook": "None", "youtube": "None", "website": "None", "summary": "None", "logo": "None", "latitude": 49.17497399999999, "longitude": -97.93608843611895}, "106808645RR0001": {"name": "FAITH EVANGELICAL COVENANT CHURCH OF BRETON ALBERTA", "designationCode": "C", "categoryCode": "39", "address": "BOX 57", "city": "BRETON", "province": "AB", "country": "CA", "postalCode": "T0C0P0", "twitter": "None", "instagram": "None", "facebook": "None", "youtube": "None", "website": "None", "summary": "None", "logo": "None", "latitude": 53.11236000000008, "longitude": -114.46609999999998}, "107373102RR0001": {"name": "FAITH EVANGELICAL LUTHERAN CHURCH", "designationCode": "C", "categoryCode": "32", "address": "290 BELSYDE AVE E", "city": "FERGUS", "province": "ON", "country": "CA", "postalCode": "N1M1Z5", "twitter": "None", "instagram": "None", "facebook": "None", "youtube": "None", "website": "None", "summary": "None", "logo": "None", "latitude": 43.7027558445383, "longitude": -80.36721178458104}, "107373110RR0001": {"name": "FAITH EVANGELICAL LUTHERAN CHURCH", "designationCode": "C", "categoryCode": "32", "address": "2801 PRESTON AVE", "city": "SASKATOON", "province": "SK", "country": "CA", "postalCode": "S7J2G8", "twitter": "None", "instagram": "None", "facebook": "None", "youtube": "None", "website": "None", "summary": "None", "logo": "None", "latitude": 52.093737000000004, "longitude": -106.62255825001479}, "107373300RR0001": {"name": "FAITH EVANGELICAL LUTHERAN CHURCH", "designationCode": "C", "categoryCode": "32", "address": "1907 KING STREET EAST", "city": "HAMILTON", "province": "ON", "country": "CA", "postalCode": "L8K1V9", "twitter": "None", "instagram": "None", "facebook": "None", "youtube": "None", "website": "None", "summary": "None", "logo": "None", "latitude": 43.231676467684125, "longitude": -79.80694180099833}, "107373342RR0001": {"name": "FAITH EVANGELICAL LUTHERAN CHURCH", "designationCode": "C", "categoryCode": "32", "address": "136167 CONCESSION 8", "city": "DESBORO", "province": "ON", "country": "CA", "postalCode": "N0H1K0", "twitter": "None", "instagram": "None", "facebook": "None", "youtube": "None", "website": "None", "summary": "None", "logo": "None", "latitude": 44.396603829991655, "longitude": -80.98966456937212}, "118911726RR0001": {"name": "FAITH EVANGELICAL LUTHERAN CHURCH", "designationCode": "C", "categoryCode": "32", "address": "BOX 1119                      115 DEEP RIVER ROAD", "city": "DEEP RIVER", "province": "ON", "country": "CA", "postalCode": "K0J1P0", "twitter": "None", "instagram": "None", "facebook": "None", "youtube": "None", "website": "None", "summary": "None", "logo": "None", "latitude": 46.099149477898585, "longitude": -77.49073625390994}, "118911734RR0001": {"name": "FAITH EVANGELICAL LUTHERAN CHURCH", "designationCode": "C", "categoryCode": "32", "address": "43 MEADOWLANDS DRIVE WEST", "city": "NEPEAN", "province": "ON", "country": "CA", "postalCode": "K2G2R5", "twitter": "None", "instagram": "None", "facebook": "None", "youtube": "None", "website": "None", "summary": "None", "logo": "None", "latitude": 45.348760516821315, "longitude": -75.73921332863969}, "118911783RR0001": {"name": "FAITH EVANGELICAL LUTHERAN CHURCH", "designationCode": "C", "categoryCode": "32", "address": "BOX 316", "city": "BUCHANAN", "province": "SK", "country": "CA", "postalCode": "S0A0J0", "twitter": "None", "instagram": "None", "facebook": "None", "youtube": "None", "website": "None", "summary": "None", "logo": "None", "latitude": 51.70072000000005, "longitude": -102.76001999999994}, "130973498RR0001": {"name": "FAITH EVANGELICAL LUTHERAN CHURCH", "designationCode": "C", "categoryCode": "32", "address": "P.O. BOX 266", "city": "ATIKOKAN", "province": "ON", "country": "CA", "postalCode": "P0T1C0", "twitter": "None", "instagram": "None", "facebook": "None", "youtube": "None", "website": "None", "summary": "None", "logo": "None", "latitude": 48.78243202695454, "longitude": -91.62784818644623}, "118911965RR0001": {"name": "FAITH EVANGELICAL LUTHERAN CHURCH (ST. CATHARINES)", "designationCode": "C", "categoryCode": "32", "address": "31 AGAR DRIVE", "city": "ST CATHARINES", "province": "ON", "country": "CA", "postalCode": "L2M7X5", "twitter": "None", "instagram": "None", "facebook": "None", "youtube": "None", "website": "None", "summary": "None", "logo": "None", "latitude": 43.19301648730498, "longitude": -79.2251213366611}, "107373128RR0001": {"name": "FAITH EVANGELICAL LUTHERAN CHURCH CALGARY", "designationCode": "C", "categoryCode": "32", "address": "1903 19TH AVENUE N W", "city": "CALGARY", "province": "AB", "country": "CA", "postalCode": "T2M1B8", "twitter": "None", "instagram": "None", "facebook": "None", "youtube": "None", "website": "None", "summary": "None", "logo": "None", "latitude": 51.06961153621105, "longitude": -114.10486191618097}, "107373433RR0001": {"name": "FAITH EVANGELICAL LUTHERAN CHURCH OF SUNDRE", "designationCode": "C", "categoryCode": "39", "address": "PO BOX 1078", "city": "SUNDRE", "province": "AB", "country": "CA", "postalCode": "T0M1X0", "twitter": "None", "instagram": "None", "facebook": "None", "youtube": "None", "website": "None", "summary": "None", "logo": "None", "latitude": 51.797180000000026, "longitude": -114.64119999999997}, "118912146RR0001": {"name": "FAITH EVANGELICAL LUTHERAN CHURCH OF SURREY, BC", "designationCode": "C", "categoryCode": "32", "address": "7086-124 ST", "city": "SURREY", "province": "BC", "country": "CA", "postalCode": "V3W3W8", "twitter": "None", "instagram": "None", "facebook": "None", "youtube": "None", "website": "None", "summary": "None", "logo": "None", "latitude": 49.13189986372555, "longitude": -122.8790210205149}, "118912294RR0001": {"name": "FAITH EVANGELICAL MISSIONARY CHURCH", "designationCode": "C", "categoryCode": "39", "address": "1355 RIVER ROAD W", "city": "WASAGA BEACH", "province": "ON", "country": "CA", "postalCode": "L9Z2W6", "twitter": "None", "instagram": "None", "facebook": "None", "youtube": "None", "website": "None", "summary": "None", "logo": "None", "latitude": 44.511446268211024, "longitude": -80.02574479326998}, "132359928RR0001": {"name": "FAITH EVANGELICAL MISSIONARY CHURCH", "designationCode": "C", "categoryCode": "39", "address": "1310 WALKER STREET EAST", "city": "SWIFT CURRENT", "province": "SK", "country": "CA", "postalCode": "S9H1H2", "twitter": "None", "instagram": "None", "facebook": "None", "youtube": "None", "website": "None", "summary": "None", "logo": "None", "latitude": 50.284557609498904, "longitude": -107.78188310554101}, "128727567RR0001": {"name": "FAITH EVERLASTING CONGREGATIONAL CHRISTIAN CHURCH OF ESSEX COUNTY", "designationCode": "C", "categoryCode": "39", "address": "PO BOX 273 STN MAIN", "city": "LEAMINGTON", "province": "ON", "country": "CA", "postalCode": "N8H3W3", "twitter": "None", "instagram": "None", "facebook": "None", "youtube": "None", "website": "None", "summary": "None", "logo": "None", "latitude": 42.05413500000006, "longitude": -82.59973099999993}, "861294528RR0001": {"name": "FAITH FACTOR MINISTRIES INTERNATIONAL", "designationCode": "C", "categoryCode": "39", "address": "9527 MCLEOD RD", "city": "NIAGARA FALLS", "province": "ON", "country": "CA", "postalCode": "L2E5S6", "twitter": "None", "instagram": "None", "facebook": "None", "youtube": "None", "website": "None", "summary": "None", "logo": "None", "latitude": 43.06932246840433, "longitude": -79.15945203955792}, "118856301RR0001": {"name": "FAITH FAMILY CHURCH CHRISTIAN FAITH OUTREACH CENTRE OF TORONTO", "designationCode": "C", "categoryCode": "49", "address": "158 HARWOOD AVENUE SOUTH      SUITE 203", "city": "AJAX", "province": "ON", "country": "CA", "postalCode": "L1S2H6", "twitter": "None", "instagram": "None", "facebook": "None", "youtube": "None", "website": "None", "summary": "None", "logo": "None", "latitude": 43.84934382519101, "longitude": -79.02079043195268}, "107373763RR0001": {"name": "FAITH FELLOWSHIP BAPTIST CHURCH", "designationCode": "C", "categoryCode": "31", "address": "2551 49TH AVENUE EAST", "city": "VANCOUVER", "province": "BC", "country": "CA", "postalCode": "V5S1J6", "twitter": "None", "instagram": "None", "facebook": "None", "youtube": "None", "website": "None", "summary": "None", "logo": "None", "latitude": 49.22484050432782, "longitude": -123.05545102553523}, "106738503RR0001": {"name": "FAITH FELLOWSHIP BAPTIST CHURCH OF AURORA", "designationCode": "C", "categoryCode": "31", "address": "398 OLD BLOOMINGTON RD", "city": "AURORA", "province": "ON", "country": "CA", "postalCode": "L4G0M2", "twitter": "None", "instagram": "None", "facebook": "None", "youtube": "None", "website": "None", "summary": "None", "logo": "None", "latitude": 43.96616612966669, "longitude": -79.44531658661765}, "867359499RR0001": {"name": "FAITH FELLOWSHIP CHRISTIAN REFORMED CHURCH", "designationCode": "C", "categoryCode": "39", "address": "BOX 871", "city": "FAIRVIEW", "province": "AB", "country": "CA", "postalCode": "T0H1L0", "twitter": "None", "instagram": "None", "facebook": "None", "youtube": "None", "website": "None", "summary": "None", "logo": "None", "latitude": 56.06862000000007, "longitude": -118.39200999999997}, "851314617RR0001": {"name": "FAITH FELLOWSHIP CHURCH OF DUFFERIN COUNTY", "designationCode": "C", "categoryCode": "39", "address": "27 SECOND AVE", "city": "ORANGEVILLE", "province": "ON", "country": "CA", "postalCode": "L9W1H5", "twitter": "None", "instagram": "None", "facebook": "None", "youtube": "None", "website": "None", "summary": "None", "logo": "None", "latitude": 43.92224233976688, "longitude": -80.0940389772738}, "118911791RR0001": {"name": "FAITH FELLOWSHIP INCORPORATED", "designationCode": "C", "categoryCode": "43", "address": "4 WILLOWDALE CRESC", "city": "BRANDON", "province": "MB", "country": "CA", "postalCode": "R7B1A3", "twitter": "None", "instagram": "None", "facebook": "None", "youtube": "None", "website": "None", "summary": "None", "logo": "None", "latitude": 49.832807950350976, "longitude": -99.97385336750251}, "868552217RR0001": {"name": "FAITH FIVE FELLOWSHIP OF MINISTRIES INC.", "designationCode": "C", "categoryCode": "39", "address": "1 - 1516 DUFFERIN ST", "city": "WHITBY", "province": "ON", "country": "CA", "postalCode": "L1N1B2", "twitter": "None", "instagram": "None", "facebook": "None", "youtube": "None", "website": "None", "summary": "None", "logo": "None", "latitude": 43.86205210185243, "longitude": -78.93271206719926}, "118911825RR0001": {"name": "FAITH FREE LUTHERAN CONGREGATION INC.", "designationCode": "C", "categoryCode": "32", "address": "PO BOX 59", "city": "BEAUBIER", "province": "SK", "country": "CA", "postalCode": "S0C0H0", "twitter": "None", "instagram": "None", "facebook": "None", "youtube": "None", "website": "None", "summary": "None", "logo": "None", "latitude": 49.12620000000004, "longitude": -104.07627999999994}, "843402272RR0001": {"name": "FAITH GARDENS INC.", "designationCode": "C", "categoryCode": "59", "address": "1311 DAKOTA STREET", "city": "WINNIPEG", "province": "MB", "country": "CA", "postalCode": "R2W1V8", "twitter": "None", "instagram": "None", "facebook": "None", "youtube": "None", "website": "None", "summary": "None", "logo": "None", "latitude": 49.81630574245473, "longitude": -97.09810733230462}, "118911866RR0001": {"name": "FAITH GOSPEL CHURCH", "designationCode": "C", "categoryCode": "39", "address": "140 PLEASANT AVE", "city": "DUNDAS", "province": "ON", "country": "CA", "postalCode": "L9H3V1", "twitter": "None", "instagram": "None", "facebook": "None", "youtube": "None", "website": "None", "summary": "None", "logo": "None", "latitude": 43.25120269856897, "longitude": -79.97044013959267}, "870846367RR0001": {"name": "FAITH GOSPEL CHURCH", "designationCode": "C", "categoryCode": "39", "address": "P.O. BOX 44030                431 RICHMOND ST", "city": "LONDON", "province": "ON", "country": "CA", "postalCode": "N6A5S5", "twitter": "None", "instagram": "None", "facebook": "None", "youtube": "None", "website": "None", "summary": "None", "logo": "None", "latitude": 42.98449096696296, "longitude": -81.25013303153649}, "118911882RR0001": {"name": "FAITH GOSPEL TABERNACLE MINISTRIES (BRAMPTON)", "designationCode": "C", "categoryCode": "39", "address": "140 SALVATION ROAD", "city": "BRAMPTON", "province": "ON", "country": "CA", "postalCode": "L7A0W7", "twitter": "None", "instagram": "None", "facebook": "None", "youtube": "None", "website": "None", "summary": "None", "logo": "None", "latitude": 43.67762501468653, "longitude": -79.81795268619106}, "860799394RR0001": {"name": "FAITH HARVEST FELLOWSHIP (CHRISTIAN CHURCH)", "designationCode": "C", "categoryCode": "39", "address": "P.O.BOX 308", "city": "ROCKGLEN", "province": "SK", "country": "CA", "postalCode": "S0H3R0", "twitter": "None", "instagram": "None", "facebook": "None", "youtube": "None", "website": "None", "summary": "None", "logo": "None", "latitude": 49.180150000000026, "longitude": -105.94999999999999}, "813346947RR0001": {"name": "FAITH HAVEN CONSERVATIVE MENNONITE CHURCH", "designationCode": "C", "categoryCode": "34", "address": "1330 HALE SCHOOL RD. RR 2", "city": "CROTON", "province": "ON", "country": "CA", "postalCode": "N0P1K0", "twitter": "None", "instagram": "None", "facebook": "None", "youtube": "None", "website": "None", "summary": "None", "logo": "None", "latitude": 42.70509734525944, "longitude": -82.0568446784609}, "895020311RR0001": {"name": "FAITH HOUSE APOSTOLIC CHURCH OF JESUS CHRIST", "designationCode": "C", "categoryCode": "39", "address": "335 CULFORD ROAD", "city": "NORTH YORK", "province": "ON", "country": "CA", "postalCode": "M6L2V6", "twitter": "None", "instagram": "None", "facebook": "None", "youtube": "None", "website": "None", "summary": "None", "logo": "None", "latitude": 43.717137055513845, "longitude": -79.4913883556468}, "872860010RR0001": {"name": "FAITH IMPACT MINISTRY INC.", "designationCode": "C", "categoryCode": "39", "address": "1780 ST. CLAIR AVENUE WEST", "city": "TORONTO", "province": "ON", "country": "CA", "postalCode": "M6N1J5", "twitter": "None", "instagram": "None", "facebook": "None", "youtube": "None", "website": "None", "summary": "None", "logo": "None", "latitude": 43.67390013240798, "longitude": -79.46173845504639}, "137761896RR0001": {"name": "FAITH IN ACTION HOLINESS CHURCH", "designationCode": "C", "categoryCode": "39", "address": "45 HILTZ ROAD, R.R.#1", "city": "WALTON", "province": "NS", "country": "CA", "postalCode": "B0N2R0", "twitter": "None", "instagram": "None", "facebook": "None", "youtube": "None", "website": "None", "summary": "None", "logo": "None", "latitude": 45.2087634143633, "longitude": -64.08738041286274}, "138163027RR0001": {"name": "FAITH IN CHRIST FELLOWSHIP", "designationCode": "C", "categoryCode": "39", "address": "127 SHIRLEY RD", "city": "RIDGEWAY", "province": "ON", "country": "CA", "postalCode": "L0S1N0", "twitter": "None", "instagram": "None", "facebook": "None", "youtube": "None", "website": "None", "summary": "None", "logo": "None", "latitude": 42.87866388481737, "longitude": -79.02442046436589}, "861284495RR0001": {"name": "FAITH LIFE CHURCH INC.", "designationCode": "C", "categoryCode": "39", "address": "2800 CHEMIN ACADIE", "city": "CAP PELE", "province": "NB", "country": "CA", "postalCode": "E4N1E6", "twitter": "None", "instagram": "None", "facebook": "None", "youtube": "None", "website": "None", "summary": "None", "logo": "None", "latitude": 46.20734164671913, "longitude": -64.25600885212704}, "118911940RR0001": {"name": "FAITH LIFE MINISTRIES", "designationCode": "B", "categoryCode": "39", "address": "76 CASTLE HILL DRIVE", "city": "AGINCOURT", "province": "ON", "country": "CA", "postalCode": "M1T2Y5", "twitter": "None", "instagram": "None", "facebook": "None", "youtube": "None", "website": "None", "summary": "None", "logo": "None", "latitude": 43.797046799873165, "longitude": -79.29911692994386}, "107373359RR0001": {"name": "FAITH LUTERAN CHURCH", "designationCode": "C", "categoryCode": "32", "address": "310 SOUTHDALE RD. E.", "city": "LONDON", "province": "ON", "country": "CA", "postalCode": "N6E1A1", "twitter": "None", "instagram": "None", "facebook": "None", "youtube": "None", "website": "None", "summary": "None", "logo": "None", "latitude": 42.941329394973586, "longitude": -81.25156644907378}, "107373250RR0001": {"name": "FAITH LUTHERAN CHURCH", "designationCode": "C", "categoryCode": "32", "address": "184 JENNY JUMP RD             RR #1", "city": "LOWBANKS", "province": "ON", "country": "CA", "postalCode": "N0A1K0", "twitter": "None", "instagram": "None", "facebook": "None", "youtube": "None", "website": "None", "summary": "None", "logo": "None", "latitude": 42.93032958751075, "longitude": -79.49979201555097}, "107373318RR0001": {"name": "FAITH LUTHERAN CHURCH", "designationCode": "C", "categoryCode": "32", "address": "96 HUCKNALL RD.", "city": "DOWNSVIEW", "province": "ON", "country": "CA", "postalCode": "M3J1V8", "twitter": "None", "instagram": "None", "facebook": "None", "youtube": "None", "website": "None", "summary": "None", "logo": "None", "latitude": 43.755735552859456, "longitude": -79.49663786014752}, "107373326RR0001": {"name": "FAITH LUTHERAN CHURCH", "designationCode": "C", "categoryCode": "32", "address": "525 IVINGS DR", "city": "PORT ELGIN", "province": "ON", "country": "CA", "postalCode": "N0H2C1", "twitter": "None", "instagram": "None", "facebook": "None", "youtube": "None", "website": "None", "summary": "None", "logo": "None", "latitude": 44.42791211182601, "longitude": -81.40033929593262}, "107373383RR0001": {"name": "FAITH LUTHERAN CHURCH", "designationCode": "C", "categoryCode": "32", "address": "2 BOUCK RD", "city": "ELLIOT LAKE", "province": "ON", "country": "CA", "postalCode": "P5A1S4", "twitter": "None", "instagram": "None", "facebook": "None", "youtube": "None", "website": "None", "summary": "None", "logo": "None", "latitude": 46.38017539771487, "longitude": -82.6548466572507}, "107373391RR0001": {"name": "FAITH LUTHERAN CHURCH", "designationCode": "C", "categoryCode": "32", "address": "1311 DAKOTA STREET", "city": "WINNIPEG", "province": "MB", "country": "CA", "postalCode": "R2N1V8", "twitter": "None", "instagram": "None", "facebook": "None", "youtube": "None", "website": "None", "summary": "None", "logo": "None", "latitude": 49.81630574245473, "longitude": -97.09810733230462}, "107373425RR0001": {"name": "FAITH LUTHERAN CHURCH", "designationCode": "C", "categoryCode": "32", "address": "C/0 PO BOX 271", "city": "CARDSTON", "province": "AB", "country": "CA", "postalCode": "T0K0K0", "twitter": "None", "instagram": "None", "facebook": "None", "youtube": "None", "website": "None", "summary": "None", "logo": "None", "latitude": 49.172112677884925, "longitude": -113.4568867004636}, "107373466RR0001": {"name": "FAITH LUTHERAN CHURCH", "designationCode": "C", "categoryCode": "32", "address": "250 GIBBS ROAD WEST", "city": "KELOWNA", "province": "BC", "country": "CA", "postalCode": "V1X2W3", "twitter": "None", "instagram": "None", "facebook": "None", "youtube": "None", "website": "None", "summary": "None", "logo": "None", "latitude": 49.89101442607737, "longitude": -119.38191972442132}, "107373508RR0001": {"name": "FAITH LUTHERAN CHURCH", "designationCode": "C", "categoryCode": "32", "address": "247 WESTMOUNT RD E", "city": "KITCHENER", "province": "ON", "country": "CA", "postalCode": "N2M4Z2", "twitter": "None", "instagram": "None", "facebook": "None", "youtube": "None", "website": "None", "summary": "None", "logo": "None", "latitude": 43.427127354406046, "longitude": -80.50599842483662}, "118911957RR0001": {"name": "FAITH LUTHERAN CHURCH", "designationCode": "C", "categoryCode": "32", "address": "44 WILLIAM STREET WEST", "city": "OSHAWA", "province": "ON", "country": "CA", "postalCode": "L1G1J9", "twitter": "None", "instagram": "None", "facebook": "None", "youtube": "None", "website": "None", "summary": "None", "logo": "None", "latitude": 43.89977611798125, "longitude": -78.866458925212}, "118912013RR0001": {"name": "FAITH LUTHERAN CHURCH", "designationCode": "C", "categoryCode": "32", "address": "57 BRANT AVE", "city": "BRANTFORD", "province": "ON", "country": "CA", "postalCode": "N3T3G9", "twitter": "None", "instagram": "None", "facebook": "None", "youtube": "None", "website": "None", "summary": "None", "logo": "None", "latitude": 43.14032509411948, "longitude": -80.27049784511522}, "118912070RR0001": {"name": "FAITH LUTHERAN CHURCH", "designationCode": "C", "categoryCode": "32", "address": "4514 55 AVENUE", "city": "VERMILION", "province": "AB", "country": "CA", "postalCode": "T9X1R2", "twitter": "None", "instagram": "None", "facebook": "None", "youtube": "None", "website": "None", "summary": "None", "logo": "None", "latitude": 53.3584654538343, "longitude": -110.83847030682671}, "118912088RR0001": {"name": "FAITH LUTHERAN CHURCH", "designationCode": "C", "categoryCode": "32", "address": "BOX 182", "city": "ROLLING HILLS", "province": "AB", "country": "CA", "postalCode": "T0J2S0", "twitter": "None", "instagram": "None", "facebook": "None", "youtube": "None", "website": "None", "summary": "None", "logo": "None", "latitude": 33.728815442478755, "longitude": -117.76755394634036}, "118912112RR0001": {"name": "FAITH LUTHERAN CHURCH", "designationCode": "C", "categoryCode": "32", "address": "9610 108 AVE", "city": "GRANDE PRAIRIE", "province": "AB", "country": "CA", "postalCode": "T8V1N3", "twitter": "None", "instagram": "None", "facebook": "None", "youtube": "None", "website": "None", "summary": "None", "logo": "None", "latitude": 55.1781099992152, "longitude": -118.7832005007848}, "118912179RR0001": {"name": "FAITH LUTHERAN CHURCH", "designationCode": "C", "categoryCode": "43", "address": "PO BOX 140                    631 WEST ST", "city": "IGNACE", "province": "ON", "country": "CA", "postalCode": "P0T1T0", "twitter": "None", "instagram": "None", "facebook": "None", "youtube": "None", "website": "None", "summary": "None", "logo": "None", "latitude": 49.409021453265204, "longitude": -91.66626343299242}, "118912187RR0001": {"name": "FAITH LUTHERAN CHURCH OF CORONACH INC.", "designationCode": "C", "categoryCode": "32", "address": "PO BOX 300", "city": "CORONACH", "province": "SK", "country": "CA", "postalCode": "S0H0Z0", "twitter": "None", "instagram": "None", "facebook": "None", "youtube": "None", "website": "None", "summary": "None", "logo": "None", "latitude": 49.116760000000056, "longitude": -105.51780999999994}, "118912203RR0001": {"name": "FAITH LUTHERAN CHURCH OF POWELL RIVER", "designationCode": "C", "categoryCode": "32", "address": "4811 ONTARIO AVE", "city": "POWELL RIVER", "province": "BC", "country": "CA", "postalCode": "V8A5B9", "twitter": "None", "instagram": "None", "facebook": "None", "youtube": "None", "website": "None", "summary": "None", "logo": "None", "latitude": 49.846194, "longitude": -124.51496408785839}, "897788675RR0001": {"name": "FAITH LUTHERAN CHURCH SYLVAN LAKE, ALBERTA", "designationCode": "C", "categoryCode": "32", "address": "BOX 9061", "city": "SYLVAN LAKE", "province": "AB", "country": "CA", "postalCode": "T4S1S6", "twitter": "None", "instagram": "None", "facebook": "None", "youtube": "None", "website": "None", "summary": "None", "logo": "None", "latitude": 52.31122800000006, "longitude": -114.09405199999993}, "130638745RR0001": {"name": "FAITH LUTHERAN CHURCH,", "designationCode": "C", "categoryCode": "32", "address": "BOX 128", "city": "LAMPMAN", "province": "SK", "country": "CA", "postalCode": "S0C1N0", "twitter": "None", "instagram": "None", "facebook": "None", "youtube": "None", "website": "None", "summary": "None", "logo": "None", "latitude": 49.37730000000005, "longitude": -102.76413999999994}, "136511961RR0001": {"name": "FAITH LUTHERAN CHURCH,", "designationCode": "C", "categoryCode": "32", "address": "1688 MCPHEE AVENUE", "city": "COURTENAY", "province": "BC", "country": "CA", "postalCode": "V9N3A5", "twitter": "None", "instagram": "None", "facebook": "None", "youtube": "None", "website": "None", "summary": "None", "logo": "None", "latitude": 49.680528509770426, "longitude": -124.99714293441073}, "129975512RR0001": {"name": "FAITH LUTHERAN DAY CARE CENTRE OF DOWNSVIEW INC.", "designationCode": "C", "categoryCode": "20", "address": "96 HUCKNALL RD", "city": "DOWNSVIEW", "province": "ON", "country": "CA", "postalCode": "M3J1V8", "twitter": "None", "instagram": "None", "facebook": "None", "youtube": "None", "website": "None", "summary": "None", "logo": "None", "latitude": 43.755735552859456, "longitude": -79.49663786014752}, "107373532RR0001": {"name": "FAITH LUTHERAN DAY CARE INC.", "designationCode": "C", "categoryCode": "01", "address": "1311 DAKOTA ST", "city": "WINNIPEG", "province": "MB", "country": "CA", "postalCode": "R2N1V8", "twitter": "None", "instagram": "None", "facebook": "None", "youtube": "None", "website": "None", "summary": "None", "logo": "None", "latitude": 49.81630574245473, "longitude": -97.09810733230462}}