{"141291633RR0001": {"name": "Centre r\u00e9cr\u00e9atif Poupart inc.", "designationCode": "C", "categoryCode": "56", "address": "1552, RUE DUFRESNE", "city": "MONTREAL", "province": "QC", "country": "CA", "postalCode": "H2K3J5", "twitter": "None", "instagram": "None", "facebook": "None", "youtube": "None", "website": "None", "summary": "None", "logo": "None", "latitude": 45.529052680247126, "longitude": -73.54877432335957}, "894877109RR0001": {"name": "Centre r\u00e9gional de formation de Lanaudi\u00e8re", "designationCode": "C", "categoryCode": "20", "address": "144, RUE ST-JOSEPH", "city": "JOLIETTE", "province": "QC", "country": "CA", "postalCode": "J6E5C4", "twitter": "None", "instagram": "None", "facebook": "None", "youtube": "None", "website": "None", "summary": "None", "logo": "None", "latitude": 46.026606530122855, "longitude": -73.44158207325879}, "810346817RR0001": {"name": "Centre unissons la famille", "designationCode": "C", "categoryCode": "09", "address": "107-180, PLACE DU COMMERCE    CP 2050", "city": "MATAGAMI", "province": "QC", "country": "CA", "postalCode": "J0Y2A0", "twitter": "None", "instagram": "None", "facebook": "None", "youtube": "None", "website": "None", "summary": "None", "logo": "None", "latitude": 49.75750735053956, "longitude": -77.62502982361936}, "106955891RR0001": {"name": "Centre Alpha Papineau", "designationCode": "C", "categoryCode": "21", "address": "390 AVE DE BUCKINGHAM         1ER \u00c9TAGE", "city": "GATINEAU", "province": "QC", "country": "CA", "postalCode": "J8L2G7", "twitter": "None", "instagram": "None", "facebook": "None", "youtube": "None", "website": "None", "summary": "None", "logo": "None", "latitude": 45.589864452680466, "longitude": -75.41715517482275}, "862753779RR0001": {"name": "Centre Alpha-Sourd Anglo / Deaf Anglo Literacy Center", "designationCode": "C", "categoryCode": "21", "address": "204, RUE NOTRE DAME", "city": "SAINT-PIE", "province": "QC", "country": "CA", "postalCode": "J0H1W0", "twitter": "None", "instagram": "None", "facebook": "None", "youtube": "None", "website": "None", "summary": "None", "logo": "None", "latitude": 45.502327950026064, "longitude": -72.90966494575555}, "775170699RR0001": {"name": "Centre Ambassadeur Rive-Sud", "designationCode": "C", "categoryCode": "39", "address": "6 - 141 RUE DU TANGON", "city": "LEVIS", "province": "QC", "country": "CA", "postalCode": "G6V8A6", "twitter": "None", "instagram": "None", "facebook": "None", "youtube": "None", "website": "None", "summary": "None", "logo": "None", "latitude": 46.81812234277795, "longitude": -71.14437953537431}, "828794628RR0001": {"name": "Centre Augustinien", "designationCode": "C", "categoryCode": "11", "address": "80, AV. DES HOSPITALI\u00c8RES", "city": "DOLBEAU-MISTASSINI", "province": "QC", "country": "CA", "postalCode": "G8L2Y3", "twitter": "None", "instagram": "None", "facebook": "None", "youtube": "None", "website": "None", "summary": "None", "logo": "None", "latitude": 48.887510932252475, "longitude": -72.24158026729839}, "819930595RR0001": {"name": "Centre B\u00e9thel", "designationCode": "C", "categoryCode": "39", "address": "734 RUE CLAUDE-PICHER", "city": "QUEBEC", "province": "QC", "country": "CA", "postalCode": "G1V3J6", "twitter": "None", "instagram": "None", "facebook": "None", "youtube": "None", "website": "None", "summary": "None", "logo": "None", "latitude": 46.782565596716545, "longitude": -71.30412529949778}, "824714455RR0001": {"name": "Centre Berger", "designationCode": "C", "categoryCode": "09", "address": "2305 RUE HOLT", "city": "MONTREAL", "province": "QC", "country": "CA", "postalCode": "H2G1Y2", "twitter": "None", "instagram": "None", "facebook": "None", "youtube": "None", "website": "None", "summary": "None", "logo": "None", "latitude": 45.54346230697094, "longitude": -73.58489548863169}, "818062804RR0001": {"name": "Centre Beth Hamidrash", "designationCode": "C", "categoryCode": "42", "address": "5727 AV LEGER", "city": "COTE SAINT-LUC", "province": "QC", "country": "CA", "postalCode": "H4W2E5", "twitter": "None", "instagram": "None", "facebook": "None", "youtube": "None", "website": "None", "summary": "None", "logo": "None", "latitude": 45.46489850903103, "longitude": -73.66912240937164}, "815298781RR0001": {"name": "Centre Bouddhiste Kadampa Tara", "designationCode": "C", "categoryCode": "35", "address": "101 - 900 RUE KING O", "city": "SHERBROOKE", "province": "QC", "country": "CA", "postalCode": "J1H1S2", "twitter": "None", "instagram": "None", "facebook": "None", "youtube": "None", "website": "None", "summary": "None", "logo": "None", "latitude": 45.398588714164475, "longitude": -71.90186064973523}, "804842714RR0001": {"name": "Centre Bouddhiste Vajrayogini / Vajrayogini Buddhist Center", "designationCode": "C", "categoryCode": "35", "address": "80 RUE DES ORMES", "city": "VAUDREUIL-SUR-LE-LAC", "province": "QC", "country": "CA", "postalCode": "J7V8P3", "twitter": "None", "instagram": "None", "facebook": "None", "youtube": "None", "website": "None", "summary": "None", "logo": "None", "latitude": 45.424877343326216, "longitude": -74.02749945406543}, "848529236RR0001": {"name": "Centre Chabad", "designationCode": "C", "categoryCode": "42", "address": "4691, AVENUE VAN HORNE", "city": "MONTR\u00c9AL", "province": "QC", "country": "CA", "postalCode": "H3W1H8", "twitter": "None", "instagram": "None", "facebook": "None", "youtube": "None", "website": "None", "summary": "None", "logo": "None", "latitude": 45.49530578963004, "longitude": -73.6368464839285}, "814589628RR0001": {"name": "Centre Chabad Chabanel", "designationCode": "B", "categoryCode": "42", "address": "6247 DE VIMY", "city": "MONTREAL", "province": "QC", "country": "CA", "postalCode": "H3S2K4", "twitter": "None", "instagram": "None", "facebook": "None", "youtube": "None", "website": "None", "summary": "None", "logo": "None", "latitude": 45.514003042760564, "longitude": -73.62197022618166}, "809464787RR0001": {"name": "Centre Chr\u00e9tien \"Ambassade de Jesus\"", "designationCode": "C", "categoryCode": "39", "address": "12 BELLROCK DR", "city": "KANATA", "province": "ON", "country": "CA", "postalCode": "K2K3J4", "twitter": "None", "instagram": "None", "facebook": "None", "youtube": "None", "website": "None", "summary": "None", "logo": "None", "latitude": 45.319048114894166, "longitude": -75.89543036277325}, "842750887RR0001": {"name": "Centre Chr\u00e9tien de Clair", "designationCode": "C", "categoryCode": "36", "address": "102-1 AV. DES \u00c9RABLES", "city": "CLAIR", "province": "NB", "country": "CA", "postalCode": "E7A2B4", "twitter": "None", "instagram": "None", "facebook": "None", "youtube": "None", "website": "None", "summary": "None", "logo": "None", "latitude": 47.25316186929412, "longitude": -68.60387570327217}, "889902029RR0001": {"name": "Centre Chr\u00e9tien de R\u00e9veil de Montr\u00e9al / Centre Cristiano De Avivamiento De Montr\u00e9al", "designationCode": "B", "categoryCode": "39", "address": "6640 RUE PIERRE-GADOIS", "city": "MONTREAL", "province": "QC", "country": "CA", "postalCode": "H1M2T7", "twitter": "None", "instagram": "None", "facebook": "None", "youtube": "None", "website": "None", "summary": "None", "logo": "None", "latitude": 45.59363520286816, "longitude": -73.56020145810481}, "808304125RR0001": {"name": "Centre Chr\u00e9tien Cit\u00e9 de l'\u00c9ternel", "designationCode": "C", "categoryCode": "39", "address": "310 RUE DE CALAIS", "city": "REPENTIGNY", "province": "QC", "country": "CA", "postalCode": "J5Y3N5", "twitter": "None", "instagram": "None", "facebook": "None", "youtube": "None", "website": "None", "summary": "None", "logo": "None", "latitude": 45.78398180792323, "longitude": -73.42250358494421}, "844469718RR0001": {"name": "Centre Chr\u00e9tien International", "designationCode": "C", "categoryCode": "39", "address": "21 GRIFFEN PL", "city": "WHITBY", "province": "ON", "country": "CA", "postalCode": "L1R2N5", "twitter": "None", "instagram": "None", "facebook": "None", "youtube": "None", "website": "None", "summary": "None", "logo": "None", "latitude": 43.922462816521566, "longitude": -78.91931743559935}, "815217765RR0001": {"name": "Centre Chr\u00e9tien L'ombre de L'\u00c9ternel/Christian Center Shadow of God", "designationCode": "C", "categoryCode": "39", "address": "1 - 563 AV GEORGES-V", "city": "MONTREAL-EST", "province": "QC", "country": "CA", "postalCode": "H1L3T7", "twitter": "None", "instagram": "None", "facebook": "None", "youtube": "None", "website": "None", "summary": "None", "logo": "None", "latitude": 45.61139429615091, "longitude": -73.50987528781236}, "893963017RR0001": {"name": "Centre Chr\u00e9tien Parole de Vie", "designationCode": "C", "categoryCode": "39", "address": "2420, RUE DES CARRIERES       SUITE 200", "city": "MONTREAL", "province": "QC", "country": "CA", "postalCode": "H2G1X7", "twitter": "None", "instagram": "None", "facebook": "None", "youtube": "None", "website": "None", "summary": "None", "logo": "None", "latitude": 45.54497611154731, "longitude": -73.58545977026989}, "887930428RR0001": {"name": "Centre Chretien Parole de Vie (CCPV Toronto)", "designationCode": "C", "categoryCode": "39", "address": "9 CONTINENTAL ROAD", "city": "BRAMPTON", "province": "ON", "country": "CA", "postalCode": "L7A2H4", "twitter": "None", "instagram": "None", "facebook": "None", "youtube": "None", "website": "None", "summary": "None", "logo": "None", "latitude": 43.687221883980655, "longitude": -79.82036335884945}, "849794409RR0001": {"name": "Centre Christ en action sur Richelieu", "designationCode": "C", "categoryCode": "39", "address": "7333, RUE ELYS\u00c9E              SUITE \"A\"", "city": "SAINT-LEONARD", "province": "QC", "country": "CA", "postalCode": "H1S2W1", "twitter": "None", "instagram": "None", "facebook": "None", "youtube": "None", "website": "None", "summary": "None", "logo": "None", "latitude": 45.59006230558595, "longitude": -73.57313153745179}, "823603196RR0001": {"name": "Centre Church", "designationCode": "C", "categoryCode": "39", "address": "6724 193 ST", "city": "SURREY", "province": "BC", "country": "CA", "postalCode": "V4N0B8", "twitter": "None", "instagram": "None", "facebook": "None", "youtube": "None", "website": "None", "summary": "None", "logo": "None", "latitude": 49.12553753427781, "longitude": -122.68860005715864}, "780832325RR0001": {"name": "Centre Communautaire de Waterville", "designationCode": "C", "categoryCode": "56", "address": "660 RUE COUVENT", "city": "WATERVILLE", "province": "QC", "country": "CA", "postalCode": "J0B3H0", "twitter": "None", "instagram": "None", "facebook": "None", "youtube": "None", "website": "None", "summary": "None", "logo": "None", "latitude": 45.27441841326677, "longitude": -71.88890503774024}, "825794183RR0001": {"name": "Centre Communautaire la R\u00e9conciliation", "designationCode": "C", "categoryCode": "09", "address": "300B - 1900 RUE SAUVE E", "city": "MONTREAL", "province": "QC", "country": "CA", "postalCode": "H2B3A8", "twitter": "None", "instagram": "None", "facebook": "None", "youtube": "None", "website": "None", "summary": "None", "logo": "None", "latitude": 45.565708500000014, "longitude": -73.64758275}, "807235643RR0001": {"name": "Centre Communautaire Bnois Yisroel", "designationCode": "C", "categoryCode": "49", "address": "2995 RUE DU ROI-REN\u00c9", "city": "BOISBRIAND", "province": "QC", "country": "CA", "postalCode": "J7E4H4", "twitter": "None", "instagram": "None", "facebook": "None", "youtube": "None", "website": "None", "summary": "None", "logo": "None", "latitude": 45.609451502625745, "longitude": -73.86593997059829}, "107951618RR0562": {"name": "Centre Communautaire Chretien", "designationCode": "C", "categoryCode": "40", "address": "6735 BOUL PIE-IX", "city": "MONTREAL", "province": "QC", "country": "CA", "postalCode": "H1X2C7", "twitter": "None", "instagram": "None", "facebook": "None", "youtube": "None", "website": "None", "summary": "None", "logo": "None", "latitude": 45.564100888164255, "longitude": -73.58425458866647}, "729097527RR0001": {"name": "Centre Communautaire Darlington", "designationCode": "C", "categoryCode": "49", "address": "2876 RUE GOYER", "city": "MONTREAL", "province": "QC", "country": "CA", "postalCode": "H3S1H3", "twitter": "None", "instagram": "None", "facebook": "None", "youtube": "None", "website": "None", "summary": "None", "logo": "None", "latitude": 45.509898363581314, "longitude": -73.63041934511521}, "818160780RR0001": {"name": "Centre Communautaire Juif Des Laurentides Laurentian Jewish Community Centre", "designationCode": "C", "categoryCode": "49", "address": "33 RUE ALBERT", "city": "SAINTE-AGATHE-DES-MONTS", "province": "QC", "country": "CA", "postalCode": "J8C1Z6", "twitter": "None", "instagram": "None", "facebook": "None", "youtube": "None", "website": "None", "summary": "None", "logo": "None", "latitude": 46.051449841797, "longitude": -74.29075132650489}, "803823723RR0001": {"name": "Centre Connexion, \u00c9glise Chr\u00e9tienne la Rencontre", "designationCode": "C", "categoryCode": "39", "address": "575 PLACE DU PARC", "city": "MONTREAL", "province": "QC", "country": "CA", "postalCode": "H1B3C1", "twitter": "None", "instagram": "None", "facebook": "None", "youtube": "None", "website": "None", "summary": "None", "logo": "None", "latitude": 45.65063346878064, "longitude": -73.50657720416622}, "857711816RR0001": {"name": "Centre Culturel St-Germain", "designationCode": "C", "categoryCode": "20", "address": "28, AVENUE VINCENT D'INDY", "city": "OUTREMONT", "province": "QC", "country": "CA", "postalCode": "H2V2S9", "twitter": "None", "instagram": "None", "facebook": "None", "youtube": "None", "website": "None", "summary": "None", "logo": "None", "latitude": 45.51133806829578, "longitude": -73.6145590614578}, "106892755RR0001": {"name": "Centre D'action B\u00e9n\u00e9vole aux 4 vents Inc.", "designationCode": "C", "categoryCode": "09", "address": "107 RUE LEWIS OUEST", "city": "WATERLOO", "province": "QC", "country": "CA", "postalCode": "J0E2N0", "twitter": "None", "instagram": "None", "facebook": "None", "youtube": "None", "website": "None", "summary": "None", "logo": "None", "latitude": 45.34343177655962, "longitude": -72.5229742636621}, "889732772RR0001": {"name": "Centre D'action B\u00e9n\u00e9vole De Sutton/Sutton Volunteer Centre", "designationCode": "C", "categoryCode": "09", "address": "7 ACADEMY ST", "city": "SUTTON", "province": "QC", "country": "CA", "postalCode": "J0E2K0", "twitter": "None", "instagram": "None", "facebook": "None", "youtube": "None", "website": "None", "summary": "None", "logo": "None", "latitude": 45.108830632494886, "longitude": -72.61548128931291}, "892519653RR0001": {"name": "Centre D'Aide ET DE References De Sainte-Anne-Des-Plaines", "designationCode": "C", "categoryCode": "09", "address": "181 3E AV", "city": "STE ANNE DES PLAINES", "province": "QC", "country": "CA", "postalCode": "J0N1H0", "twitter": "None", "instagram": "None", "facebook": "None", "youtube": "None", "website": "None", "summary": "None", "logo": "None", "latitude": 45.76201403165206, "longitude": -73.81614918621972}, "107416711RR0001": {"name": "Centre De La Petite Enfance Le Petit Baluchon (1981) Inc.", "designationCode": "C", "categoryCode": "01", "address": "2180, AV. NOTRE-DAME", "city": "QUEBEC", "province": "QC", "country": "CA", "postalCode": "G2E3G2", "twitter": "None", "instagram": "None", "facebook": "None", "youtube": "None", "website": "None", "summary": "None", "logo": "None", "latitude": 46.81627514458434, "longitude": -71.37511009729346}, "739026094RR0001": {"name": "Centre Evangelique Nehemie", "designationCode": "C", "categoryCode": "36", "address": "47 BAFFIN DR", "city": "MONCTON", "province": "NB", "country": "CA", "postalCode": "E1A6A1", "twitter": "None", "instagram": "None", "facebook": "None", "youtube": "None", "website": "None", "summary": "None", "logo": "None", "latitude": 46.124360307259415, "longitude": -64.78169539814756}, "811686682RR0001": {"name": "Centre Evangelique Nouvelle Alliance (CENA) Inc. / New Alliance Evangelical Centre (NAEC) Inc.", "designationCode": "C", "categoryCode": "39", "address": "402 JASPER CRESCENT", "city": "ROCKLAND", "province": "ON", "country": "CA", "postalCode": "K4K0C9", "twitter": "None", "instagram": "None", "facebook": "None", "youtube": "None", "website": "None", "summary": "None", "logo": "None", "latitude": 45.543351951411054, "longitude": -75.27789498805478}, "892659368RR0001": {"name": "Centre Familial UNIQUE Family Center Inc.", "designationCode": "C", "categoryCode": "09", "address": "1279 RUE PRINCIPALE", "city": "NEGUAC", "province": "NB", "country": "CA", "postalCode": "E9G1T4", "twitter": "None", "instagram": "None", "facebook": "None", "youtube": "None", "website": "None", "summary": "None", "logo": "None", "latitude": 47.26631334989055, "longitude": -65.06041695300428}, "821599792RR0001": {"name": "Centre For Innovation in Autism and Intellectual Disabilities/ Cantre d'innovation pour l'autisme et les d\u00e9ficiences intellectuelles", "designationCode": "C", "categoryCode": "11", "address": "620-8000 BOUL DECARIE", "city": "MONTREAL", "province": "QC", "country": "CA", "postalCode": "H4P2S4", "twitter": "None", "instagram": "None", "facebook": "None", "youtube": "None", "website": "None", "summary": "None", "logo": "None", "latitude": 45.49759771161071, "longitude": -73.65889535778159}, "816302988RR0001": {"name": "Centre For Spiritual Living West Kootenay Society", "designationCode": "C", "categoryCode": "49", "address": "453 BALFOUR HEIGHTS ROAD", "city": "BALFOUR", "province": "BC", "country": "CA", "postalCode": "V0G1C0", "twitter": "None", "instagram": "None", "facebook": "None", "youtube": "None", "website": "None", "summary": "None", "logo": "None", "latitude": 49.62499650000001, "longitude": -116.97008625000001}, "830120192RR0001": {"name": "Centre For Spiritual Living Yaletown Society", "designationCode": "C", "categoryCode": "49", "address": "1601-1155 HOMER ST", "city": "VANCOUVER", "province": "BC", "country": "CA", "postalCode": "V6B5T5", "twitter": "None", "instagram": "None", "facebook": "None", "youtube": "None", "website": "None", "summary": "None", "logo": "None", "latitude": 49.27555847045406, "longitude": -123.12290770027107}, "823954110RR0001": {"name": "Centre Hope Ltd.", "designationCode": "B", "categoryCode": "09", "address": "7473 101 AVE NW", "city": "EDMONTON", "province": "AB", "country": "CA", "postalCode": "T6A3Z5", "twitter": "None", "instagram": "None", "facebook": "None", "youtube": "None", "website": "None", "summary": "None", "logo": "None", "latitude": 53.54123148009161, "longitude": -113.4424035}, "849545272RR0002": {"name": "Centre Int\u00e9gr\u00e9 de Sant\u00e9 et de Services sociaux de Laval", "designationCode": "C", "categoryCode": "11", "address": "1515, BOULEVARD CHOMEDEY", "city": "LAVAL", "province": "QC", "country": "CA", "postalCode": "H7V3Y7", "twitter": "None", "instagram": "None", "facebook": "None", "youtube": "None", "website": "None", "summary": "None", "logo": "None", "latitude": 45.552111735789616, "longitude": -73.74652312320406}, "106899685RR0001": {"name": "Centre Int\u00e9gr\u00e9 de Sant\u00e9 et de Services Sociaux de l'Abitibi-T\u00e9miscamingue", "designationCode": "C", "categoryCode": "10", "address": "725, 6E RUE", "city": "VAL-D'OR", "province": "QC", "country": "CA", "postalCode": "J9P3Y1", "twitter": "None", "instagram": "None", "facebook": "None", "youtube": "None", "website": "None", "summary": "None", "logo": "None", "latitude": 48.09519075837, "longitude": -77.79505074542827}, "876340969RR0001": {"name": "Centre Int\u00e9gr\u00e9 de Sant\u00e9 et de Services Sociaux de la Gasp\u00e9sie", "designationCode": "C", "categoryCode": "10", "address": "215 BOUL DE YORK OUEST", "city": "GASPE", "province": "QC", "country": "CA", "postalCode": "G4X2W2", "twitter": "None", "instagram": "None", "facebook": "None", "youtube": "None", "website": "None", "summary": "None", "logo": "None", "latitude": 48.814180408329875, "longitude": -64.49604981068742}, "107490559RR0001": {"name": "Centre Int\u00e9gr\u00e9 de Sant\u00e9 et de Services Sociaux de la Mont\u00e9r\u00e9gie-Centre", "designationCode": "C", "categoryCode": "10", "address": "1255 RUE BEAUREGARD", "city": "LONGUEUIL", "province": "QC", "country": "CA", "postalCode": "J4K2M3", "twitter": "None", "instagram": "None", "facebook": "None", "youtube": "None", "website": "None", "summary": "None", "logo": "None", "latitude": 45.510308757718164, "longitude": -73.48676269669305}, "118847243RR0001": {"name": "Centre Int\u00e9gr\u00e9 de Sant\u00e9 et de Services Sociaux de la Mont\u00e9r\u00e9gie-Ouest", "designationCode": "C", "categoryCode": "10", "address": "200 BOULEVARD BRISEBOIS", "city": "CHATEAUGUAY", "province": "QC", "country": "CA", "postalCode": "J6K4W8", "twitter": "None", "instagram": "None", "facebook": "None", "youtube": "None", "website": "None", "summary": "None", "logo": "None", "latitude": 45.34600555841073, "longitude": -73.76566005283038}, "106899800RR0001": {"name": "Centre Int\u00e9gr\u00e9 de Sant\u00e9 et de Services Sociaux de Lanaudi\u00e8re", "designationCode": "C", "categoryCode": "10", "address": "260 RUE LAVALTRIE S", "city": "JOLIETTE", "province": "QC", "country": "CA", "postalCode": "J6E5X7", "twitter": "None", "instagram": "None", "facebook": "None", "youtube": "None", "website": "None", "summary": "None", "logo": "None", "latitude": 46.01784405914919, "longitude": -73.44154474516736}, "141644971RR0001": {"name": "Centre Int\u00e9gr\u00e9 de Sant\u00e9 et de Services Sociaux des Laurentides", "designationCode": "C", "categoryCode": "10", "address": "531 RUE LAVIOLETTE", "city": "ST-JEROME", "province": "QC", "country": "CA", "postalCode": "J7Y2T8", "twitter": "None", "instagram": "None", "facebook": "None", "youtube": "None", "website": "None", "summary": "None", "logo": "None", "latitude": 45.78288940106175, "longitude": -74.00666287486364}, "106899404RR0001": {"name": "Centre Int\u00e9gr\u00e9 de Sant\u00e9 et de Services Sociaux du Bas-Saint-Laurent", "designationCode": "C", "categoryCode": "10", "address": "150 AVE. ROULEAU", "city": "RIMOUSKI", "province": "QC", "country": "CA", "postalCode": "G5L5T1", "twitter": "None", "instagram": "None", "facebook": "None", "youtube": "None", "website": "None", "summary": "None", "logo": "None", "latitude": 48.446824833411064, "longitude": -68.5319686278583}, "845739747RR0001": {"name": "Centre Int\u00e9gr\u00e9 Universitaire de Sant\u00e9 et de Services Sociaux de la Capitale-Nationale", "designationCode": "C", "categoryCode": "10", "address": "2915 AVENUE BOURG-ROYAL       4 I\u00c8ME \u00c9TAGE", "city": "QU\u00c9BEC", "province": "QC", "country": "CA", "postalCode": "G1C3S2", "twitter": "None", "instagram": "None", "facebook": "None", "youtube": "None", "website": "None", "summary": "None", "logo": "None", "latitude": 46.85761368743182, "longitude": -71.21932888712504}, "890742760RR0001": {"name": "Centre Int\u00e9gr\u00e9 Universitaire de Sant\u00e9 et de Services Sociaux de la Mauricie-et-du-Centre-du-Qu\u00e9bec", "designationCode": "C", "categoryCode": "10", "address": "858 TSSE TURCOTTE", "city": "TROIS-RIVIERES", "province": "QC", "country": "CA", "postalCode": "G9A5C5", "twitter": "None", "instagram": "None", "facebook": "None", "youtube": "None", "website": "None", "summary": "None", "logo": "None", "latitude": 46.342691306711146, "longitude": -72.53681820416622}, "847125747RR0001": {"name": "Centre Int\u00e9gr\u00e9 Universitaire de Sant\u00e9 et de Services Sociaux du Saguenay-Lac-Saint-Jean", "designationCode": "C", "categoryCode": "10", "address": "305 RUE SAINT-VALLIER", "city": "SAGUENAY", "province": "QC", "country": "CA", "postalCode": "G7H5H6", "twitter": "None", "instagram": "None", "facebook": "None", "youtube": "None", "website": "None", "summary": "None", "logo": "None", "latitude": 48.426379384607515, "longitude": -71.0502546240482}, "118963214RR0001": {"name": "Centre Int\u00e9gr\u00e9 Universitaire de Sant\u00e9 et de Services Sociauxde l'Est-de-L'\u00cele-de-Montr\u00e9al", "designationCode": "C", "categoryCode": "10", "address": "5415 BOUL L'ASSOMPTION", "city": "MONTREAL", "province": "QC", "country": "CA", "postalCode": "H1T2M4", "twitter": "None", "instagram": "None", "facebook": "None", "youtube": "None", "website": "None", "summary": "None", "logo": "None", "latitude": 45.57324177293997, "longitude": -73.55892172905466}, "140749003RR0001": {"name": "Centre Int\u00e9gr\u00e9 Universitaire de Sant\u00e9 et de Services Sociauxde l'Estrie - Centre Hospitatlier Universitaire de Sherbrooke", "designationCode": "C", "categoryCode": "10", "address": "300 RUE KING E", "city": "SHERBROOKE", "province": "QC", "country": "CA", "postalCode": "J1G1B1", "twitter": "None", "instagram": "None", "facebook": "None", "youtube": "None", "website": "None", "summary": "None", "logo": "None", "latitude": 45.40733802135164, "longitude": -71.88118761806817}, "118963149RR0002": {"name": "Centre Int\u00e9gr\u00e9 Universitaire de Sant\u00e9 et de Services Sociauxde L'Ouest-de-L'\u00cele-de-Montr\u00e9al", "designationCode": "C", "categoryCode": "10", "address": "160 STILLVIEW RD", "city": "POINTE-CLAIRE", "province": "QC", "country": "CA", "postalCode": "H9R2Y2", "twitter": "None", "instagram": "None", "facebook": "None", "youtube": "None", "website": "None", "summary": "None", "logo": "None", "latitude": 45.44963096165417, "longitude": -73.8323363844993}, "141690743RR0001": {"name": "Centre Int\u00e9gr\u00e9 Universitaire de Sant\u00e9 et de Services Sociauxdu Centre-Sud-de-L'\u00cele-de-Montr\u00e9al", "designationCode": "C", "categoryCode": "10", "address": "3833 RUE NOTRE-DAME OUEST", "city": "MONTREAL", "province": "QC", "country": "CA", "postalCode": "H4C1P8", "twitter": "None", "instagram": "None", "facebook": "None", "youtube": "None", "website": "None", "summary": "None", "logo": "None", "latitude": 45.478354660309144, "longitude": -73.58333652778559}, "107490880RR0001": {"name": "Centre Int\u00e9gr\u00e9 Universitaire de Sant\u00e9 et de Services Sociauxdu Nord-de-L'\u00cele-de-Montr\u00e9al", "designationCode": "C", "categoryCode": "10", "address": "DRFI                          5400 BOUL GOUIN OUEST", "city": "MONTREAL", "province": "QC", "country": "CA", "postalCode": "H4J1C5", "twitter": "None", "instagram": "None", "facebook": "None", "youtube": "None", "website": "None", "summary": "None", "logo": "None", "latitude": 45.53401666106287, "longitude": -73.7161646987599}, "751205097RR0001": {"name": "Centre International PhiloJeunes", "designationCode": "C", "categoryCode": "21", "address": "264 AV DE MERTON", "city": "SAINT-LAMBERT", "province": "QC", "country": "CA", "postalCode": "J4P2W3", "twitter": "None", "instagram": "None", "facebook": "None", "youtube": "None", "website": "None", "summary": "None", "logo": "None", "latitude": 45.50942061838529, "longitude": -73.5130900799239}, "138563374RR0001": {"name": "Centre Jeunesse Oasis Youth Centre Inc.", "designationCode": "C", "categoryCode": "01", "address": "10529 ROUTE 144", "city": "SAINT-ANDR\u00c9", "province": "NB", "country": "CA", "postalCode": "E3Y3H8", "twitter": "None", "instagram": "None", "facebook": "None", "youtube": "None", "website": "None", "summary": "None", "logo": "None", "latitude": 47.092851549127055, "longitude": -67.83978712092924}, "100884956RR0001": {"name": "Centre L'Escale de Jonqui\u00e8re inc.", "designationCode": "C", "categoryCode": "09", "address": "3958 RUE DE LA FABRIQUE", "city": "JONQUIERE", "province": "QC", "country": "CA", "postalCode": "G7X3N2", "twitter": "None", "instagram": "None", "facebook": "None", "youtube": "None", "website": "None", "summary": "None", "logo": "None", "latitude": 48.408302398291795, "longitude": -71.25457690729417}, "837116037RR0001": {"name": "Centre Lasallien Saint-Michel", "designationCode": "C", "categoryCode": "21", "address": "3001 RUE DE LOUVAIN E", "city": "MONTREAL", "province": "QC", "country": "CA", "postalCode": "H1Z1J7", "twitter": "None", "instagram": "None", "facebook": "None", "youtube": "None", "website": "None", "summary": "None", "logo": "None", "latitude": 45.57156872023772, "longitude": -73.63171615488478}, "780597324RR0001": {"name": "Centre Lavallois pour l'int\u00e9gration et la coh\u00e9sion sociale (CLICS)", "designationCode": "C", "categoryCode": "09", "address": "3606 BOUL DE LA CONCORDE E", "city": "LAVAL", "province": "QC", "country": "CA", "postalCode": "H7E2C9", "twitter": "None", "instagram": "None", "facebook": "None", "youtube": "None", "website": "None", "summary": "None", "logo": "None", "latitude": 45.59685148153391, "longitude": -73.65943042656832}, "844501486RR0001": {"name": "Centre Le Bourg-Joie", "designationCode": "C", "categoryCode": "09", "address": "590 RUE SAINT JOSEPH EST", "city": "QUEBEC", "province": "QC", "country": "CA", "postalCode": "G1K3B8", "twitter": "None", "instagram": "None", "facebook": "None", "youtube": "None", "website": "None", "summary": "None", "logo": "None", "latitude": 46.81484084098895, "longitude": -71.22257853179629}, "824150130RR0001": {"name": "Centre Le Rocher", "designationCode": "C", "categoryCode": "49", "address": "520 BOULEVARD BOURASSA", "city": "SAINT-JEROME", "province": "QC", "country": "CA", "postalCode": "J7Y1X9", "twitter": "None", "instagram": "None", "facebook": "None", "youtube": "None", "website": "None", "summary": "None", "logo": "None", "latitude": 45.7850447396561, "longitude": -74.01107994598576}, "807434329RR0001": {"name": "Centre Lochiel Centre", "designationCode": "C", "categoryCode": "56", "address": "20923 LOCHIEL ROAD            COUNTY ROAD 21, RR #1", "city": "ALEXANDRIA", "province": "ON", "country": "CA", "postalCode": "K0C1A0", "twitter": "None", "instagram": "None", "facebook": "None", "youtube": "None", "website": "None", "summary": "None", "logo": "None", "latitude": 45.324006000000054, "longitude": -74.57325649999993}, "841744576RR0001": {"name": "Centre Lyrique d'Expression Fran\u00e7aise", "designationCode": "C", "categoryCode": "22", "address": "100, RUE SHERBROOKE EST", "city": "MONTR\u00c9AL", "province": "QC", "country": "CA", "postalCode": "H2X1C3", "twitter": "None", "instagram": "None", "facebook": "None", "youtube": "None", "website": "None", "summary": "None", "logo": "None", "latitude": 45.51344435330954, "longitude": -73.56899682483144}, "828019828RR0001": {"name": "Centre Marie-Catherine-de-Saint-Augustin", "designationCode": "C", "categoryCode": "49", "address": "75, RUE DES REMPARTS", "city": "QU\u00c9BEC", "province": "QC", "country": "CA", "postalCode": "G1R3R9", "twitter": "None", "instagram": "None", "facebook": "None", "youtube": "None", "website": "None", "summary": "None", "logo": "None", "latitude": 46.81627776442446, "longitude": -71.20959778269064}, "806860607RR0001": {"name": "Centre Marysabel Center", "designationCode": "C", "categoryCode": "11", "address": "560, RUE BOLT                 CASE POSTALE 636", "city": "ALFRED", "province": "ON", "country": "CA", "postalCode": "K0B1A0", "twitter": "None", "instagram": "None", "facebook": "None", "youtube": "None", "website": "None", "summary": "None", "logo": "None", "latitude": 45.56061297868039, "longitude": -74.8849985911437}, "801011529RR0001": {"name": "Centre Missionnaire El-B\u00e9thel", "designationCode": "C", "categoryCode": "39", "address": "67 RUE GALIPEAU", "city": "LAVAL", "province": "QC", "country": "CA", "postalCode": "H7L1G3", "twitter": "None", "instagram": "None", "facebook": "None", "youtube": "None", "website": "None", "summary": "None", "logo": "None", "latitude": 45.62329859449485, "longitude": -73.7778784612788}, "827112327RR0001": {"name": "Centre Missionnaire Sainte-Th\u00e9r\u00e8se", "designationCode": "C", "categoryCode": "49", "address": "817 BLVD  GOUIN EST", "city": "MONTREAL", "province": "QC", "country": "CA", "postalCode": "H2C1A9", "twitter": "None", "instagram": "None", "facebook": "None", "youtube": "None", "website": "None", "summary": "None", "logo": "None", "latitude": 45.55901143548379, "longitude": -73.66796982907238}, "891564569RR0001": {"name": "Centre Montr\u00e9alais pour les troubles d'apprentissage / Montr\u00e9al Centre for Learning Disabilities", "designationCode": "C", "categoryCode": "09", "address": "P.O. BOX 163                  SUCC. N.D.G.", "city": "MONTREAL", "province": "QC", "country": "CA", "postalCode": "H4A3P5", "twitter": "None", "instagram": "None", "facebook": "None", "youtube": "None", "website": "None", "summary": "None", "logo": "None", "latitude": 45.47400000000006, "longitude": -73.61589949999993}, "822043550RR0001": {"name": "Centre Mosdote Shuva Isra\u00ebl", "designationCode": "C", "categoryCode": "49", "address": "2185 RUE DU COLLEGE", "city": "SAINT-LAURENT", "province": "QC", "country": "CA", "postalCode": "H4M1L5", "twitter": "None", "instagram": "None", "facebook": "None", "youtube": "None", "website": "None", "summary": "None", "logo": "None", "latitude": 45.502116903427684, "longitude": -73.68440979727607}, "856049184RR0001": {"name": "Centre Multiculturel de ressources de Lassalle (CMRL)", "designationCode": "C", "categoryCode": "09", "address": "8510A DAOUST ST", "city": "LASALLE", "province": "QC", "country": "CA", "postalCode": "H8N2C2", "twitter": "None", "instagram": "None", "facebook": "None", "youtube": "None", "website": "None", "summary": "None", "logo": "None", "latitude": 45.429610295829576, "longitude": -73.62369668350469}, "805065380RR0001": {"name": "Centre National Chr\u00e9tien l'Espoir des G\u00e9n\u00e9rations Christian National Center Hope of the Generations", "designationCode": "C", "categoryCode": "39", "address": "308 132 RTE", "city": "PABOS MILLS", "province": "QC", "country": "CA", "postalCode": "G0C2J0", "twitter": "None", "instagram": "None", "facebook": "None", "youtube": "None", "website": "None", "summary": "None", "logo": "None", "latitude": 48.34141841675843, "longitude": -64.71481233685479}, "860622794RR0001": {"name": "Centre Novas - Calacs Francophone de Prescott-Russell", "designationCode": "C", "categoryCode": "09", "address": "25, CHEMIN INDUSTRIEL         CASIER POSTAL 410", "city": "CASSELMAN", "province": "ON", "country": "CA", "postalCode": "K0A1M0", "twitter": "None", "instagram": "None", "facebook": "None", "youtube": "None", "website": "None", "summary": "None", "logo": "None", "latitude": 45.30622481612437, "longitude": -75.08033498422711}, "860588656RR0002": {"name": "Centre Ontarien de Pr\u00e9vention des Agressions", "designationCode": "C", "categoryCode": "21", "address": "358 DANFORTH AVENUE           PO BOX 65008", "city": "TORONTO", "province": "ON", "country": "CA", "postalCode": "M4K3Z2", "twitter": "None", "instagram": "None", "facebook": "None", "youtube": "None", "website": "None", "summary": "None", "logo": "None", "latitude": 43.677463157943215, "longitude": -79.35253661977026}, "791170699RR0001": {"name": "Centre Paramita de m\u00e9ditation bouddhiste de Montr\u00e9al/Paramita Centre of Buddhist Meditation in Montr\u00e9al", "designationCode": "C", "categoryCode": "35", "address": "2469 RUE ARCAND", "city": "MONTREAL", "province": "QC", "country": "CA", "postalCode": "H1N3C2", "twitter": "None", "instagram": "None", "facebook": "None", "youtube": "None", "website": "None", "summary": "None", "logo": "None", "latitude": 45.581591869842384, "longitude": -73.53011394656362}, "817084221RR0001": {"name": "Centre Pro Bono Qu\u00e9bec", "designationCode": "C", "categoryCode": "59", "address": "BUREAU 600                    715, RUE DU SQUARE-VICTORIA", "city": "MONTR\u00c9AL", "province": "QC", "country": "CA", "postalCode": "H2Y2H7", "twitter": "None", "instagram": "None", "facebook": "None", "youtube": "None", "website": "None", "summary": "None", "logo": "None", "latitude": 45.50141872773955, "longitude": -73.56066105730285}, "846014207RR0001": {"name": "Centre PQL/A.C.T.I.O.N.", "designationCode": "C", "categoryCode": "39", "address": "5935 BLVD DES GRANDES PRAIRIES", "city": "MONTREAL", "province": "QC", "country": "CA", "postalCode": "H1P1A5", "twitter": "None", "instagram": "None", "facebook": "None", "youtube": "None", "website": "None", "summary": "None", "logo": "None", "latitude": 45.60019188317259, "longitude": -73.6109453523859}, "718226897RR0001": {"name": "Centre Rhema Christ Lumi\u00e8res Des Nations", "designationCode": "C", "categoryCode": "39", "address": "9070 RUE DE LOUISIANE", "city": "SAINT-LEONARD", "province": "QC", "country": "CA", "postalCode": "H1P2P5", "twitter": "None", "instagram": "None", "facebook": "None", "youtube": "None", "website": "None", "summary": "None", "logo": "None", "latitude": 45.59619884067182, "longitude": -73.6059034683766}, "107860108RR0001": {"name": "Centre Roland-Bertrand", "designationCode": "C", "categoryCode": "09", "address": "2183, ST-MARC", "city": "SHAWINIGAN", "province": "QC", "country": "CA", "postalCode": "G9N2J4", "twitter": "None", "instagram": "None", "facebook": "None", "youtube": "None", "website": "None", "summary": "None", "logo": "None", "latitude": 46.554597218996975, "longitude": -72.74104604276056}, "874681190RR0001": {"name": "Centre Social Creatif Chevra Kadisha B'nai Jacob Synagogue", "designationCode": "C", "categoryCode": "56", "address": "5237 AV CLANRANALD", "city": "MONTREAL", "province": "QC", "country": "CA", "postalCode": "H3X2S5", "twitter": "None", "instagram": "None", "facebook": "None", "youtube": "None", "website": "None", "summary": "None", "logo": "None", "latitude": 45.482280137688086, "longitude": -73.63396024352258}, "106902935RR0001": {"name": "Centre Solidarit\u00e9 Jeunesse de Qu\u00e9bec", "designationCode": "C", "categoryCode": "09", "address": "1000, 3I\u00c8ME AVENUE            C.P. 52083", "city": "QU\u00c9BEC", "province": "QC", "country": "CA", "postalCode": "G1L5A4", "twitter": "None", "instagram": "None", "facebook": "None", "youtube": "None", "website": "None", "summary": "None", "logo": "None", "latitude": 46.826685931732875, "longitude": -71.22997625740105}, "839841699RR0001": {"name": "Centre Sri Sathya Sai Baba de Saint-Hubert / Sri Sathya Sai Baba Centre of Saint-Hubert", "designationCode": "C", "categoryCode": "48", "address": "5685 BOUL. GRANDE-ALLEE", "city": "BROSSARD", "province": "QC", "country": "CA", "postalCode": "J4Z3G3", "twitter": "None", "instagram": "None", "facebook": "None", "youtube": "None", "website": "None", "summary": "None", "logo": "None", "latitude": 45.473500174562965, "longitude": -73.44163889927275}, "867003980RR0001": {"name": "Centre Toxico-Stop, centre d'h\u00e9bergement offrant de l'aide et soutien \u00e0 la d\u00e9sintoxication et r\u00e9insertion sociale", "designationCode": "C", "categoryCode": "57", "address": "4858 BOUL GOUIN E", "city": "MONTREAL-NORD", "province": "QC", "country": "CA", "postalCode": "H1G1A2", "twitter": "None", "instagram": "None", "facebook": "None", "youtube": "None", "website": "None", "summary": "None", "logo": "None", "latitude": 45.60578515958798, "longitude": -73.63872199275797}, "821989407RR0001": {"name": "Centre Wei Kang pour aider les personnes ag\u00e9es", "designationCode": "C", "categoryCode": "09", "address": "SUITE 407                     248, RUE COROT", "city": "MONTREAL", "province": "QC", "country": "CA", "postalCode": "H3E1K9", "twitter": "None", "instagram": "None", "facebook": "None", "youtube": "None", "website": "None", "summary": "None", "logo": "None", "latitude": 45.458982449362246, "longitude": -73.54290224813887}, "859545295RR0001": {"name": "Centre Wellington Community Foundation", "designationCode": "A", "categoryCode": "03", "address": "P.O. BOX 436", "city": "FERGUS", "province": "ON", "country": "CA", "postalCode": "N1M3E2", "twitter": "None", "instagram": "None", "facebook": "None", "youtube": "None", "website": "None", "summary": "None", "logo": "None", "latitude": 43.705428000000055, "longitude": -80.37816199999993}, "834428583RR0001": {"name": "Centre 770", "designationCode": "C", "categoryCode": "42", "address": "267 ALEXIS NIHON", "city": "VILLE ST-LAURENT", "province": "QC", "country": "CA", "postalCode": "H4M2A4", "twitter": "None", "instagram": "None", "facebook": "None", "youtube": "None", "website": "None", "summary": "None", "logo": "None", "latitude": 45.498617266172275, "longitude": -73.67988843130017}, "874359599RR0001": {"name": "Centre-aide \u00c9vang\u00e9lique de l'\u00c9glise du Nazareen Libre de Montr\u00e9al inc.", "designationCode": "C", "categoryCode": "39", "address": "12300 BOUL. LANGELIER #3", "city": "MONTR\u00c9AL", "province": "QC", "country": "CA", "postalCode": "H1G3M8", "twitter": "None", "instagram": "None", "facebook": "None", "youtube": "None", "website": "None", "summary": "None", "logo": "None", "latitude": 45.62051312072256, "longitude": -73.61852428631181}, "120843107RR0001": {"name": "Centre-Femmes de Rimouski", "designationCode": "C", "categoryCode": "09", "address": "16 \u00caV\u00caCH\u00c9 OUEST, C.P.36", "city": "RIMOUSKI", "province": "QC", "country": "CA", "postalCode": "G5L7B7", "twitter": "None", "instagram": "None", "facebook": "None", "youtube": "None", "website": "None", "summary": "None", "logo": "None", "latitude": 48.44858198981816, "longitude": -68.52458518021322}, "141412262RR0001": {"name": "Centre-Jeunes de Cacouna", "designationCode": "C", "categoryCode": "09", "address": "470 RUE BEAULIEU", "city": "CACOUNA", "province": "QC", "country": "CA", "postalCode": "G0L1G0", "twitter": "None", "instagram": "None", "facebook": "None", "youtube": "None", "website": "None", "summary": "None", "logo": "None", "latitude": 47.91721573497611, "longitude": -69.49762167408079}, "754559722RR0001": {"name": "Centre-Monsieur-Nymous", "designationCode": "C", "categoryCode": "54", "address": "591 RANG SAINTE-AGATHE", "city": "SAINTE-BEATRIX", "province": "QC", "country": "CA", "postalCode": "J0K1Y0", "twitter": "None", "instagram": "None", "facebook": "None", "youtube": "None", "website": "None", "summary": "None", "logo": "None", "latitude": 46.24464431608889, "longitude": -73.63521963315777}, "118827971RR0001": {"name": "Centrepoint Church of The Christian and Missionary Alliance", "designationCode": "C", "categoryCode": "39", "address": "5804 - 47 AVENUE", "city": "CAMROSE", "province": "AB", "country": "CA", "postalCode": "T4V0G5", "twitter": "None", "instagram": "None", "facebook": "None", "youtube": "None", "website": "None", "summary": "None", "logo": "None", "latitude": 53.01618550100962, "longitude": -112.83999202553522}, "820866093RR0001": {"name": "Centrepoint Community Services Society", "designationCode": "C", "categoryCode": "56", "address": "3888 252 ST", "city": "ALDERGROVE", "province": "BC", "country": "CA", "postalCode": "V4W1Z6", "twitter": "None", "instagram": "None", "facebook": "None", "youtube": "None", "website": "None", "summary": "None", "logo": "None", "latitude": 49.033791220357486, "longitude": -122.52579768255274}, "118939115RR0001": {"name": "Centrepointe Chirstian Reformed Church of Edmonton", "designationCode": "C", "categoryCode": "39", "address": "5940 159 AVE NW", "city": "EDMONTON", "province": "AB", "country": "CA", "postalCode": "T5Y0J5", "twitter": "None", "instagram": "None", "facebook": "None", "youtube": "None", "website": "None", "summary": "None", "logo": "None", "latitude": 53.619681285728944, "longitude": -113.43169483706204}, "831701693RR0001": {"name": "Centreton Union Cemetery", "designationCode": "B", "categoryCode": "59", "address": "510 - 181 KING ST E", "city": "COBOURG", "province": "ON", "country": "CA", "postalCode": "K9A1L4", "twitter": "None", "instagram": "None", "facebook": "None", "youtube": "None", "website": "None", "summary": "None", "logo": "None", "latitude": 43.96146589586856, "longitude": -78.15843358531957}, "107683989RR0001": {"name": "Centretown United Church", "designationCode": "C", "categoryCode": "44", "address": "507 BANK STREET", "city": "OTTAWA", "province": "ON", "country": "CA", "postalCode": "K2P1Z5", "twitter": "None", "instagram": "None", "facebook": "None", "youtube": "None", "website": "None", "summary": "None", "logo": "None", "latitude": 45.41022871663104, "longitude": -75.6924693914538}, "847412707RR0001": {"name": "Centro Cristiano Vida Nueva International (CCVNI)", "designationCode": "C", "categoryCode": "39", "address": "25 SAINT DENNIS DR            APT 1216", "city": "TORONTO", "province": "ON", "country": "CA", "postalCode": "M3C1E6", "twitter": "None", "instagram": "None", "facebook": "None", "youtube": "None", "website": "None", "summary": "None", "logo": "None", "latitude": 43.717927888078265, "longitude": -79.33332570910055}}