{"108077686RR0001": {"name": "THE CHURCH OF THE CHRISTIAN COMMUNITY IN CANADA VANCOUVER CENTRE", "designationCode": "C", "categoryCode": "39", "address": "5050 HASTINGS STREET", "city": "BURNABY", "province": "BC", "country": "CA", "postalCode": "V5B1P6", "twitter": "None", "instagram": "None", "facebook": "None", "youtube": "None", "website": "None", "summary": "None", "logo": "None", "latitude": 49.280192572277855, "longitude": -122.9899003591379}, "119238210RR0016": {"name": "THE CHURCH OF THE GOOD SHEPHERD", "designationCode": "C", "categoryCode": "30", "address": "P.O.BOX 86", "city": "TAYLOR", "province": "BC", "country": "CA", "postalCode": "V0C2K0", "twitter": "None", "instagram": "None", "facebook": "None", "youtube": "None", "website": "None", "summary": "None", "logo": "None", "latitude": 56.13057231694927, "longitude": -120.6692133147222}, "865008221RR0001": {"name": "THE CHURCH OF THE HALIGONIANS", "designationCode": "C", "categoryCode": "39", "address": "301 - 1015 BARRINGTON ST", "city": "HALIFAX", "province": "NS", "country": "CA", "postalCode": "B3H4R4", "twitter": "None", "instagram": "None", "facebook": "None", "youtube": "None", "website": "None", "summary": "None", "logo": "None", "latitude": 44.63634930030585, "longitude": -63.56953586508187}, "131778755RR0001": {"name": "THE CHURCH OF THE HOLY FAMILY", "designationCode": "C", "categoryCode": "30", "address": "10446 KENNEDY RD. N", "city": "BRAMPTON", "province": "ON", "country": "CA", "postalCode": "L6Z0A7", "twitter": "None", "instagram": "None", "facebook": "None", "youtube": "None", "website": "None", "summary": "None", "logo": "None", "latitude": 43.72437097808529, "longitude": -79.78825080480146}, "130505985RR0001": {"name": "THE CHURCH OF THE HOLY NATIVITY", "designationCode": "C", "categoryCode": "30", "address": "12707 BONAVENTURE DRIVE SE", "city": "CALGARY", "province": "AB", "country": "CA", "postalCode": "T2J4P4", "twitter": "None", "instagram": "None", "facebook": "None", "youtube": "None", "website": "None", "summary": "None", "logo": "None", "latitude": 50.93888837913322, "longitude": -114.06406233723803}, "119227239RR0001": {"name": "THE CHURCH OF THE HOLY SPIRIT", "designationCode": "C", "categoryCode": "30", "address": "1170 TYNEGROVE RD", "city": "MISSISSAUGA", "province": "ON", "country": "CA", "postalCode": "L4W3B2", "twitter": "None", "instagram": "None", "facebook": "None", "youtube": "None", "website": "None", "summary": "None", "logo": "None", "latitude": 43.618636625021736, "longitude": -79.60815296667448}, "130500630RR0001": {"name": "THE CHURCH OF THE HOLY TRINITY AND ST JUDE", "designationCode": "C", "categoryCode": "39", "address": "830 SPRING ST", "city": "THUNDER BAY", "province": "ON", "country": "CA", "postalCode": "P7C3L6", "twitter": "None", "instagram": "None", "facebook": "None", "youtube": "None", "website": "None", "summary": "None", "logo": "None", "latitude": 48.39580850291421, "longitude": -89.23893060335298}, "108099771RR0112": {"name": "THE CHURCH OF THE INCARNATION", "designationCode": "C", "categoryCode": "30", "address": "1240 OLD ABBEY RD", "city": "OAKVILLE", "province": "ON", "country": "CA", "postalCode": "L6M3Y4", "twitter": "None", "instagram": "None", "facebook": "None", "youtube": "None", "website": "None", "summary": "None", "logo": "None", "latitude": 43.44764192616429, "longitude": -79.71287453557585}, "130602303RR0001": {"name": "THE CHURCH OF THE INCARNATION", "designationCode": "C", "categoryCode": "30", "address": "15 CLAIRTRELL RD", "city": "WILLOWDALE", "province": "ON", "country": "CA", "postalCode": "M2N5J7", "twitter": "None", "instagram": "None", "facebook": "None", "youtube": "None", "website": "None", "summary": "None", "logo": "None", "latitude": 43.76724867695757, "longitude": -79.39052051119542}, "887216794RR0001": {"name": "THE CHURCH OF THE KETTLES", "designationCode": "C", "categoryCode": "39", "address": "R.R. 4", "city": "MARKDALE", "province": "ON", "country": "CA", "postalCode": "N0C1H0", "twitter": "None", "instagram": "None", "facebook": "None", "youtube": "None", "website": "None", "summary": "None", "logo": "None", "latitude": 44.31914000000006, "longitude": -80.64888999999994}, "119227262RR0001": {"name": "THE CHURCH OF THE LONDONERS", "designationCode": "C", "categoryCode": "39", "address": "725 VISCOUNT RD", "city": "LONDON", "province": "ON", "country": "CA", "postalCode": "N6J4G9", "twitter": "None", "instagram": "None", "facebook": "None", "youtube": "None", "website": "None", "summary": "None", "logo": "None", "latitude": 42.94727546624183, "longitude": -81.278001}, "118863109RR0001": {"name": "THE CHURCH OF THE LUTHERAN HOUR FORT FRANCES", "designationCode": "C", "categoryCode": "32", "address": "508 VICTORIA AVENUE", "city": "FORT FRANCES", "province": "ON", "country": "CA", "postalCode": "P9A2C4", "twitter": "None", "instagram": "None", "facebook": "None", "youtube": "None", "website": "None", "summary": "None", "logo": "None", "latitude": 48.61002305222428, "longitude": -93.3925484101797}, "813875408RR0001": {"name": "THE CHURCH OF THE MOST HOLY REDEEMER ROMAN CATHOLIC PARISH INC.", "designationCode": "C", "categoryCode": "38", "address": "3 POND ST", "city": "CHARLOTTETOWN", "province": "PE", "country": "CA", "postalCode": "C1A2N9", "twitter": "None", "instagram": "None", "facebook": "None", "youtube": "None", "website": "None", "summary": "None", "logo": "None", "latitude": 46.241418372208315, "longitude": -63.13737696713584}, "890837743RR0001": {"name": "THE CHURCH OF THE MOVEMENT OF SPIRITUAL INNER AWARENESS CANADA INC /L'ELISE DU MOUVEMENT DE L'EVEIL SPIRITUEL INTERIEUR", "designationCode": "C", "categoryCode": "39", "address": "20897 125 AVE", "city": "MAPLE RIDGE", "province": "BC", "country": "CA", "postalCode": "V4R2M6", "twitter": "None", "instagram": "None", "facebook": "None", "youtube": "None", "website": "None", "summary": "None", "logo": "None", "latitude": 49.229597460470735, "longitude": -122.6420415}, "118828235RR0001": {"name": "THE CHURCH OF THE NAZARENE IN ONTARIO", "designationCode": "C", "categoryCode": "39", "address": "3657 PONYTRAIL DRIVE", "city": "MISSISSAUGA", "province": "ON", "country": "CA", "postalCode": "L4X1W5", "twitter": "None", "instagram": "None", "facebook": "None", "youtube": "None", "website": "None", "summary": "None", "logo": "None", "latitude": 43.632936501269405, "longitude": -79.59044261223978}, "133276766RR0001": {"name": "THE CHURCH OF THE NAZARENE OF THE TOWN OF SEDGEWICK", "designationCode": "C", "categoryCode": "39", "address": "BOX 93", "city": "LOUGHEED", "province": "AB", "country": "CA", "postalCode": "T0B2V0", "twitter": "None", "instagram": "None", "facebook": "None", "youtube": "None", "website": "None", "summary": "None", "logo": "None", "latitude": 52.6714013175275, "longitude": -112.22238202605135}, "119227296RR0001": {"name": "THE CHURCH OF THE OPEN BIBLE", "designationCode": "C", "categoryCode": "39", "address": "290 - 19TH AVE NE", "city": "SWIFT CURRENT", "province": "SK", "country": "CA", "postalCode": "S9H2Y3", "twitter": "None", "instagram": "None", "facebook": "None", "youtube": "None", "website": "None", "summary": "None", "logo": "None", "latitude": 50.28708272464778, "longitude": -107.77350027535222}, "882007917RR0001": {"name": "THE CHURCH OF THE OTTAWANS", "designationCode": "C", "categoryCode": "49", "address": "3195 MCCARTHY ROAD", "city": "OTTAWA", "province": "ON", "country": "CA", "postalCode": "K1V9B6", "twitter": "None", "instagram": "None", "facebook": "None", "youtube": "None", "website": "None", "summary": "None", "logo": "None", "latitude": 45.35490148130278, "longitude": -75.67276849232529}, "131909616RR0001": {"name": "THE CHURCH OF THE RESURRECTION ST CATHARINES", "designationCode": "C", "categoryCode": "39", "address": "125 QUEENSTON ST", "city": "ST CATHARINES", "province": "ON", "country": "CA", "postalCode": "L2R2Z6", "twitter": "None", "instagram": "None", "facebook": "None", "youtube": "None", "website": "None", "summary": "None", "logo": "None", "latitude": 43.163437387760226, "longitude": -79.23213732930351}, "864658612RR0001": {"name": "THE CHURCH OF THE SAINTS IN ADELAIDE-METCALFE", "designationCode": "C", "categoryCode": "39", "address": "1697 MELWOOD DRIVE            RR 3", "city": "STRATHROY", "province": "ON", "country": "CA", "postalCode": "N7G3H5", "twitter": "None", "instagram": "None", "facebook": "None", "youtube": "None", "website": "None", "summary": "None", "logo": "None", "latitude": 42.88230048730497, "longitude": -81.74870515903972}, "850110321RR0001": {"name": "THE CHURCH OF THE SENT FOR LIFE PROCLAMATION", "designationCode": "C", "categoryCode": "39", "address": "5673 200 STREET", "city": "LANGLEY", "province": "BC", "country": "CA", "postalCode": "V3A1M7", "twitter": "None", "instagram": "None", "facebook": "None", "youtube": "None", "website": "None", "summary": "None", "logo": "None"}, "892556366RR0001": {"name": "THE CHURCH OF THE STREET CONNECTION", "designationCode": "C", "categoryCode": "39", "address": "212 ANNE ST N", "city": "BARRIE", "province": "ON", "country": "CA", "postalCode": "L4N2C2", "twitter": "None", "instagram": "None", "facebook": "None", "youtube": "None", "website": "None", "summary": "None", "logo": "None", "latitude": 44.393898615038424, "longitude": -79.7151242714524}, "136102811RR0001": {"name": "THE CHURCH OF THE TORONTONIANS", "designationCode": "C", "categoryCode": "39", "address": "671 SHEPPARD AVENUE EAST", "city": "TORONTO", "province": "ON", "country": "CA", "postalCode": "M2K1B6", "twitter": "None", "instagram": "None", "facebook": "None", "youtube": "None", "website": "None", "summary": "None", "logo": "None", "latitude": 43.76860480930823, "longitude": -79.37928667984308}, "894071067RR0001": {"name": "THE CHURCH ON OXFORD HILL", "designationCode": "C", "categoryCode": "31", "address": "1519 OXFORD ST", "city": "WHITE ROCK", "province": "BC", "country": "CA", "postalCode": "V4B3R7", "twitter": "None", "instagram": "None", "facebook": "None", "youtube": "None", "website": "None", "summary": "None", "logo": "None", "latitude": 49.02985881709849, "longitude": -122.81225565199925}, "891389132RR0001": {"name": "THE CHURCH ON THE ROCK (TORONTO)", "designationCode": "C", "categoryCode": "47", "address": "100 GLENCOYNE CRES", "city": "SCARBOROUGH", "province": "ON", "country": "CA", "postalCode": "M1W2Z2", "twitter": "None", "instagram": "None", "facebook": "None", "youtube": "None", "website": "None", "summary": "None", "logo": "None", "latitude": 43.81713708133752, "longitude": -79.33233687414155}, "840268270RR0001": {"name": "THE CHURCH PARLOR INC.", "designationCode": "C", "categoryCode": "39", "address": "480 MCLEVIN AVENUE SUITE 803", "city": "SCARBOROUGH", "province": "ON", "country": "CA", "postalCode": "M1B5N9", "twitter": "None", "instagram": "None", "facebook": "None", "youtube": "None", "website": "None", "summary": "None", "logo": "None", "latitude": 43.810501547319554, "longitude": -79.22016996823237}, "106926967RR0001": {"name": "THE CHURCH SOCIETY OF THE DIOCESE OF QUEBEC", "designationCode": "C", "categoryCode": "43", "address": "31 DESJARDINS", "city": "QUEBEC", "province": "QC", "country": "CA", "postalCode": "G1R4L6", "twitter": "None", "instagram": "None", "facebook": "None", "youtube": "None", "website": "None", "summary": "None", "logo": "None", "latitude": 46.81198500000005, "longitude": -71.20740499999994}, "826963878RR0001": {"name": "THE CHURCH THAT MEETS IN LAUREL'S HOUSE", "designationCode": "C", "categoryCode": "03", "address": "63 BELLHAVEN ROAD", "city": "TORONTO", "province": "ON", "country": "CA", "postalCode": "M4L3J7", "twitter": "None", "instagram": "None", "facebook": "None", "youtube": "None", "website": "None", "summary": "None", "logo": "None", "latitude": 43.67664862254022, "longitude": -79.31330994918935}, "119177251RR0001": {"name": "THE CHURCH WARDENS OF ST. JAMES' THE APOSTLE IN THE DIOCESE OF TORONTO", "designationCode": "C", "categoryCode": "30", "address": "18804 LESLIE STREET", "city": "SHARON", "province": "ON", "country": "CA", "postalCode": "L0G1V0", "twitter": "None", "instagram": "None", "facebook": "None", "youtube": "None", "website": "None", "summary": "None", "logo": "None", "latitude": 44.09760967776561, "longitude": -79.44003852112047}, "888020641RR0001": {"name": "THE CHURCHILL STATUE AND OXFORD SCHOLARSHIP FOUNDATION", "designationCode": "C", "categoryCode": "21", "address": "10824 125 STREET", "city": "EDMONTON", "province": "AB", "country": "CA", "postalCode": "T5M0L4", "twitter": "None", "instagram": "None", "facebook": "None", "youtube": "None", "website": "None", "summary": "None", "logo": "None", "latitude": 53.55327600000001, "longitude": -113.53773021429376}, "131110868RR0001": {"name": "THE CHURCHVILLE CEMETERY ASSOCIATION", "designationCode": "C", "categoryCode": "59", "address": "1141 RIVER RD.                R.R.#1", "city": "EUREKA", "province": "NS", "country": "CA", "postalCode": "B0K1B0", "twitter": "None", "instagram": "None", "facebook": "None", "youtube": "None", "website": "None", "summary": "None", "logo": "None", "latitude": 45.49755024730215, "longitude": -62.66266989664607}, "866660699RR0001": {"name": "THE CINDERELLA PROJECT SOCIETY", "designationCode": "C", "categoryCode": "09", "address": "172 - 219 MACKAY RD", "city": "NORTH VANCOUVER", "province": "BC", "country": "CA", "postalCode": "V7P3N6", "twitter": "None", "instagram": "None", "facebook": "None", "youtube": "None", "website": "None", "summary": "None", "logo": "None", "latitude": 49.318491724864835, "longitude": -123.10249480314755}, "861576338RR0001": {"name": "THE CIRCLE FOR CHILDREN FOUNDATION", "designationCode": "B", "categoryCode": "01", "address": "308-77 AVENUE ROAD", "city": "TORONTO", "province": "ON", "country": "CA", "postalCode": "M5R3R8", "twitter": "None", "instagram": "None", "facebook": "None", "youtube": "None", "website": "None", "summary": "None", "logo": "None", "latitude": 43.671626349443045, "longitude": -79.39529872600878}, "891348591RR0001": {"name": "THE CIRCLE PROJECT ASSOC. INC.", "designationCode": "C", "categoryCode": "59", "address": "1102-8TH AVE", "city": "REGINA", "province": "SK", "country": "CA", "postalCode": "S4R1C9", "twitter": "None", "instagram": "None", "facebook": "None", "youtube": "None", "website": "None", "summary": "None", "logo": "None", "latitude": 50.45675150432782, "longitude": -104.59636994171619}, "831652474RR0001": {"name": "THE CIRO AND CATERINA GUCCIARDI CHARITABLE FOUNDATION", "designationCode": "B", "categoryCode": "03", "address": "411 CHISLEA ROAD", "city": "WOODBRIDGE", "province": "ON", "country": "CA", "postalCode": "L4L8N4", "twitter": "None", "instagram": "None", "facebook": "None", "youtube": "None", "website": "None", "summary": "None", "logo": "None", "latitude": 43.80117528365743, "longitude": -79.54476416134834}, "704288521RR0001": {"name": "THE CITADEL INTERNATIONAL CHURCH EDMONTON, ALBERTA", "designationCode": "C", "categoryCode": "39", "address": "PO BOX 24081 WINDERMERE RPO", "city": "EDMONTON", "province": "AB", "country": "CA", "postalCode": "T6W2W2", "twitter": "None", "instagram": "None", "facebook": "None", "youtube": "None", "website": "None", "summary": "None", "logo": "None", "latitude": 53.44612006814887, "longitude": -113.61329342629291}, "119227387RR0001": {"name": "THE CITADEL THEATRE", "designationCode": "C", "categoryCode": "22", "address": "9828 101A AVE NW", "city": "EDMONTON", "province": "AB", "country": "CA", "postalCode": "T5J3C6", "twitter": "None", "instagram": "None", "facebook": "None", "youtube": "None", "website": "None", "summary": "None", "logo": "None", "latitude": 53.542585402186944, "longitude": -113.48745405314791}, "844142273RR0001": {"name": "THE CITIZENS' FOUNDATION, CANADA", "designationCode": "C", "categoryCode": "20", "address": "2010 WINSTON PARK DR STE 200", "city": "OAKVILLE", "province": "ON", "country": "CA", "postalCode": "L6H5R7", "twitter": "None", "instagram": "None", "facebook": "None", "youtube": "None", "website": "None", "summary": "None", "logo": "None", "latitude": 43.507509890559774, "longitude": -79.66799833429424}, "893299842RR0001": {"name": "THE CITY CHURCH INTERNATIONAL", "designationCode": "C", "categoryCode": "36", "address": "1653 DUNDAS ST WEST", "city": "TORONTO", "province": "ON", "country": "CA", "postalCode": "M6K1V2", "twitter": "None", "instagram": "None", "facebook": "None", "youtube": "None", "website": "None", "summary": "None", "logo": "None", "latitude": 43.64991450678067, "longitude": -79.43646386234056}, "107373169RR0001": {"name": "THE CITY CHURCH OF MISSISSAUGA", "designationCode": "C", "categoryCode": "39", "address": "2700 ARGENTIA ROAD", "city": "MISSISSAUGA", "province": "ON", "country": "CA", "postalCode": "L5N5V4", "twitter": "None", "instagram": "None", "facebook": "None", "youtube": "None", "website": "None", "summary": "None", "logo": "None", "latitude": 43.60158158612766, "longitude": -79.76357156105377}, "107865776RR0001": {"name": "THE CITY OF PORT COLBORNE PUBLIC LIBRARY BOARD", "designationCode": "C", "categoryCode": "50", "address": "310 KING ST", "city": "PORT COLBORNE", "province": "ON", "country": "CA", "postalCode": "L3K4H1", "twitter": "None", "instagram": "None", "facebook": "None", "youtube": "None", "website": "None", "summary": "None", "logo": "None", "latitude": 42.888096241185316, "longitude": -79.25156731230838}, "891765968RR0001": {"name": "THE CITY OF VANCOUVER HERITAGE CONSERVATION FOUNDATION", "designationCode": "C", "categoryCode": "52", "address": "402-510 WEST HASTINGS ST", "city": "VANCOUVER", "province": "BC", "country": "CA", "postalCode": "V6B1L8", "twitter": "None", "instagram": "None", "facebook": "None", "youtube": "None", "website": "None", "summary": "None", "logo": "None", "latitude": 49.28421262779169, "longitude": -123.11218934918325}, "108130642RR0001": {"name": "THE CITY OF VAUGHAN PUBLIC LIBRARY BOARD", "designationCode": "C", "categoryCode": "50", "address": "2191 MAJOR MACKENZIE DR", "city": "MAPLE", "province": "ON", "country": "CA", "postalCode": "L6A4W2", "twitter": "None", "instagram": "None", "facebook": "None", "youtube": "None", "website": "None", "summary": "None", "logo": "None", "latitude": 43.85579766913862, "longitude": -79.51065168676799}, "119227494RR0001": {"name": "THE CIVIC GARDEN CENTRE FOUNDATION INC.", "designationCode": "A", "categoryCode": "53", "address": "45 HAZELTON AVE", "city": "TORONTO", "province": "ON", "country": "CA", "postalCode": "M5R2E3", "twitter": "None", "instagram": "None", "facebook": "None", "youtube": "None", "website": "None", "summary": "None", "logo": "None", "latitude": 43.67218233833454, "longitude": -79.3936203287266}, "119227502RR0001": {"name": "THE CIVIC HOSPITAL AREA PARKS AND RECREATION COMMITTEE", "designationCode": "C", "categoryCode": "56", "address": "596 PARKDALE AVENUE", "city": "OTTAWA", "province": "ON", "country": "CA", "postalCode": "K1Y1J2", "twitter": "None", "instagram": "None", "facebook": "None", "youtube": "None", "website": "None", "summary": "None", "logo": "None", "latitude": 45.39529710990253, "longitude": -75.72587024190646}, "848402541RR0001": {"name": "THE CIVICS CHANNEL, INC.", "designationCode": "C", "categoryCode": "21", "address": "233 CORRIE CRESCENT", "city": "WATERLOO", "province": "ON", "country": "CA", "postalCode": "N2L5W3", "twitter": "None", "instagram": "None", "facebook": "None", "youtube": "None", "website": "None", "summary": "None", "logo": "None", "latitude": 43.48299156950789, "longitude": -80.5492850012694}, "854015658RR0001": {"name": "THE CIVILIAN SPONSORING COMMITTEE FOR 232 BIGHORN SQUADRON R.C.A.C.", "designationCode": "C", "categoryCode": "29", "address": "5856 CESSNA STREET            BOX 192", "city": "OLIVER", "province": "BC", "country": "CA", "postalCode": "V0H1T0", "twitter": "None", "instagram": "None", "facebook": "None", "youtube": "None", "website": "None", "summary": "None", "logo": "None", "latitude": 49.17484789388216, "longitude": -119.54757689323192}, "893314724RR0001": {"name": "THE CLARESHOLM PENTECOSTAL ASSEMBLY", "designationCode": "C", "categoryCode": "36", "address": "PO BOX 313", "city": "CLARESHOLM", "province": "AB", "country": "CA", "postalCode": "T0L0T0", "twitter": "None", "instagram": "None", "facebook": "None", "youtube": "None", "website": "None", "summary": "None", "logo": "None", "latitude": 50.026080000000036, "longitude": -113.58213999999998}, "119227619RR0001": {"name": "THE CLARIDGE FOUNDATION-LA FONDATION CLARIDGE", "designationCode": "B", "categoryCode": "03", "address": "1170 PEEL STREET 8TH FLOOR", "city": "MONTREAL", "province": "QC", "country": "CA", "postalCode": "H3B4P2", "twitter": "None", "instagram": "None", "facebook": "None", "youtube": "None", "website": "None", "summary": "None", "logo": "None", "latitude": 45.49919599330624, "longitude": -73.57126662118391}, "119227627RR0001": {"name": "THE CLARK MEMORIAL CEMETERY OF TRINITY CHURCH", "designationCode": "C", "categoryCode": "59", "address": "2071 IMPASSE DES BELVEDERES", "city": "STE AGATHE NORD", "province": "QC", "country": "CA", "postalCode": "J8C3X4", "twitter": "None", "instagram": "None", "facebook": "None", "youtube": "None", "website": "None", "summary": "None", "logo": "None", "latitude": 46.07810700000006, "longitude": -74.28321799999993}, "890565799RR0001": {"name": "THE CLASSICAL ACCORDION SOCIETY OF CANADA INC.", "designationCode": "C", "categoryCode": "22", "address": "3296 CINDY CRES.", "city": "MISSISSAUGA", "province": "ON", "country": "CA", "postalCode": "L4Y3J6", "twitter": "None", "instagram": "None", "facebook": "None", "youtube": "None", "website": "None", "summary": "None", "logo": "None", "latitude": 43.61378729113057, "longitude": -79.59326906399662}, "119227643RR0001": {"name": "THE CLASSICAL ASSOCIATION OF CANADA/SOCIETE CANADIENNE DES ETUDES CLASSIQUES", "designationCode": "C", "categoryCode": "29", "address": "DEPT. OF CLASSICS, UNIV OF WIN515 PORTAGE AVE", "city": "WINNIPEG", "province": "MB", "country": "CA", "postalCode": "R3B2E9", "twitter": "None", "instagram": "None", "facebook": "None", "youtube": "None", "website": "None", "summary": "None", "logo": "None"}, "119227650RR0001": {"name": "THE CLASSICAL GUITAR SOCIETY OF CALGARY", "designationCode": "C", "categoryCode": "22", "address": "PO BOX 63205                  STADIUM RPO", "city": "CALGARY", "province": "AB", "country": "CA", "postalCode": "T2N4S5", "twitter": "None", "instagram": "None", "facebook": "None", "youtube": "None", "website": "None", "summary": "None", "logo": "None", "latitude": 51.065529000000055, "longitude": -114.12679849999994}, "118975382RR0001": {"name": "THE CLAYTON JOHNSTON SCHOLARSHIP AND BURSARY FUND", "designationCode": "C", "categoryCode": "21", "address": "418-650 WEST GEORGIA STREET   P.O. BOX 11602", "city": "VANCOUVER", "province": "BC", "country": "CA", "postalCode": "V6B4N9", "twitter": "None", "instagram": "None", "facebook": "None", "youtube": "None", "website": "None", "summary": "None", "logo": "None", "latitude": 49.28012307167682, "longitude": -123.11442679241839}, "772702684RR0001": {"name": "THE CLEAN NOVA SCOTIA FOUNDATION", "designationCode": "C", "categoryCode": "59", "address": "126 PORTLAND ST", "city": "DARTMOUTH", "province": "NS", "country": "CA", "postalCode": "B2Y1H8", "twitter": "None", "instagram": "None", "facebook": "None", "youtube": "None", "website": "None", "summary": "None", "logo": "None", "latitude": 44.66667963613024, "longitude": -63.565361084223056}, "882228406RR0001": {"name": "THE CLERGY BENEFIT FUND OF THE DIOCESE OF SAULT STE. MARIE", "designationCode": "C", "categoryCode": "49", "address": "30 STE. ANNE RD.", "city": "SUDBURY", "province": "ON", "country": "CA", "postalCode": "P3C5E1", "twitter": "None", "instagram": "None", "facebook": "None", "youtube": "None", "website": "None", "summary": "None", "logo": "None", "latitude": 46.49512132849767, "longitude": -80.99615523166241}, "106945181RR0001": {"name": "THE CLIVE ATHLETIC AND AGRICULTURAL SOCIETY", "designationCode": "C", "categoryCode": "56", "address": "PO BOX 62", "city": "CLIVE", "province": "AB", "country": "CA", "postalCode": "T0C0Y0", "twitter": "None", "instagram": "None", "facebook": "None", "youtube": "None", "website": "None", "summary": "None", "logo": "None", "latitude": 52.46682000000004, "longitude": -113.45197999999999}, "108090002RR0001": {"name": "THE CLOUDS & WATER GALLERY AND VISUAL PRODUCTION SOCIETY", "designationCode": "C", "categoryCode": "22", "address": "208 CENTRE ST SE", "city": "CALGARY", "province": "AB", "country": "CA", "postalCode": "T2G2B6", "twitter": "None", "instagram": "None", "facebook": "None", "youtube": "None", "website": "None", "summary": "None", "logo": "None", "latitude": 51.05076129225577, "longitude": -114.06262647902375}, "889131173RR0001": {"name": "THE CLOVERLEAF FOUNDATION", "designationCode": "B", "categoryCode": "03", "address": "56 REGINA ST N", "city": "WATERLOO", "province": "ON", "country": "CA", "postalCode": "N2J3A3", "twitter": "None", "instagram": "None", "facebook": "None", "youtube": "None", "website": "None", "summary": "None", "logo": "None", "latitude": 43.468485045242055, "longitude": -80.5220777741937}, "894482496RR0001": {"name": "THE CLUBHOUSE CHILD CARE CENTER", "designationCode": "C", "categoryCode": "01", "address": "839 SUTHERLAND AVENUE", "city": "KELOWNA", "province": "BC", "country": "CA", "postalCode": "V1Y5X4", "twitter": "None", "instagram": "None", "facebook": "None", "youtube": "None", "website": "None", "summary": "None", "logo": "None", "latitude": 49.87974392461985, "longitude": -119.48453987949574}, "891234742RR0001": {"name": "THE CLUBHOUSE SOCIETY OF EDMONTON & AREA", "designationCode": "C", "categoryCode": "09", "address": "215 - 10106 111 AVE NW", "city": "EDMONTON", "province": "AB", "country": "CA", "postalCode": "T5G0B4", "twitter": "None", "instagram": "None", "facebook": "None", "youtube": "None", "website": "None", "summary": "None", "logo": "None", "latitude": 53.55890246436588, "longitude": -113.494221}, "891733842RR0001": {"name": "THE CLUCULZ LAKE COMMUNITY RECREATION ASSOCIATION", "designationCode": "C", "categoryCode": "56", "address": "3385 LUND RD", "city": "VANDERHOOF", "province": "BC", "country": "CA", "postalCode": "V0J3A3", "twitter": "None", "instagram": "None", "facebook": "None", "youtube": "None", "website": "None", "summary": "None", "logo": "None", "latitude": 53.89466386069015, "longitude": -123.57152630747494}, "871247649RR0001": {"name": "THE CLYR CHARITABLE FOUNDATION", "designationCode": "B", "categoryCode": "05", "address": "201 BRIDGELAND AVE.", "city": "TORONTO", "province": "ON", "country": "CA", "postalCode": "M6A1Y7", "twitter": "None", "instagram": "None", "facebook": "None", "youtube": "None", "website": "None", "summary": "None", "logo": "None", "latitude": 43.724679896445465, "longitude": -79.46720435899367}, "891412199RR0001": {"name": "THE CMEC FOUNDATION LA FONDATION DU CMEC", "designationCode": "C", "categoryCode": "21", "address": "95 ST CLAIR ST. WEST          SUITE 1106", "city": "TORONTO", "province": "ON", "country": "CA", "postalCode": "M4V1N6", "twitter": "None", "instagram": "None", "facebook": "None", "youtube": "None", "website": "None", "summary": "None", "logo": "None", "latitude": 43.68707772880741, "longitude": -79.39843908353058}, "119228518RR0001": {"name": "THE CO-OPERATIVE HEALTH CENTRE", "designationCode": "C", "categoryCode": "11", "address": "110-8TH ST E", "city": "PRINCE ALBERT", "province": "SK", "country": "CA", "postalCode": "S6V0V7", "twitter": "None", "instagram": "None", "facebook": "None", "youtube": "None", "website": "None", "summary": "None", "logo": "None", "latitude": 53.20582545657561, "longitude": -105.7506435}, "884751645RR0001": {"name": "THE COALITION FOR WAVERLEY PARK", "designationCode": "C", "categoryCode": "56", "address": "10 ALGOMA ST. SOUTH", "city": "THUNDER BAY", "province": "ON", "country": "CA", "postalCode": "P7B3A7", "twitter": "None", "instagram": "None", "facebook": "None", "youtube": "None", "website": "None", "summary": "None", "logo": "None", "latitude": 48.43689798593441, "longitude": -89.22427374380449}, "140872516RR0001": {"name": "THE COAST RECITAL SOCIETY", "designationCode": "C", "categoryCode": "22", "address": "P.O. BOX 1010                 #209 - 5760 TEREDO STREET", "city": "SECHELT", "province": "BC", "country": "CA", "postalCode": "V0N3A0", "twitter": "None", "instagram": "None", "facebook": "None", "youtube": "None", "website": "None", "summary": "None", "logo": "None", "latitude": 49.47080239497358, "longitude": -123.76144347322402}, "123403503RR0001": {"name": "THE COASTAL JAZZ AND BLUES SOCIETY", "designationCode": "C", "categoryCode": "22", "address": "295 WEST 7TH AVE              2ND FLR", "city": "VANCOUVER", "province": "BC", "country": "CA", "postalCode": "V5Y1L9", "twitter": "None", "instagram": "None", "facebook": "None", "youtube": "None", "website": "None", "summary": "None", "logo": "None", "latitude": 49.26481348600598, "longitude": -123.11063966472386}, "118866714RR0001": {"name": "THE COBOURG AND DISTRICT HISTORICAL SOCIETY", "designationCode": "C", "categoryCode": "50", "address": "P.O. BOX 911", "city": "COBOURG", "province": "ON", "country": "CA", "postalCode": "K9A4W4", "twitter": "None", "instagram": "None", "facebook": "None", "youtube": "None", "website": "None", "summary": "None", "logo": "None", "latitude": 43.95960600000005, "longitude": -78.16778449999994}, "864593652RR0001": {"name": "THE COBOURG PUBLIC LIBRARY BOARD", "designationCode": "C", "categoryCode": "50", "address": "200 ONTARIO STREET", "city": "COBOURG", "province": "ON", "country": "CA", "postalCode": "K9A5P4", "twitter": "None", "instagram": "None", "facebook": "None", "youtube": "None", "website": "None", "summary": "None", "logo": "None", "latitude": 43.95852965918397, "longitude": -78.17563680982781}, "890775273RR0001": {"name": "THE CODE FOUNDATION LA FONDATION CODE", "designationCode": "A", "categoryCode": "23", "address": "321 CHAPEL STREET", "city": "OTTAWA", "province": "ON", "country": "CA", "postalCode": "K1N7Z2", "twitter": "None", "instagram": "None", "facebook": "None", "youtube": "None", "website": "None", "summary": "None", "logo": "None", "latitude": 45.426905758266436, "longitude": -75.67762573033662}, "868276973RR0001": {"name": "THE COGSWELL LIBRARY FUND", "designationCode": "A", "categoryCode": "25", "address": "25 SPECTACLE LAKE DR", "city": "DARTMOUTH", "province": "NS", "country": "CA", "postalCode": "B3B1X7", "twitter": "None", "instagram": "None", "facebook": "None", "youtube": "None", "website": "None", "summary": "None", "logo": "None", "latitude": 44.701689336603785, "longitude": -63.58279079842992}, "871910956RR0001": {"name": "THE COHOS EVAMY PARTNERS SCHOLARSHIP FOUNDATION", "designationCode": "C", "categoryCode": "21", "address": "300-134 11TH AV S.E.", "city": "CALGARY", "province": "AB", "country": "CA", "postalCode": "T2G0X5", "twitter": "None", "instagram": "None", "facebook": "None", "youtube": "None", "website": "None", "summary": "None", "logo": "None", "latitude": 51.04206521557619, "longitude": -114.0533801077881}, "864387477RR0001": {"name": "THE COLE CHARITABLE FOUNDATION", "designationCode": "B", "categoryCode": "09", "address": "155 BLUERIDGE VIEW", "city": "CALGARY", "province": "AB", "country": "CA", "postalCode": "T3L2N6", "twitter": "None", "instagram": "None", "facebook": "None", "youtube": "None", "website": "None", "summary": "None", "logo": "None", "latitude": 51.132412483264666, "longitude": -114.26639327699232}, "890929557RR0001": {"name": "THE COLE FOUNDATION/LA FONDATION COLE", "designationCode": "B", "categoryCode": "13", "address": "SUITE 110                     484 ONTARIO STREET", "city": "SHERBROOKE", "province": "QC", "country": "CA", "postalCode": "J1J3R2", "twitter": "None", "instagram": "None", "facebook": "None", "youtube": "None", "website": "None", "summary": "None", "logo": "None", "latitude": 45.4057464970858, "longitude": -71.90771384482676}, "118810696RR0001": {"name": "THE COLEMAN/ROGERS MEMORIAL BURSARY FUND", "designationCode": "C", "categoryCode": "11", "address": "1500-1090 WEST GEORGIA STREET", "city": "VANCOUVER", "province": "BC", "country": "CA", "postalCode": "V6E3V7", "twitter": "None", "instagram": "None", "facebook": "None", "youtube": "None", "website": "None", "summary": "None", "logo": "None", "latitude": 49.28541748568885, "longitude": -123.12279712756055}, "119227791RR0001": {"name": "THE COLES ISLAND CEMETERY INC", "designationCode": "C", "categoryCode": "59", "address": "737 CHARLOTTE ST", "city": "FREDERICTON", "province": "NB", "country": "CA", "postalCode": "E3B1M6", "twitter": "None", "instagram": "None", "facebook": "None", "youtube": "None", "website": "None", "summary": "None", "logo": "None", "latitude": 45.956062330284475, "longitude": -66.63877094740035}, "899290241RR0001": {"name": "THE COLIN B GLASSCO CHARITABLE FOUNDATION FOR CHILDREN", "designationCode": "A", "categoryCode": "03", "address": "64 NEW STREET SE", "city": "CALGARY", "province": "AB", "country": "CA", "postalCode": "T2G3Y1", "twitter": "None", "instagram": "None", "facebook": "None", "youtube": "None", "website": "None", "summary": "None", "logo": "None", "latitude": 51.041710529286135, "longitude": -114.02604}, "887557882RR0001": {"name": "THE COLIN J.G. MOLSON HERITAGE FOUNDATION / LA FONDATION COLIN J.G. MOLSON D'HERITAGE", "designationCode": "B", "categoryCode": "55", "address": "1350 SHERBROOKE ST. WEST      SUITE 1201", "city": "MONTREAL", "province": "QC", "country": "CA", "postalCode": "H3G1J1", "twitter": "None", "instagram": "None", "facebook": "None", "youtube": "None", "website": "None", "summary": "None", "logo": "None", "latitude": 45.49907079848817, "longitude": -73.57924886147518}, "865039168RR0001": {"name": "THE COLLECTIVE FOR PROFESSIONAL AND DEVELOPING WRITERS INC.", "designationCode": "C", "categoryCode": "21", "address": "300-245 MCDERMOT AVENUE", "city": "WINNIPEG", "province": "MB", "country": "CA", "postalCode": "R3B0S6", "twitter": "None", "instagram": "None", "facebook": "None", "youtube": "None", "website": "None", "summary": "None", "logo": "None", "latitude": 49.897426902590986, "longitude": -97.14132111128748}, "124138520RR0001": {"name": "THE COLLEGE OF PIPING AND CELTIC PERFORMING ARTS OF CANADA INC.", "designationCode": "C", "categoryCode": "22", "address": "619 WATER STREET", "city": "SUMMERSIDE", "province": "PE", "country": "CA", "postalCode": "C1N4H8", "twitter": "None", "instagram": "None", "facebook": "None", "youtube": "None", "website": "None", "summary": "None", "logo": "None", "latitude": 46.39636300694346, "longitude": -63.804348786240794}, "847011558RR0001": {"name": "THE COLLINGWOOD & DISTRICT HISTORICAL SOCIETY", "designationCode": "C", "categoryCode": "50", "address": "PO BOX 181 STN MAIN", "city": "COLLINGWOOD", "province": "ON", "country": "CA", "postalCode": "L9Y3Z5", "twitter": "None", "instagram": "None", "facebook": "None", "youtube": "None", "website": "None", "summary": "None", "logo": "None", "latitude": 44.49987600000006, "longitude": -80.21683249999994}, "106954522RR0001": {"name": "THE COLLINGWOOD GENERAL AND MARINE HOSPITAL", "designationCode": "C", "categoryCode": "10", "address": "459 HUME STREET", "city": "COLLINGWOOD", "province": "ON", "country": "CA", "postalCode": "L9Y1W9", "twitter": "None", "instagram": "None", "facebook": "None", "youtube": "None", "website": "None", "summary": "None", "logo": "None", "latitude": 44.498148068576114, "longitude": -80.20271127721982}, "839205960RR0001": {"name": "THE COLPITTS FAMILY FOUNDATION", "designationCode": "B", "categoryCode": "03", "address": "P.O. BOX 431", "city": "MONCTON", "province": "NB", "country": "CA", "postalCode": "E1C8L4", "twitter": "None", "instagram": "None", "facebook": "None", "youtube": "None", "website": "None", "summary": "None", "logo": "None", "latitude": 46.08834900000005, "longitude": -64.77824149999994}, "888631025RR0001": {"name": "THE COLUMBIA LEARNING SOCIETY", "designationCode": "C", "categoryCode": "21", "address": "802 MANNING ROAD N E", "city": "CALGARY", "province": "AB", "country": "CA", "postalCode": "T2E7N8", "twitter": "None", "instagram": "None", "facebook": "None", "youtube": "None", "website": "None", "summary": "None", "logo": "None", "latitude": 51.05706729586246, "longitude": -114.01852052383312}, "106960180RR0001": {"name": "THE COMMITTEE ON FAMILY VIOLENCE ASSOCIATION", "designationCode": "C", "categoryCode": "59", "address": "PO BOX 152 STN MAIN", "city": "CORNER BROOK", "province": "NL", "country": "CA", "postalCode": "A2H6C7", "twitter": "None", "instagram": "None", "facebook": "None", "youtube": "None", "website": "None", "summary": "None", "logo": "None", "latitude": 48.95286915119611, "longitude": -57.94545019053702}, "119227924RR0001": {"name": "THE COMMONWEALTH GAMES FOUNDATION OF CANADA/FONDATION CANADIENNE DES JEUX DU COMMO", "designationCode": "A", "categoryCode": "53", "address": "2255 ST LAURENT BLVD          SUITE 120", "city": "OTTAWA", "province": "ON", "country": "CA", "postalCode": "K1G4K3", "twitter": "None", "instagram": "None", "facebook": "None", "youtube": "None", "website": "None", "summary": "None", "logo": "None", "latitude": 45.38738297504171, "longitude": -75.61614450132765}, "899126783RR0001": {"name": "THE COMMONWEALTH JUDICIAL EDUCATION INSTITUTE", "designationCode": "C", "categoryCode": "20", "address": "ROOM 306                      6061 UNIVERSITY AVE", "city": "HALIFAX", "province": "NS", "country": "CA", "postalCode": "B3H4H9", "twitter": "None", "instagram": "None", "facebook": "None", "youtube": "None", "website": "None", "summary": "None", "logo": "None", "latitude": 44.63782499420027, "longitude": -63.587319106872755}, "892100884RR0001": {"name": "THE COMMONWEALTH OF LEARNING", "designationCode": "C", "categoryCode": "21", "address": "2500 - 4710 KINGSWAY", "city": "BURNABY", "province": "BC", "country": "CA", "postalCode": "V5H4M2", "twitter": "None", "instagram": "None", "facebook": "None", "youtube": "None", "website": "None", "summary": "None", "logo": "None", "latitude": 49.22815397646598, "longitude": -122.99891000628355}, "863591335RR0001": {"name": "THE COMMUNITIES OF JESUS CHRIST CHURCH", "designationCode": "C", "categoryCode": "39", "address": "7 VALLEYWOODS RD UNIT 142", "city": "NORTH YORK", "province": "ON", "country": "CA", "postalCode": "M3A2R4", "twitter": "None", "instagram": "None", "facebook": "None", "youtube": "None", "website": "None", "summary": "None", "logo": "None", "latitude": 43.75362493199267, "longitude": -79.33330749873059}, "119227932RR0001": {"name": "THE COMMUNITY ARTS COUNCIL OF FORT ST JOHN", "designationCode": "C", "categoryCode": "22", "address": "PO BOX 6474", "city": "FORT ST JOHN", "province": "BC", "country": "CA", "postalCode": "V1J4H9", "twitter": "None", "instagram": "None", "facebook": "None", "youtube": "None", "website": "None", "summary": "None", "logo": "None", "latitude": 56.25253500000005, "longitude": -120.84748099999993}, "130681893RR0001": {"name": "THE COMMUNITY ARTS COUNCIL OF THE ALBERNI VALLEY", "designationCode": "C", "categoryCode": "22", "address": "3061-8TH AVE", "city": "PORT ALBERNI", "province": "BC", "country": "CA", "postalCode": "V9Y2K5", "twitter": "None", "instagram": "None", "facebook": "None", "youtube": "None", "website": "None", "summary": "None", "logo": "None", "latitude": 49.23422277909124, "longitude": -124.80061095887011}, "119227957RR0001": {"name": "THE COMMUNITY ARTS COUNCIL OF WHITEROCK AND DISTRICT", "designationCode": "C", "categoryCode": "22", "address": "14601 20 AVE", "city": "SURREY", "province": "BC", "country": "CA", "postalCode": "V4A9P5", "twitter": "None", "instagram": "None", "facebook": "None", "youtube": "None", "website": "None", "summary": "None", "logo": "None", "latitude": 49.03852650764605, "longitude": -122.81586236081135}, "106961329RR0001": {"name": "THE COMMUNITY CHAPLAINCY FOR EX-OFFENDERS-MONCTON INC.", "designationCode": "C", "categoryCode": "59", "address": "PO BOX 342 STN MAIN", "city": "MONCTON", "province": "NB", "country": "CA", "postalCode": "E1C8L4", "twitter": "None", "instagram": "None", "facebook": "None", "youtube": "None", "website": "None", "summary": "None", "logo": "None", "latitude": 46.08872243840578, "longitude": -64.77642630797114}, "119227429RR0001": {"name": "THE COMMUNITY FOOD SHARING ASSOCIATION INC", "designationCode": "C", "categoryCode": "09", "address": "PO BOX 6291", "city": "ST JOHN'S", "province": "NL", "country": "CA", "postalCode": "A1C6J9", "twitter": "None", "instagram": "None", "facebook": "None", "youtube": "None", "website": "None", "summary": "None", "logo": "None", "latitude": 47.56082100000006, "longitude": -52.71219349999993}, "892395112RR0001": {"name": "THE COMMUNITY FOUNDATION OF MISSISSAUGA", "designationCode": "A", "categoryCode": "03", "address": "1100 CENTRAL PARKWAY WEST     UNIT 15, LOWER LEVEL", "city": "MISSISSAUGA", "province": "ON", "country": "CA", "postalCode": "L5C4E5", "twitter": "None", "instagram": "None", "facebook": "None", "youtube": "None", "website": "None", "summary": "None", "logo": "None", "latitude": 43.56668589090553, "longitude": -79.65714983218905}, "853376531RR0001": {"name": "THE COMMUNITY FOUNDATION OF NEWFOUNDLAND AND LABRADOR", "designationCode": "A", "categoryCode": "03", "address": "31 PEET STREET                SUITE 209", "city": "ST. JOHN'S", "province": "NL", "country": "CA", "postalCode": "A1B3W8", "twitter": "None", "instagram": "None", "facebook": "None", "youtube": "None", "website": "None", "summary": "None", "logo": "None", "latitude": 47.55934002746846, "longitude": -52.76067346880928}, "870389368RR0001": {"name": "THE COMMUNITY FOUNDATION OF NOVA SCOTIA SOCIETY", "designationCode": "A", "categoryCode": "03", "address": "806-1888 BRUNSWICK STREET", "city": "HALIFAX", "province": "NS", "country": "CA", "postalCode": "B3J3J8", "twitter": "None", "instagram": "None", "facebook": "None", "youtube": "None", "website": "None", "summary": "None", "logo": "None", "latitude": 44.64937092838598, "longitude": -63.5781734293956}, "868038951RR0001": {"name": "THE COMMUNITY FOUNDATION OF ORILLIA AND AREA", "designationCode": "A", "categoryCode": "03", "address": "PO BOX 622 STN MAIN", "city": "ORILLIA", "province": "ON", "country": "CA", "postalCode": "L3V6K5", "twitter": "None", "instagram": "None", "facebook": "None", "youtube": "None", "website": "None", "summary": "None", "logo": "None", "latitude": 44.58482747647954, "longitude": -79.42452845126093}, "890011190RR0001": {"name": "THE COMMUNITY FOUNDATION OF PRINCE EDWARD ISLAND INC.", "designationCode": "A", "categoryCode": "03", "address": "119-121 QUEEN ST", "city": "CHARLOTTETOWN", "province": "PE", "country": "CA", "postalCode": "C1A4B3", "twitter": "None", "instagram": "None", "facebook": "None", "youtube": "None", "website": "None", "summary": "None", "logo": "None", "latitude": 46.23393565090379, "longitude": -63.12756178839015}}