{"119186179RR0001": {"name": "ST MALACHY'S MEMORIAL HIGH SCHOOL TRUST FUND", "designationCode": "C", "categoryCode": "21", "address": "(THE CANADA TRUST CO.)        PO BOX 10085", "city": "VANCOUVER", "province": "BC", "country": "CA", "postalCode": "V7Y1B6", "twitter": "None", "instagram": "None", "facebook": "None", "youtube": "None", "website": "None", "summary": "None", "logo": "None", "latitude": 49.28294993392596, "longitude": -123.11892994113924}, "888616190RR0001": {"name": "ST MARGARET MARY PARISH, KELLIHER", "designationCode": "C", "categoryCode": "38", "address": "BOX 103", "city": "KELLIHER", "province": "SK", "country": "CA", "postalCode": "S0A1V0", "twitter": "None", "instagram": "None", "facebook": "None", "youtube": "None", "website": "None", "summary": "None", "logo": "None", "latitude": 51.26209000000006, "longitude": -103.73799999999994}, "128967353RR0006": {"name": "ST MARGARET MARY'S PARISH", "designationCode": "C", "categoryCode": "38", "address": "7 FAIRBAIRN AVE", "city": "OTTAWA", "province": "ON", "country": "CA", "postalCode": "K1S1T2", "twitter": "None", "instagram": "None", "facebook": "None", "youtube": "None", "website": "None", "summary": "None", "logo": "None", "latitude": 45.394548578971616, "longitude": -75.68145364345916}, "119245629RR0001": {"name": "ST MARGARET'S ANGLICAN CHURCH", "designationCode": "C", "categoryCode": "30", "address": "161 HANMER ST WEST", "city": "BARRIE", "province": "ON", "country": "CA", "postalCode": "L4N7S1", "twitter": "None", "instagram": "None", "facebook": "None", "youtube": "None", "website": "None", "summary": "None", "logo": "None", "latitude": 44.40739717984307, "longitude": -79.7226086688788}, "891116394RR0001": {"name": "ST MARGARET'S BAY AND AREA ASSOCIATION FOR COMMUNITY LIVING", "designationCode": "C", "categoryCode": "09", "address": "234 HILLSIDE DRIVE", "city": "BOUTILIER'S POINT", "province": "NS", "country": "CA", "postalCode": "B3Z1W8", "twitter": "None", "instagram": "None", "facebook": "None", "youtube": "None", "website": "None", "summary": "None", "logo": "None", "latitude": 44.666145939811614, "longitude": -63.933750679179255}, "889534269RR0001": {"name": "ST MARGARET'S BAY FOOD BANK", "designationCode": "C", "categoryCode": "09", "address": "PO BOX 3036                   TANTALLON PO", "city": "TANTALLON", "province": "NS", "country": "CA", "postalCode": "B3Z4G9", "twitter": "None", "instagram": "None", "facebook": "None", "youtube": "None", "website": "None", "summary": "None", "logo": "None", "latitude": 44.65930000000003, "longitude": -63.90359999999998}, "119186328RR0001": {"name": "ST MARGARET'S CEMETERY", "designationCode": "C", "categoryCode": "59", "address": "BOX 5-9", "city": "THETIS ISLAND", "province": "BC", "country": "CA", "postalCode": "V0R2Y0", "twitter": "None", "instagram": "None", "facebook": "None", "youtube": "None", "website": "None", "summary": "None", "logo": "None", "latitude": 48.98019000000005, "longitude": -123.67730999999998}, "119186351RR0002": {"name": "ST MARGARET'S CHURCH", "designationCode": "C", "categoryCode": "30", "address": "22 FOX RIDGE", "city": "UPPER TANTALLON", "province": "NS", "country": "CA", "postalCode": "B3Z1E6", "twitter": "None", "instagram": "None", "facebook": "None", "youtube": "None", "website": "None", "summary": "None", "logo": "None", "latitude": 44.68973580183506, "longitude": -63.87232130353715}, "119186443RR0001": {"name": "ST MARGARET'S CHURCH", "designationCode": "C", "categoryCode": "38", "address": "P.O. BOX 1026", "city": "ROBLIN", "province": "MB", "country": "CA", "postalCode": "R0L1P0", "twitter": "None", "instagram": "None", "facebook": "None", "youtube": "None", "website": "None", "summary": "None", "logo": "None", "latitude": 51.22816000000006, "longitude": -101.35248999999999}, "119264174RR0017": {"name": "ST MARGARET'S CHURCH", "designationCode": "C", "categoryCode": "38", "address": "88 CLAYTE STREET", "city": "THUNDER BAY P", "province": "ON", "country": "CA", "postalCode": "P7A6S5", "twitter": "None", "instagram": "None", "facebook": "None", "youtube": "None", "website": "None", "summary": "None", "logo": "None", "latitude": 48.455706518754546, "longitude": -89.22092408381903}, "129144549RR0029": {"name": "ST MARGARET'S CHURCH", "designationCode": "C", "categoryCode": "30", "address": "4464 4TH ST", "city": "PEACHLAND", "province": "BC", "country": "CA", "postalCode": "V0H1X6", "twitter": "None", "instagram": "None", "facebook": "None", "youtube": "None", "website": "None", "summary": "None", "logo": "None", "latitude": 49.77532882737028, "longitude": -119.73668621120669}, "891346587RR0001": {"name": "ST MARGARET'S CHURCH", "designationCode": "C", "categoryCode": "30", "address": "BOX 410", "city": "WILBERFORCE", "province": "ON", "country": "CA", "postalCode": "K0L3C0", "twitter": "None", "instagram": "None", "facebook": "None", "youtube": "None", "website": "None", "summary": "None", "logo": "None", "latitude": 44.99796121193059, "longitude": -78.21053236882112}, "130348600RR0001": {"name": "ST MARGARET'S PARISH, GRAND MIRA, NS", "designationCode": "C", "categoryCode": "39", "address": "2500 GRAND MIRA SOUTH ROAD", "city": "CAPE BRETON", "province": "NS", "country": "CA", "postalCode": "B1K1K3", "twitter": "None", "instagram": "None", "facebook": "None", "youtube": "None", "website": "None", "summary": "None", "logo": "None", "latitude": 45.88067338879943, "longitude": -60.29134442402763}, "891380990RR0001": {"name": "ST MARGARET'S TAMIL ANGLICAN CHURCH", "designationCode": "C", "categoryCode": "30", "address": "4130 LAWRENCE AVENUE EAST", "city": "WESTHILL", "province": "ON", "country": "CA", "postalCode": "M1E2R8", "twitter": "None", "instagram": "None", "facebook": "None", "youtube": "None", "website": "None", "summary": "None", "logo": "None", "latitude": 43.767155157509585, "longitude": -79.19203723708769}, "119186302RR0002": {"name": "ST MARGARETS ARENA ASSOCIATION", "designationCode": "C", "categoryCode": "56", "address": "12 WESTWOOD BLVD", "city": "UPPER TANTALLON", "province": "NS", "country": "CA", "postalCode": "B3Z1H3", "twitter": "None", "instagram": "None", "facebook": "None", "youtube": "None", "website": "None", "summary": "None", "logo": "None", "latitude": 44.7063183977722, "longitude": -63.85885965520283}, "891657363RR0001": {"name": "ST MARGUERITE BOURGEOYS CHAPEL", "designationCode": "C", "categoryCode": "38", "address": "P.O.BOX 17000 STN. FORCES", "city": "WINNIPEG", "province": "MB", "country": "CA", "postalCode": "R3J3Y5", "twitter": "None", "instagram": "None", "facebook": "None", "youtube": "None", "website": "None", "summary": "None", "logo": "None", "latitude": 49.88684400000005, "longitude": -97.23976099999993}, "128136918RR0012": {"name": "ST MARIA GORETTI PARISH", "designationCode": "C", "categoryCode": "38", "address": "BOX 119", "city": "LYNN LAKE", "province": "MB", "country": "CA", "postalCode": "R0B0W0", "twitter": "None", "instagram": "None", "facebook": "None", "youtube": "None", "website": "None", "summary": "None", "logo": "None", "latitude": 56.85254000000003, "longitude": -101.04571999999996}, "885613190RR0001": {"name": "ST MARK & ST GEORGE COPTIC ORTHODOX CHURCH", "designationCode": "C", "categoryCode": "39", "address": "2602 E COCHRANE BAY", "city": "REGINA", "province": "SK", "country": "CA", "postalCode": "S4V2C1", "twitter": "None", "instagram": "None", "facebook": "None", "youtube": "None", "website": "None", "summary": "None", "logo": "None", "latitude": 50.41974455288811, "longitude": -104.54568972771088}, "119186591RR0001": {"name": "ST MARK COPTIC ORTHODOX CHURCH INC", "designationCode": "C", "categoryCode": "39", "address": "1111 CHEVRIER BLVD", "city": "WINNIPEG", "province": "MB", "country": "CA", "postalCode": "R3T1Y2", "twitter": "None", "instagram": "None", "facebook": "None", "youtube": "None", "website": "None", "summary": "None", "logo": "None", "latitude": 49.830213925384896, "longitude": -97.15650051405134}, "131581084RR0001": {"name": "ST MARK THE EVANGELIST ORTHODOX CHURCH OF YORKTON INC", "designationCode": "C", "categoryCode": "39", "address": "160 BETTS AVENUE", "city": "YORKTON", "province": "SK", "country": "CA", "postalCode": "S3N1M5", "twitter": "None", "instagram": "None", "facebook": "None", "youtube": "None", "website": "None", "summary": "None", "logo": "None", "latitude": 51.216191413266785, "longitude": -102.4641773457208}, "119186971RR0002": {"name": "ST MARK'S", "designationCode": "C", "categoryCode": "30", "address": "280 BISHOPSGATE RD            RR 2", "city": "BURFORD", "province": "ON", "country": "CA", "postalCode": "N0E1A0", "twitter": "None", "instagram": "None", "facebook": "None", "youtube": "None", "website": "None", "summary": "None", "logo": "None", "latitude": 43.0867890300186, "longitude": -80.39880583477718}, "119186674RR0002": {"name": "ST MARK'S ANGLICAN CHURCH", "designationCode": "C", "categoryCode": "30", "address": "PO BOX 1168 STN MAIN", "city": "SAULT STE. MARIE", "province": "ON", "country": "CA", "postalCode": "P6A5N7", "twitter": "None", "instagram": "None", "facebook": "None", "youtube": "None", "website": "None", "summary": "None", "logo": "None", "latitude": 46.517883000000054, "longitude": -84.34795399999993}, "119186708RR0001": {"name": "ST MARK'S ANGLICAN CHURCH", "designationCode": "C", "categoryCode": "30", "address": "POST OFFICE BOX 6126", "city": "INNISFAIL", "province": "AB", "country": "CA", "postalCode": "T4G1S8", "twitter": "None", "instagram": "None", "facebook": "None", "youtube": "None", "website": "None", "summary": "None", "logo": "None", "latitude": 52.02740000000006, "longitude": -113.94886999999994}, "119238210RR0018": {"name": "ST MARK'S ANGLICAN CHURCH", "designationCode": "C", "categoryCode": "30", "address": "1029 103RD AVE", "city": "DAWSON CREEK", "province": "BC", "country": "CA", "postalCode": "V1G2G6", "twitter": "None", "instagram": "None", "facebook": "None", "youtube": "None", "website": "None", "summary": "None", "logo": "None", "latitude": 55.75805982373495, "longitude": -120.2312093766517}, "119186732RR0001": {"name": "ST MARK'S ANGLICAN CHURCH WOMEN", "designationCode": "C", "categoryCode": "49", "address": "P.O. BOX 128", "city": "OUTLOOK", "province": "SK", "country": "CA", "postalCode": "S0L2N0", "twitter": "None", "instagram": "None", "facebook": "None", "youtube": "None", "website": "None", "summary": "None", "logo": "None", "latitude": 51.5306764246367, "longitude": -107.23731016398128}, "119186740RR0002": {"name": "ST MARK'S BY THE LAKE", "designationCode": "C", "categoryCode": "30", "address": "150 ST MARKS RD", "city": "ST CLAIR BEACH", "province": "ON", "country": "CA", "postalCode": "N8N2H4", "twitter": "None", "instagram": "None", "facebook": "None", "youtube": "None", "website": "None", "summary": "None", "logo": "None"}, "119186757RR0001": {"name": "ST MARK'S CATHOLIC COMMUNITY OF THE DEAF", "designationCode": "C", "categoryCode": "38", "address": "38 LAMBERT CRES", "city": "ST ALBERT", "province": "AB", "country": "CA", "postalCode": "T8N1M2", "twitter": "None", "instagram": "None", "facebook": "None", "youtube": "None", "website": "None", "summary": "None", "logo": "None", "latitude": 53.642853, "longitude": -113.63708930200795}, "119186765RR0001": {"name": "ST MARK'S CHAPEL", "designationCode": "C", "categoryCode": "30", "address": "BISHOP'S UNIVERSITY", "city": "SHERBROOKE", "province": "QC", "country": "CA", "postalCode": "J1M1Z7", "twitter": "None", "instagram": "None", "facebook": "None", "youtube": "None", "website": "None", "summary": "None", "logo": "None", "latitude": 45.36623000000003, "longitude": -71.84309999999994}, "890042575RR0001": {"name": "ST MARK'S CHAPEL, CFB GREENWOOD", "designationCode": "C", "categoryCode": "39", "address": "14 WING                       PO BOX 5000 STN MAIN", "city": "GREENWOOD", "province": "NS", "country": "CA", "postalCode": "B0P1N0", "twitter": "None", "instagram": "None", "facebook": "None", "youtube": "None", "website": "None", "summary": "None", "logo": "None", "latitude": 44.996401052198884, "longitude": -64.92800245359393}, "119186732RR0002": {"name": "ST MARK'S CHURCH", "designationCode": "C", "categoryCode": "30", "address": "PO BOX 325", "city": "OUTLOOK", "province": "SK", "country": "CA", "postalCode": "S0L2N0", "twitter": "None", "instagram": "None", "facebook": "None", "youtube": "None", "website": "None", "summary": "None", "logo": "None", "latitude": 51.5306764246367, "longitude": -107.23731016398128}, "119186849RR0002": {"name": "ST MARK'S CHURCH", "designationCode": "C", "categoryCode": "30", "address": "1650 DECELLES", "city": "ST-LAURENT", "province": "QC", "country": "CA", "postalCode": "H4L2E6", "twitter": "None", "instagram": "None", "facebook": "None", "youtube": "None", "website": "None", "summary": "None", "logo": "None", "latitude": 45.51111881236665, "longitude": -73.682594807779}, "119187060RR0001": {"name": "ST MARK'S CHURCH", "designationCode": "C", "categoryCode": "30", "address": "BOX 784", "city": "MINNEDOSA", "province": "MB", "country": "CA", "postalCode": "R0J1E0", "twitter": "None", "instagram": "None", "facebook": "None", "youtube": "None", "website": "None", "summary": "None", "logo": "None", "latitude": 50.35204290882316, "longitude": -100.20187636199029}, "119229896RR0009": {"name": "ST MARK'S CHURCH", "designationCode": "C", "categoryCode": "30", "address": "203 LOGY BAY ROAD", "city": "ST.JOHN'S", "province": "NL", "country": "CA", "postalCode": "A1A3T7", "twitter": "None", "instagram": "None", "facebook": "None", "youtube": "None", "website": "None", "summary": "None", "logo": "None", "latitude": 47.597220773818336, "longitude": -52.69907532546569}, "129144549RR0005": {"name": "ST MARK'S CHURCH", "designationCode": "C", "categoryCode": "30", "address": "701 WARD STREET", "city": "NELSON", "province": "BC", "country": "CA", "postalCode": "V1L1T3", "twitter": "None", "instagram": "None", "facebook": "None", "youtube": "None", "website": "None", "summary": "None", "logo": "None", "latitude": 49.49044508531762, "longitude": -117.29252354801812}, "130558851RR0002": {"name": "ST MARK'S CHURCH", "designationCode": "C", "categoryCode": "30", "address": "155 MEMORIAL DR", "city": "BRANTFORD", "province": "ON", "country": "CA", "postalCode": "N3R5S5", "twitter": "None", "instagram": "None", "facebook": "None", "youtube": "None", "website": "None", "summary": "None", "logo": "None", "latitude": 43.177873094667746, "longitude": -80.2659495470024}, "130723224RR0002": {"name": "ST MARK'S CHURCH", "designationCode": "C", "categoryCode": "30", "address": "5 ST. MARK'S ST.", "city": "ROSSLYN", "province": "ON", "country": "CA", "postalCode": "P7K0N7", "twitter": "None", "instagram": "None", "facebook": "None", "youtube": "None", "website": "None", "summary": "None", "logo": "None", "latitude": 48.365038298355785, "longitude": -89.44062294080467}, "130922909RR0001": {"name": "ST MARK'S CHURCH", "designationCode": "C", "categoryCode": "30", "address": "51 KING STREET", "city": "PORT HOPE", "province": "ON", "country": "CA", "postalCode": "L1A2R6", "twitter": "None", "instagram": "None", "facebook": "None", "youtube": "None", "website": "None", "summary": "None", "logo": "None", "latitude": 43.95144317313131, "longitude": -78.29032932282213}, "141065995RR0001": {"name": "ST MARK'S CHURCH", "designationCode": "C", "categoryCode": "30", "address": "PO BOX 427", "city": "ANNAPOLIS ROYAL", "province": "NS", "country": "CA", "postalCode": "B0S1A0", "twitter": "None", "instagram": "None", "facebook": "None", "youtube": "None", "website": "None", "summary": "None", "logo": "None", "latitude": 44.74294007660574, "longitude": -65.518980048906}, "890705999RR0001": {"name": "ST MARK'S CHURCH", "designationCode": "C", "categoryCode": "30", "address": "BOX 427", "city": "ELKHORN", "province": "MB", "country": "CA", "postalCode": "R0M0N0", "twitter": "None", "instagram": "None", "facebook": "None", "youtube": "None", "website": "None", "summary": "None", "logo": "None", "latitude": 49.975280000000055, "longitude": -101.23601999999994}, "119186781RR0001": {"name": "ST MARK'S CHURCH, MCKENZIE", "designationCode": "C", "categoryCode": "38", "address": "290 GRENVILLE AVENUE", "city": "THUNDER BAY", "province": "ON", "country": "CA", "postalCode": "P7A2A9", "twitter": "None", "instagram": "None", "facebook": "None", "youtube": "None", "website": "None", "summary": "None", "logo": "None", "latitude": 48.460203419095166, "longitude": -89.18751853785581}, "119187177RR0001": {"name": "ST MARK'S DAY CARE CENTRE GREENLAND ROAD", "designationCode": "C", "categoryCode": "01", "address": "1 GREENLAND ROAD", "city": "DON MILLS", "province": "ON", "country": "CA", "postalCode": "M3C1N1", "twitter": "None", "instagram": "None", "facebook": "None", "youtube": "None", "website": "None", "summary": "None", "logo": "None", "latitude": 43.73379896973291, "longitude": -79.33969484165276}, "119187193RR0001": {"name": "ST MARK'S EVANGELICAL LUTHERAN CHURCH", "designationCode": "C", "categoryCode": "32", "address": "PO BOX 100", "city": "WELLESLEY", "province": "ON", "country": "CA", "postalCode": "N0B2T0", "twitter": "None", "instagram": "None", "facebook": "None", "youtube": "None", "website": "None", "summary": "None", "logo": "None", "latitude": 43.473507000000055, "longitude": -80.75355649999993}, "130018187RR0001": {"name": "ST MARK'S EVANGELICAL LUTHERAN CHURCH", "designationCode": "C", "categoryCode": "32", "address": "263 VICTORIA ST", "city": "KINGSTON", "province": "ON", "country": "CA", "postalCode": "K7L3Y9", "twitter": "None", "instagram": "None", "facebook": "None", "youtube": "None", "website": "None", "summary": "None", "logo": "None", "latitude": 44.22943861809682, "longitude": -76.5026447557276}, "890590995RR0001": {"name": "ST MARK'S EVANGELICAL LUTHERAN CHURCH", "designationCode": "C", "categoryCode": "32", "address": "R. R. 3", "city": "MAHONE BAY", "province": "NS", "country": "CA", "postalCode": "B0J2E0", "twitter": "None", "instagram": "None", "facebook": "None", "youtube": "None", "website": "None", "summary": "None", "logo": "None", "latitude": 44.51148352061088, "longitude": -64.56135539716495}, "890174394RR0001": {"name": "ST MARK'S HERITAGE FOUNDATION", "designationCode": "C", "categoryCode": "52", "address": "P.O. BOX 34", "city": "PORT HOPE", "province": "ON", "country": "CA", "postalCode": "L1A3V9", "twitter": "None", "instagram": "None", "facebook": "None", "youtube": "None", "website": "None", "summary": "None", "logo": "None", "latitude": 43.95010200000006, "longitude": -78.29160199999993}, "119187243RR0001": {"name": "ST MARK'S LUTHERAN CHURCH", "designationCode": "C", "categoryCode": "32", "address": "RR #3", "city": "CHESLEY", "province": "ON", "country": "CA", "postalCode": "N0G1L0", "twitter": "None", "instagram": "None", "facebook": "None", "youtube": "None", "website": "None", "summary": "None", "logo": "None", "latitude": 44.29784056179211, "longitude": -81.09302127531664}, "119187227RR0001": {"name": "ST MARK'S LUTHERAN CHURCH INC", "designationCode": "C", "categoryCode": "32", "address": "600 CAMBRIDGE ST", "city": "WINNIPEG", "province": "MB", "country": "CA", "postalCode": "R3M3G9", "twitter": "None", "instagram": "None", "facebook": "None", "youtube": "None", "website": "None", "summary": "None", "logo": "None", "latitude": 49.86256183596862, "longitude": -97.17490163708251}, "119187276RR0001": {"name": "ST MARK'S LUTHERN CHURCH", "designationCode": "C", "categoryCode": "32", "address": "PO BOX 85", "city": "MARKINCH", "province": "SK", "country": "CA", "postalCode": "S0G3J0", "twitter": "None", "instagram": "None", "facebook": "None", "youtube": "None", "website": "None", "summary": "None", "logo": "None", "latitude": 50.93338000000006, "longitude": -104.36778999999996}, "119187367RR0001": {"name": "ST MARK'S PRESBYTERIAN CHURCH", "designationCode": "C", "categoryCode": "37", "address": "PO BOX 2592 STN MAIN", "city": "ORILLIA", "province": "ON", "country": "CA", "postalCode": "L3V7C1", "twitter": "None", "instagram": "None", "facebook": "None", "youtube": "None", "website": "None", "summary": "None", "logo": "None", "latitude": 44.58482747647954, "longitude": -79.42452845126093}, "130375769RR0001": {"name": "ST MARK'S PRESBYTERIAN CHURCH", "designationCode": "C", "categoryCode": "37", "address": "1 GREENLAND ROAD", "city": "DON MILLS", "province": "ON", "country": "CA", "postalCode": "M3C1N1", "twitter": "None", "instagram": "None", "facebook": "None", "youtube": "None", "website": "None", "summary": "None", "logo": "None", "latitude": 43.73379896973291, "longitude": -79.33969484165276}, "891515173RR0001": {"name": "ST MARK'S PROTESTANT CHAPEL, CFB COLD LAKE", "designationCode": "A", "categoryCode": "39", "address": "WING CHAPLAIN (P)             BOX 4010", "city": "COLD LAKE", "province": "AB", "country": "CA", "postalCode": "T9M2C1", "twitter": "None", "instagram": "None", "facebook": "None", "youtube": "None", "website": "None", "summary": "None", "logo": "None", "latitude": 54.46502700000005, "longitude": -110.17379149999994}, "136042884RR0001": {"name": "ST MARK'S SYRIAN ORTHODOX CHURCH", "designationCode": "C", "categoryCode": "39", "address": "1202 DUNSMURE ROAD", "city": "HAMILTON", "province": "ON", "country": "CA", "postalCode": "L8H1L4", "twitter": "None", "instagram": "None", "facebook": "None", "youtube": "None", "website": "None", "summary": "None", "logo": "None", "latitude": 43.23737089312725, "longitude": -79.78920060006342}, "119187474RR0001": {"name": "ST MARK'S UNITED CHURCH", "designationCode": "C", "categoryCode": "44", "address": "201 CENTRE ST S", "city": "WHITBY", "province": "ON", "country": "CA", "postalCode": "L1N4V7", "twitter": "None", "instagram": "None", "facebook": "None", "youtube": "None", "website": "None", "summary": "None", "logo": "None", "latitude": 43.877858143776294, "longitude": -78.9440588460675}, "119187482RR0001": {"name": "ST MARK'S UNITED CHURCH", "designationCode": "C", "categoryCode": "44", "address": "1 LYNNDALE DRIVE", "city": "DUNDAS", "province": "ON", "country": "CA", "postalCode": "L9H3L4", "twitter": "None", "instagram": "None", "facebook": "None", "youtube": "None", "website": "None", "summary": "None", "logo": "None", "latitude": 43.25931724897559, "longitude": -79.96887631724273}, "123030645RR0001": {"name": "ST MARK'S UNITED CHURCH", "designationCode": "C", "categoryCode": "44", "address": "26845 HIGHWAY 28 S.           RR3", "city": "BANCROFT", "province": "ON", "country": "CA", "postalCode": "K0L1C0", "twitter": "None", "instagram": "None", "facebook": "None", "youtube": "None", "website": "None", "summary": "None", "logo": "None", "latitude": 44.95426930923131, "longitude": -78.01879373763981}, "132004045RR0001": {"name": "ST MARK'S UNITED CHURCH", "designationCode": "C", "categoryCode": "44", "address": "115 ORTON PARK ROAD", "city": "SCARBOROUGH", "province": "ON", "country": "CA", "postalCode": "M1G3G9", "twitter": "None", "instagram": "None", "facebook": "None", "youtube": "None", "website": "None", "summary": "None", "logo": "None", "latitude": 43.77019980850015, "longitude": -79.20818010182377}, "132610080RR0001": {"name": "ST MARK'S UNITED CHURCH", "designationCode": "C", "categoryCode": "44", "address": "45 WALFORD ROAD", "city": "SUDBURY", "province": "ON", "country": "CA", "postalCode": "P3E2H2", "twitter": "None", "instagram": "None", "facebook": "None", "youtube": "None", "website": "None", "summary": "None", "logo": "None", "latitude": 46.46394753563413, "longitude": -81.00323413780367}, "119187417RR0001": {"name": "ST MARK'S UNITED CHURCH, CANTERBURY", "designationCode": "C", "categoryCode": "44", "address": "1 PINE LANE", "city": "SKIFF LAKE", "province": "NB", "country": "CA", "postalCode": "E6H2L4", "twitter": "None", "instagram": "None", "facebook": "None", "youtube": "None", "website": "None", "summary": "None", "logo": "None", "latitude": 45.83155631083742, "longitude": -67.52921518518146}, "889250130RR0001": {"name": "ST MARKS ALL-GRADE SCHOOL SCHOLARSHIP TRUST FOUNDATION", "designationCode": "C", "categoryCode": "21", "address": "MAIN ROAD                     GENERAL DELIVERY", "city": "OPEN HALL", "province": "NL", "country": "CA", "postalCode": "A0C2B0", "twitter": "None", "instagram": "None", "facebook": "None", "youtube": "None", "website": "None", "summary": "None", "logo": "None", "latitude": 48.54883200000006, "longitude": -53.483520499999926}, "889556668RR0001": {"name": "ST MARKS PRESBYTERIAN CHURCH", "designationCode": "C", "categoryCode": "37", "address": "7366 DARCEL AVE", "city": "MISSISSAUGA", "province": "ON", "country": "CA", "postalCode": "L4T3W6", "twitter": "None", "instagram": "None", "facebook": "None", "youtube": "None", "website": "None", "summary": "None", "logo": "None", "latitude": 43.723990299469115, "longitude": -79.63752371414954}, "891470981RR0001": {"name": "ST MARTHA'S REGIONAL HOSPITAL FOUNDATION", "designationCode": "A", "categoryCode": "13", "address": "25 BAY STREET", "city": "ANTIGONISH", "province": "NS", "country": "CA", "postalCode": "B2G2G5", "twitter": "None", "instagram": "None", "facebook": "None", "youtube": "None", "website": "None", "summary": "None", "logo": "None", "latitude": 45.62749807966386, "longitude": -61.98038782646945}, "128967353RR0030": {"name": "ST MARTIN DE PORRES' PARISH", "designationCode": "C", "categoryCode": "38", "address": "3891 OLD RICHMOND RD", "city": "OTTAWA", "province": "ON", "country": "CA", "postalCode": "K2H5C1", "twitter": "None", "instagram": "None", "facebook": "None", "youtube": "None", "website": "None", "summary": "None", "logo": "None", "latitude": 45.31992830114255, "longitude": -75.8266566569909}, "119264174RR0005": {"name": "ST MARTIN OF TOURS PARISH", "designationCode": "C", "categoryCode": "38", "address": "BOX 428", "city": "TERRACE BAY", "province": "ON", "country": "CA", "postalCode": "P0T2W0", "twitter": "None", "instagram": "None", "facebook": "None", "youtube": "None", "website": "None", "summary": "None", "logo": "None", "latitude": 48.78334000000007, "longitude": -87.09789999999998}, "134448182RR0001": {"name": "ST MARTIN-IN-THE-FIELDS ANGLICAN CHURCH", "designationCode": "C", "categoryCode": "30", "address": "489 PINETREE DR.", "city": "LONDON", "province": "ON", "country": "CA", "postalCode": "N6H3M9", "twitter": "None", "instagram": "None", "facebook": "None", "youtube": "None", "website": "None", "summary": "None", "logo": "None", "latitude": 42.971473864014, "longitude": -81.30299275168824}, "119238210RR0015": {"name": "ST MARTIN'S ANGLICAN CHURCH", "designationCode": "C", "categoryCode": "30", "address": "8732 113A AVE", "city": "FORT ST. JOHN", "province": "BC", "country": "CA", "postalCode": "V1J0C4", "twitter": "None", "instagram": "None", "facebook": "None", "youtube": "None", "website": "None", "summary": "None", "logo": "None", "latitude": 56.25917151154118, "longitude": -120.82465269317328}, "119187730RR0001": {"name": "ST MARTIN'S CHURCH", "designationCode": "C", "categoryCode": "30", "address": "RR7, COMP 80, SITE 707", "city": "SASKATOON", "province": "SK", "country": "CA", "postalCode": "S7K1N2", "twitter": "None", "instagram": "None", "facebook": "None", "youtube": "None", "website": "None", "summary": "None", "logo": "None", "latitude": 52.13049000000005, "longitude": -106.65926449999994}, "119187656RR0001": {"name": "ST MARTIN'S CHURCH, BAY RIDGES", "designationCode": "C", "categoryCode": "30", "address": "1203 SAINT MARTIN'S DRIVE", "city": "PICKERING", "province": "ON", "country": "CA", "postalCode": "L1W1M9", "twitter": "None", "instagram": "None", "facebook": "None", "youtube": "None", "website": "None", "summary": "None", "logo": "None", "latitude": 43.826279524995115, "longitude": -79.09166159537241}, "119187797RR0001": {"name": "ST MARTIN'S PARISH", "designationCode": "C", "categoryCode": "38", "address": "BOX 26", "city": "LOW", "province": "QC", "country": "CA", "postalCode": "J0X2C0", "twitter": "None", "instagram": "None", "facebook": "None", "youtube": "None", "website": "None", "summary": "None", "logo": "None", "latitude": 45.828421116826206, "longitude": -76.15297074979803}, "119187839RR0001": {"name": "ST MARTIN'S PASTORAL CHARGE", "designationCode": "C", "categoryCode": "44", "address": "10 LOUGHERY RD", "city": "FAIRFIELD", "province": "NB", "country": "CA", "postalCode": "E5R1A2", "twitter": "None", "instagram": "None", "facebook": "None", "youtube": "None", "website": "None", "summary": "None", "logo": "None", "latitude": 45.32977811799785, "longitude": -65.69571242987412}, "130637812RR0001": {"name": "ST MARTIN'S UNITED CHURCH", "designationCode": "C", "categoryCode": "44", "address": "2617 CLARENCE AVE S", "city": "SASKATOON", "province": "SK", "country": "CA", "postalCode": "S7J1M5", "twitter": "None", "instagram": "None", "facebook": "None", "youtube": "None", "website": "None", "summary": "None", "logo": "None", "latitude": 52.095924785734894, "longitude": -106.64648885605082}, "129930376RR0001": {"name": "ST MARTIN'S-IN-THE-WOOD, ANGLICAN CHURCH HOME INC", "designationCode": "C", "categoryCode": "01", "address": "16 GLASBY STREET              P.O. BOX 18", "city": "SHEDIAC CAPE", "province": "NB", "country": "CA", "postalCode": "E4P3B6", "twitter": "None", "instagram": "None", "facebook": "None", "youtube": "None", "website": "None", "summary": "None", "logo": "None", "latitude": 46.22981663490374, "longitude": -64.56919167540029}, "866722150RR0001": {"name": "ST MARTINS CONCERNED CITIZENS GROUP", "designationCode": "C", "categoryCode": "59", "address": "12 MOSHER HILL", "city": "ST. MARTINS", "province": "NB", "country": "CA", "postalCode": "E5R1G9", "twitter": "None", "instagram": "None", "facebook": "None", "youtube": "None", "website": "None", "summary": "None", "logo": "None", "latitude": 45.34313618737356, "longitude": -65.55729608491555}, "892553561RR0001": {"name": "ST MARY AND ST MOSES COPTIC ORTHODOX CHURCH", "designationCode": "C", "categoryCode": "39", "address": "1334 BENJAMIN AVENUE", "city": "WINDSOR", "province": "ON", "country": "CA", "postalCode": "N8X4M9", "twitter": "None", "instagram": "None", "facebook": "None", "youtube": "None", "website": "None", "summary": "None", "logo": "None", "latitude": 42.30845147930168, "longitude": -83.0140963526555}, "887443398RR0001": {"name": "ST MARY COPTIC ORTHODOX CHURCH-OTTAWA", "designationCode": "C", "categoryCode": "39", "address": "2 CANFIELD RD", "city": "NEPEAN", "province": "ON", "country": "CA", "postalCode": "K2H5T1", "twitter": "None", "instagram": "None", "facebook": "None", "youtube": "None", "website": "None", "summary": "None", "logo": "None", "latitude": 45.32986214458434, "longitude": -75.78192497931221}, "119187938RR0001": {"name": "ST MARY MAGDALENE ANGLICAN CHURCH", "designationCode": "C", "categoryCode": "30", "address": "206 RTE MACKAY", "city": "CASCAPEDIA-SAINT-JULES", "province": "QC", "country": "CA", "postalCode": "G0C1T0", "twitter": "None", "instagram": "None", "facebook": "None", "youtube": "None", "website": "None", "summary": "None", "logo": "None", "latitude": 48.219206563419704, "longitude": -65.9025120693923}, "119208031RR0008": {"name": "ST MARY MAGDALENE ANGLICAN CHURCH", "designationCode": "C", "categoryCode": "30", "address": "BOX 194", "city": "FORT NELSON", "province": "BC", "country": "CA", "postalCode": "V0C1R0", "twitter": "None", "instagram": "None", "facebook": "None", "youtube": "None", "website": "None", "summary": "None", "logo": "None", "latitude": 58.80501000000004, "longitude": -122.70459999999997}, "129930228RR0029": {"name": "ST MARY OF THE ANGELS", "designationCode": "C", "categoryCode": "38", "address": "44 MARIAN DR", "city": "PERTH ANDOVER", "province": "NB", "country": "CA", "postalCode": "E7H3A7", "twitter": "None", "instagram": "None", "facebook": "None", "youtube": "None", "website": "None", "summary": "None", "logo": "None", "latitude": 46.75970467884118, "longitude": -67.70267337910741}, "872920160RR0001": {"name": "ST MARY OF THE CHAIN ASSOCIATION CANADA (ASSOCIAZIONE MADONN", "designationCode": "C", "categoryCode": "49", "address": "P.O. BOX 1104", "city": "TOTTENHAM", "province": "ON", "country": "CA", "postalCode": "L0G1W0", "twitter": "None", "instagram": "None", "facebook": "None", "youtube": "None", "website": "None", "summary": "None", "logo": "None", "latitude": 44.101466326769575, "longitude": -79.82930921542986}, "130534092RR0001": {"name": "ST MARY THE PROTECTRESS UKRAINIAN ORTHODOX MILLENNIUM VILLA INC", "designationCode": "C", "categoryCode": "09", "address": "800 BURROWS AVE", "city": "WINNIPEG", "province": "MB", "country": "CA", "postalCode": "R2X3A9", "twitter": "None", "instagram": "None", "facebook": "None", "youtube": "None", "website": "None", "summary": "None", "logo": "None", "latitude": 49.922525107940636, "longitude": -97.1558407177562}, "130721863RR0001": {"name": "ST MARY-VIRGIN ANGLICAN CHURCH", "designationCode": "C", "categoryCode": "30", "address": "302 JASPER STREET", "city": "MAPLE CREEK", "province": "SK", "country": "CA", "postalCode": "S0N1N0", "twitter": "None", "instagram": "None", "facebook": "None", "youtube": "None", "website": "None", "summary": "None", "logo": "None", "latitude": 49.90633064598509, "longitude": -109.47970783449851}, "892344664RR0001": {"name": "ST MARY'S ACADEMY FOUNDATION INC.", "designationCode": "A", "categoryCode": "23", "address": "550 WELLINGTON CRESCENT", "city": "WINNIPEG", "province": "MB", "country": "CA", "postalCode": "R3M0C1", "twitter": "None", "instagram": "None", "facebook": "None", "youtube": "None", "website": "None", "summary": "None", "logo": "None", "latitude": 49.875972052400066, "longitude": -97.1619229021366}, "119188027RR0001": {"name": "ST MARY'S ACADEMY INC.", "designationCode": "C", "categoryCode": "20", "address": "550 WELLINGTON CRES", "city": "WINNIPEG", "province": "MB", "country": "CA", "postalCode": "R3M0C1", "twitter": "None", "instagram": "None", "facebook": "None", "youtube": "None", "website": "None", "summary": "None", "logo": "None", "latitude": 49.875972052400066, "longitude": -97.1619229021366}, "108030370RR0001": {"name": "ST MARY'S AND DISTRICT FIREMAN'S ASSOCIATION", "designationCode": "C", "categoryCode": "59", "address": "RR 1", "city": "ASPEN", "province": "NS", "country": "CA", "postalCode": "B0H1E0", "twitter": "None", "instagram": "None", "facebook": "None", "youtube": "None", "website": "None", "summary": "None", "logo": "None", "latitude": 45.29959249125825, "longitude": -62.05024300874177}, "886404193RR0001": {"name": "ST MARY'S ANGLICAN CATHOLIC CHURCH, CHAPLEAU, ONTARIO", "designationCode": "C", "categoryCode": "30", "address": "BOX 1406 78 DEVONSHIRE", "city": "CHAPLEAU", "province": "ON", "country": "CA", "postalCode": "P0M1K0", "twitter": "None", "instagram": "None", "facebook": "None", "youtube": "None", "website": "None", "summary": "None", "logo": "None", "latitude": 47.84703095643137, "longitude": -83.39560761861642}, "119188134RR0001": {"name": "ST MARY'S ANGLICAN CHURCH", "designationCode": "C", "categoryCode": "30", "address": "3337 - 15TH AVENUE", "city": "REGINA", "province": "SK", "country": "CA", "postalCode": "S4T1T3", "twitter": "None", "instagram": "None", "facebook": "None", "youtube": "None", "website": "None", "summary": "None", "logo": "None", "latitude": 50.442370513994035, "longitude": -104.62929266472388}, "119188167RR0002": {"name": "ST MARY'S ANGLICAN CHURCH", "designationCode": "C", "categoryCode": "30", "address": "5042 - 48 AVE", "city": "VEGREVILLE", "province": "AB", "country": "CA", "postalCode": "T9C1L8", "twitter": "None", "instagram": "None", "facebook": "None", "youtube": "None", "website": "None", "summary": "None", "logo": "None", "latitude": 53.494162720526184, "longitude": -112.05672954466515}, "119188209RR0001": {"name": "ST MARY'S ANGLICAN CHURCH", "designationCode": "C", "categoryCode": "30", "address": "PO BOX 128", "city": "MIDWAY", "province": "BC", "country": "CA", "postalCode": "V0H1M0", "twitter": "None", "instagram": "None", "facebook": "None", "youtube": "None", "website": "None", "summary": "None", "logo": "None", "latitude": 49.10113921679708, "longitude": -118.67616064840723}, "119188498RR0001": {"name": "ST MARY'S ANGLICAN CHURCH", "designationCode": "C", "categoryCode": "30", "address": "10030 YONGE ST", "city": "RICHMOND HILL", "province": "ON", "country": "CA", "postalCode": "L4C1T8", "twitter": "None", "instagram": "None", "facebook": "None", "youtube": "None", "website": "None", "summary": "None", "logo": "None", "latitude": 43.872193719660814, "longitude": -79.43745632321439}, "119188688RR0002": {"name": "ST MARY'S ANGLICAN CHURCH", "designationCode": "C", "categoryCode": "30", "address": "PO BOX 218", "city": "POWASSAN", "province": "ON", "country": "CA", "postalCode": "P0H1Z0", "twitter": "None", "instagram": "None", "facebook": "None", "youtube": "None", "website": "None", "summary": "None", "logo": "None", "latitude": 46.08195000000006, "longitude": -79.36405999999994}, "119188761RR0002": {"name": "ST MARY'S ANGLICAN CHURCH", "designationCode": "C", "categoryCode": "30", "address": "3830 ROBLIN BLVD", "city": "WINNIPEG", "province": "MB", "country": "CA", "postalCode": "R3R0E4", "twitter": "None", "instagram": "None", "facebook": "None", "youtube": "None", "website": "None", "summary": "None", "logo": "None", "latitude": 49.86783452842077, "longitude": -97.26457055813958}, "129144549RR0028": {"name": "ST MARY'S ANGLICAN CHURCH", "designationCode": "C", "categoryCode": "30", "address": "2710 EAST KELOWNA ROAD", "city": "KELOWNA", "province": "BC", "country": "CA", "postalCode": "V1W4A6", "twitter": "None", "instagram": "None", "facebook": "None", "youtube": "None", "website": "None", "summary": "None", "logo": "None", "latitude": 49.86040080904843, "longitude": -119.42374609662963}, "889000162RR0001": {"name": "ST MARY'S ANGLICAN CHURCH ASPDIN", "designationCode": "C", "categoryCode": "30", "address": "4560 ASPDIN RD., RR#3", "city": "UTTERSON", "province": "ON", "country": "CA", "postalCode": "P0B1M0", "twitter": "None", "instagram": "None", "facebook": "None", "youtube": "None", "website": "None", "summary": "None", "logo": "None", "latitude": 45.281395055945616, "longitude": -79.48958689860984}, "119188258RR0001": {"name": "ST MARY'S BAY UNITED BAPTIST CHURCH", "designationCode": "C", "categoryCode": "31", "address": "8304 HWY #1                   PO BOX 57", "city": "BARTON", "province": "NS", "country": "CA", "postalCode": "B0W1H0", "twitter": "None", "instagram": "None", "facebook": "None", "youtube": "None", "website": "None", "summary": "None", "logo": "None", "latitude": 44.541034127221764, "longitude": -65.86946355687513}, "888514247RR0001": {"name": "ST MARY'S CATHEDRAL", "designationCode": "C", "categoryCode": "38", "address": "353 ST MARY AVE", "city": "WINNIPEG", "province": "MB", "country": "CA", "postalCode": "R3C0M8", "twitter": "None", "instagram": "None", "facebook": "None", "youtube": "None", "website": "None", "summary": "None", "logo": "None", "latitude": 49.89029322344037, "longitude": -97.14352023203871}, "107909939RR0089": {"name": "ST MARY'S CHALDEAN CATHOLIC PARISH", "designationCode": "C", "categoryCode": "38", "address": "5800 - 40 KING ST W", "city": "TORONTO", "province": "ON", "country": "CA", "postalCode": "M5H3S1", "twitter": "None", "instagram": "None", "facebook": "None", "youtube": "None", "website": "None", "summary": "None", "logo": "None", "latitude": 43.64813467004466, "longitude": -79.38254906728791}, "119188563RR0002": {"name": "ST MARY'S CHURCH", "designationCode": "C", "categoryCode": "30", "address": "495284 GREY RD. 2. RR#1", "city": "RAVENNA", "province": "ON", "country": "CA", "postalCode": "N0H2E0", "twitter": "None", "instagram": "None", "facebook": "None", "youtube": "None", "website": "None", "summary": "None", "logo": "None", "latitude": 44.45910600000006, "longitude": -80.44973449999993}, "119188662RR0002": {"name": "ST MARY'S CHURCH", "designationCode": "C", "categoryCode": "30", "address": "1983 ST. MARY'S GATE", "city": "WALKERVILLE", "province": "ON", "country": "CA", "postalCode": "N8Y1J8", "twitter": "None", "instagram": "None", "facebook": "None", "youtube": "None", "website": "None", "summary": "None", "logo": "None", "latitude": 42.32048727168353, "longitude": -83.01015422395996}, "119188746RR0002": {"name": "ST MARY'S CHURCH", "designationCode": "C", "categoryCode": "30", "address": "BOX 313", "city": "MANITOU", "province": "MB", "country": "CA", "postalCode": "R0G1G0", "twitter": "None", "instagram": "None", "facebook": "None", "youtube": "None", "website": "None", "summary": "None", "logo": "None", "latitude": 49.23673000000008, "longitude": -98.53495999999996}, "119188779RR0001": {"name": "ST MARY'S CHURCH", "designationCode": "C", "categoryCode": "38", "address": "BOX 44", "city": "QUINTON", "province": "SK", "country": "CA", "postalCode": "S0A3G0", "twitter": "None", "instagram": "None", "facebook": "None", "youtube": "None", "website": "None", "summary": "None", "logo": "None", "latitude": 51.387110000000064, "longitude": -104.40623999999997}, "119188795RR0001": {"name": "ST MARY'S CHURCH", "designationCode": "C", "categoryCode": "38", "address": "BOX 1221", "city": "WADENA", "province": "SK", "country": "CA", "postalCode": "S0A4J0", "twitter": "None", "instagram": "None", "facebook": "None", "youtube": "None", "website": "None", "summary": "None", "logo": "None", "latitude": 51.94407000000007, "longitude": -103.79973999999999}}