{"836834523RR0001": {"name": "LIVING STONES CHURCH INTERNATIONAL", "designationCode": "C", "categoryCode": "39", "address": "11 HEATHSIDE CRESCENT", "city": "HALIFAX", "province": "NS", "country": "CA", "postalCode": "B3S1G3", "twitter": "None", "instagram": "None", "facebook": "None", "youtube": "None", "website": "None", "summary": "None", "logo": "None", "latitude": 44.67351652510255, "longitude": -63.67482352553522}, "107784308RR0001": {"name": "LIVING SYSTEMS: FAMILY SYSTEMS COUNSELLING, EDUCATION, TRAINING AND RESEARCH SOCIETY", "designationCode": "C", "categoryCode": "09", "address": "209-1500 MARINE DRIVE", "city": "NORTH VANCOUVER", "province": "BC", "country": "CA", "postalCode": "V7P1T7", "twitter": "None", "instagram": "None", "facebook": "None", "youtube": "None", "website": "None", "summary": "None", "logo": "None", "latitude": 49.323955471579254, "longitude": -123.1151397485429}, "119118867RR0001": {"name": "LIVING TRUTH BAPTIST CHURCH", "designationCode": "C", "categoryCode": "31", "address": "185-9040 BLUNDELL RD          BOX 165", "city": "RICHMOND", "province": "BC", "country": "CA", "postalCode": "V6Y1K3", "twitter": "None", "instagram": "None", "facebook": "None", "youtube": "None", "website": "None", "summary": "None", "logo": "None", "latitude": 49.15541065871117, "longitude": -123.12476270458764}, "845665272RR0001": {"name": "LIVING WATER ANGLICAN FELLOWSHIP", "designationCode": "A", "categoryCode": "43", "address": "BOX 1764", "city": "ATHABASCA", "province": "AB", "country": "CA", "postalCode": "T9S2B4", "twitter": "None", "instagram": "None", "facebook": "None", "youtube": "None", "website": "None", "summary": "None", "logo": "None", "latitude": 54.721284000000054, "longitude": -113.28321049999994}, "119021954RR0001": {"name": "LIVING WATER APOSTOLIC FELLOWSHIP INC.", "designationCode": "C", "categoryCode": "39", "address": "BOX 1843", "city": "THE PAS", "province": "MB", "country": "CA", "postalCode": "R9A1L6", "twitter": "None", "instagram": "None", "facebook": "None", "youtube": "None", "website": "None", "summary": "None", "logo": "None", "latitude": 53.81342700000006, "longitude": -101.25038149999993}, "868452814RR0001": {"name": "LIVING WATER ARTS FOUNDATION", "designationCode": "C", "categoryCode": "22", "address": "BOX 100", "city": "DERWENT", "province": "AB", "country": "CA", "postalCode": "T0B1C0", "twitter": "None", "instagram": "None", "facebook": "None", "youtube": "None", "website": "None", "summary": "None", "logo": "None", "latitude": 53.65619000000004, "longitude": -110.96494999999999}, "107631228RR0001": {"name": "LIVING WATER ASSEMBLY", "designationCode": "C", "categoryCode": "36", "address": "778 OSSINGTON AVE", "city": "TORONTO", "province": "ON", "country": "CA", "postalCode": "M6G3V1", "twitter": "None", "instagram": "None", "facebook": "None", "youtube": "None", "website": "None", "summary": "None", "logo": "None", "latitude": 43.66312262891686, "longitude": -79.42618566737826}, "888757549RR0001": {"name": "LIVING WATER BAPTIST CHURCH", "designationCode": "C", "categoryCode": "31", "address": "31 MILTS ROAD", "city": "MOSER RIVER", "province": "NS", "country": "CA", "postalCode": "B0J2K0", "twitter": "None", "instagram": "None", "facebook": "None", "youtube": "None", "website": "None", "summary": "None", "logo": "None", "latitude": 44.90932812239601, "longitude": -62.308591736482114}, "887582112RR0001": {"name": "LIVING WATER CHINESE CHRISTIAN CHURCH", "designationCode": "C", "categoryCode": "39", "address": "28 - 3088 AIREY DRIVE", "city": "RICHMOND", "province": "BC", "country": "CA", "postalCode": "V6X4A3", "twitter": "None", "instagram": "None", "facebook": "None", "youtube": "None", "website": "None", "summary": "None", "logo": "None", "latitude": 49.19150112458052, "longitude": -123.10623166025799}, "891182842RR0001": {"name": "LIVING WATER CHRISTIAN CHURCH MUSKOKA", "designationCode": "C", "categoryCode": "39", "address": "2892 MUSKOKA ROAD 118W        RR1", "city": "PORT CARLING", "province": "ON", "country": "CA", "postalCode": "P0B1J0", "twitter": "None", "instagram": "None", "facebook": "None", "youtube": "None", "website": "None", "summary": "None", "logo": "None", "latitude": 45.103850469696106, "longitude": -79.57211463419063}, "874844517RR0001": {"name": "LIVING WATER CHRISTIAN FELLOWSHIP", "designationCode": "C", "categoryCode": "39", "address": "BOX 39", "city": "BLYTH", "province": "ON", "country": "CA", "postalCode": "N0M1H0", "twitter": "None", "instagram": "None", "facebook": "None", "youtube": "None", "website": "None", "summary": "None", "logo": "None", "latitude": 43.77531219522119, "longitude": -81.5424072516016}, "861417715RR0001": {"name": "LIVING WATER CHRISTIAN FELLOWSHIP TORONTO", "designationCode": "C", "categoryCode": "46", "address": "168 JAMES RATCLIFF AVE", "city": "STOUFFVILLE", "province": "ON", "country": "CA", "postalCode": "L4A0L6", "twitter": "None", "instagram": "None", "facebook": "None", "youtube": "None", "website": "None", "summary": "None", "logo": "None", "latitude": 43.96284423258697, "longitude": -79.24024601237791}, "107631251RR0001": {"name": "LIVING WATER COMMUNITY CHRISTIAN FELLOWSHIP", "designationCode": "C", "categoryCode": "47", "address": "45 HINCKS STREET", "city": "NEW HAMBURG", "province": "ON", "country": "CA", "postalCode": "N3A2A2", "twitter": "None", "instagram": "None", "facebook": "None", "youtube": "None", "website": "None", "summary": "None", "logo": "None", "latitude": 43.38372486542763, "longitude": -80.71540257625989}, "870959632RR0001": {"name": "LIVING WATER COMMUNITY CHURCH", "designationCode": "C", "categoryCode": "36", "address": "PO BOX 341", "city": "UXBRIDGE", "province": "ON", "country": "CA", "postalCode": "L9P1M8", "twitter": "None", "instagram": "None", "facebook": "None", "youtube": "None", "website": "None", "summary": "None", "logo": "None", "latitude": 44.10619800000005, "longitude": -79.12382299999993}, "896227576RR0001": {"name": "LIVING WATER COUNSELLING CENTRE", "designationCode": "C", "categoryCode": "59", "address": "165 EAST BEAVER CREEK ROAD    UNIT 9", "city": "RICHMOND HILL", "province": "ON", "country": "CA", "postalCode": "L4B2N2", "twitter": "None", "instagram": "None", "facebook": "None", "youtube": "None", "website": "None", "summary": "None", "logo": "None", "latitude": 43.84855619148871, "longitude": -79.3778030987841}, "107396905RR0015": {"name": "LIVING WATER FOURSQUARE GOSPEL CHURCH", "designationCode": "C", "categoryCode": "39", "address": "PO BOX 1359", "city": "PRINCETON", "province": "BC", "country": "CA", "postalCode": "V0X1W0", "twitter": "None", "instagram": "None", "facebook": "None", "youtube": "None", "website": "None", "summary": "None", "logo": "None", "latitude": 49.458687000000054, "longitude": -120.50591299999994}, "888474665RR0001": {"name": "LIVING WATER MINISTRIES INC", "designationCode": "C", "categoryCode": "39", "address": "104 STILES STREET", "city": "WOODSTOCK", "province": "NB", "country": "CA", "postalCode": "E7M2T2", "twitter": "None", "instagram": "None", "facebook": "None", "youtube": "None", "website": "None", "summary": "None", "logo": "None", "latitude": 46.16528659157386, "longitude": -67.57534726270114}, "893009779RR0001": {"name": "LIVING WATER REFORMED CHURCH", "designationCode": "C", "categoryCode": "39", "address": "1569 COLBORNE ST .E.", "city": "BRANTFORD", "province": "ON", "country": "CA", "postalCode": "N3T5L4", "twitter": "None", "instagram": "None", "facebook": "None", "youtube": "None", "website": "None", "summary": "None", "logo": "None", "latitude": 43.15879879450706, "longitude": -80.15186952169833}, "853758670RR0001": {"name": "LIVING WATER, HEALING STREAMS", "designationCode": "C", "categoryCode": "30", "address": "673 CROOKED SIDE RD", "city": "ASHTON", "province": "ON", "country": "CA", "postalCode": "K0A1B0", "twitter": "None", "instagram": "None", "facebook": "None", "youtube": "None", "website": "None", "summary": "None", "logo": "None", "latitude": 45.11415230498039, "longitude": -76.00489702420755}, "888678042RR0001": {"name": "LIVING WATERS CAMP", "designationCode": "C", "categoryCode": "49", "address": "1303 JACKSON AVE", "city": "SASKATOON", "province": "SK", "country": "CA", "postalCode": "S7H2M9", "twitter": "None", "instagram": "None", "facebook": "None", "youtube": "None", "website": "None", "summary": "None", "logo": "None", "latitude": 52.112934062178944, "longitude": -106.63378772058442}, "133264424RR0001": {"name": "LIVING WATERS CHRISTIAN ACADEMY", "designationCode": "C", "categoryCode": "20", "address": "5 GROVE DRIVE WEST", "city": "SPRUCE GROVE", "province": "AB", "country": "CA", "postalCode": "T7X3X8", "twitter": "None", "instagram": "None", "facebook": "None", "youtube": "None", "website": "None", "summary": "None", "logo": "None", "latitude": 53.559197867952705, "longitude": -113.93635064725275}, "137692869RR0001": {"name": "LIVING WATERS CHRISTIAN FELLOWSHIP", "designationCode": "C", "categoryCode": "39", "address": "BOX 27", "city": "OKLA", "province": "SK", "country": "CA", "postalCode": "S0A2X0", "twitter": "None", "instagram": "None", "facebook": "None", "youtube": "None", "website": "None", "summary": "None", "logo": "None", "latitude": 51.99816300000006, "longitude": -103.22328049999993}, "826736043RR0001": {"name": "LIVING WATERS CHURCH - FORT LANGLEY", "designationCode": "C", "categoryCode": "36", "address": "9095 GLOVER ROAD", "city": "FORT LANGLEY", "province": "BC", "country": "CA", "postalCode": "V1M2R4", "twitter": "None", "instagram": "None", "facebook": "None", "youtube": "None", "website": "None", "summary": "None", "logo": "None", "latitude": 49.16763963480256, "longitude": -122.58083289895468}, "137723706RR0001": {"name": "LIVING WATERS COMMUNITY CHURCH", "designationCode": "C", "categoryCode": "39", "address": "180 LAKESHORE DR NW           P O BOX 308", "city": "SALMON ARM", "province": "BC", "country": "CA", "postalCode": "V1E4N5", "twitter": "None", "instagram": "None", "facebook": "None", "youtube": "None", "website": "None", "summary": "None", "logo": "None", "latitude": 50.700743582136916, "longitude": -119.28845542467317}, "107631319RR0001": {"name": "LIVING WATERS FAITH FELLOWSHIP", "designationCode": "C", "categoryCode": "39", "address": "2329 SIXTH AVENUE", "city": "CASTLEGAR", "province": "BC", "country": "CA", "postalCode": "V1N2W1", "twitter": "None", "instagram": "None", "facebook": "None", "youtube": "None", "website": "None", "summary": "None", "logo": "None", "latitude": 49.287319199382196, "longitude": -117.64898134848188}, "118810910RR0001": {"name": "LIVING WATERS FELLOWSHIP FCA", "designationCode": "C", "categoryCode": "39", "address": "2222 REGENT ROAD", "city": "BLACK CREEK", "province": "BC", "country": "CA", "postalCode": "V9J1A1", "twitter": "None", "instagram": "None", "facebook": "None", "youtube": "None", "website": "None", "summary": "None", "logo": "None", "latitude": 49.86510693676273, "longitude": -125.13053787004927}, "847200961RR0001": {"name": "LIVING WATERS INTERNATIONAL CHRISTIAN CHURCH", "designationCode": "C", "categoryCode": "39", "address": "11 HOCKLEY AVE", "city": "BOWMANVILLE", "province": "ON", "country": "CA", "postalCode": "L1C5P2", "twitter": "None", "instagram": "None", "facebook": "None", "youtube": "None", "website": "None", "summary": "None", "logo": "None", "latitude": 43.93261481652157, "longitude": -78.70133637731554}, "131513251RR0001": {"name": "LIVING WATERS MINISTRIES", "designationCode": "C", "categoryCode": "39", "address": "P.O. BOX 238", "city": "SPRINGDALE", "province": "NL", "country": "CA", "postalCode": "A0J1T0", "twitter": "None", "instagram": "None", "facebook": "None", "youtube": "None", "website": "None", "summary": "None", "logo": "None", "latitude": 49.497243000000054, "longitude": -56.07671299999993}, "107833394RR0048": {"name": "LIVING WATERS PENTECOSTAL CHURCH", "designationCode": "C", "categoryCode": "36", "address": "BOX 13 RR#1                   FORTEAU", "city": "LABRADOR", "province": "NL", "country": "CA", "postalCode": "A0K2P0", "twitter": "None", "instagram": "None", "facebook": "None", "youtube": "None", "website": "None", "summary": "None", "logo": "None", "latitude": 51.473085000000054, "longitude": -56.95763299999993}, "833600612RR0001": {"name": "LIVING WATERS VICTORY CHURCH FELLOWSHIP", "designationCode": "C", "categoryCode": "39", "address": "#44  - 1101 84 STREET NE", "city": "CALGARY", "province": "AB", "country": "CA", "postalCode": "T2A7X2", "twitter": "None", "instagram": "None", "facebook": "None", "youtube": "None", "website": "None", "summary": "None", "logo": "None"}, "106993991RR0001": {"name": "LIVING WAY CHURCH", "designationCode": "C", "categoryCode": "39", "address": "BOX 38", "city": "ENGLEHART", "province": "ON", "country": "CA", "postalCode": "P0J1H0", "twitter": "None", "instagram": "None", "facebook": "None", "youtube": "None", "website": "None", "summary": "None", "logo": "None", "latitude": 47.81686000000008, "longitude": -79.86639999999994}, "119022051RR0001": {"name": "LIVING WITHOUT VIOLENCE INC.", "designationCode": "C", "categoryCode": "09", "address": "P.O. BOX 790", "city": "EGANVILLE", "province": "ON", "country": "CA", "postalCode": "K0J1T0", "twitter": "None", "instagram": "None", "facebook": "None", "youtube": "None", "website": "None", "summary": "None", "logo": "None", "latitude": 45.57147000000006, "longitude": -77.04741949999993}, "869143628RR0001": {"name": "LIVING WORD", "designationCode": "C", "categoryCode": "39", "address": "1818-10A STREET", "city": "COALDALE", "province": "AB", "country": "CA", "postalCode": "T1M1A6", "twitter": "None", "instagram": "None", "facebook": "None", "youtube": "None", "website": "None", "summary": "None", "logo": "None", "latitude": 49.729361311962606, "longitude": -112.60591930766343}, "892281742RR0001": {"name": "LIVING WORD ASSEMBLY", "designationCode": "C", "categoryCode": "39", "address": "29292 RUNNING CREEK ROAD", "city": "WALLACEBURG", "province": "ON", "country": "CA", "postalCode": "N8A0B1", "twitter": "None", "instagram": "None", "facebook": "None", "youtube": "None", "website": "None", "summary": "None", "logo": "None", "latitude": 42.59401528509971, "longitude": -82.42126087131334}, "892709445RR0001": {"name": "LIVING WORD ASSEMBLY", "designationCode": "C", "categoryCode": "39", "address": "104 VILLENEUVE BLVD", "city": "WINNIPEG", "province": "MB", "country": "CA", "postalCode": "R3V1C3", "twitter": "None", "instagram": "None", "facebook": "None", "youtube": "None", "website": "None", "summary": "None", "logo": "None", "latitude": 49.765211602544916, "longitude": -97.15644060508373}, "863500765RR0001": {"name": "LIVING WORD ASSEMBLY INC.", "designationCode": "C", "categoryCode": "39", "address": "13 NOTTINGHAM BAY", "city": "SHERWOOD PARK", "province": "AB", "country": "CA", "postalCode": "T8A5Z6", "twitter": "None", "instagram": "None", "facebook": "None", "youtube": "None", "website": "None", "summary": "None", "logo": "None", "latitude": 53.51665138386507, "longitude": -113.27189858840667}, "892187642RR0001": {"name": "LIVING WORD BELIEVERS FELLOWSHIP", "designationCode": "C", "categoryCode": "39", "address": "POST OFFICE BOX 23135", "city": "OTTAWA", "province": "ON", "country": "CA", "postalCode": "K2A4E2", "twitter": "None", "instagram": "None", "facebook": "None", "youtube": "None", "website": "None", "summary": "None", "logo": "None", "latitude": 45.42177300000006, "longitude": -75.69115999999994}, "899940175RR0001": {"name": "LIVING WORD CHINESE BAPTIST CHURCH", "designationCode": "C", "categoryCode": "31", "address": "2105 WEST 33RD AVE", "city": "VANCOUVER", "province": "BC", "country": "CA", "postalCode": "V6M1B8", "twitter": "None", "instagram": "None", "facebook": "None", "youtube": "None", "website": "None", "summary": "None", "logo": "None", "latitude": 49.242152460470756, "longitude": -123.15409965889549}, "859965048RR0001": {"name": "LIVING WORD CHRISTIAN CHURCH", "designationCode": "C", "categoryCode": "39", "address": "20178 - 72 AVENUE", "city": "LANGLEY", "province": "BC", "country": "CA", "postalCode": "V2Y1S5", "twitter": "None", "instagram": "None", "facebook": "None", "youtube": "None", "website": "None", "summary": "None", "logo": "None", "latitude": 49.13349850288553, "longitude": -122.66321310935425}, "136491792RR0001": {"name": "LIVING WORD CHRISTIAN FELLOWSHIP", "designationCode": "C", "categoryCode": "39", "address": "5315-91 STREET", "city": "EDMONTON", "province": "AB", "country": "CA", "postalCode": "T6E6E2", "twitter": "None", "instagram": "None", "facebook": "None", "youtube": "None", "website": "None", "summary": "None", "logo": "None", "latitude": 53.48988, "longitude": -113.46699529897911}, "119022085RR0001": {"name": "LIVING WORD CHRISTIAN OUTREACH OF PORT HOPE", "designationCode": "B", "categoryCode": "47", "address": "24 WESTON CRES", "city": "AJAX", "province": "ON", "country": "CA", "postalCode": "L1T0C7", "twitter": "None", "instagram": "None", "facebook": "None", "youtube": "None", "website": "None", "summary": "None", "logo": "None", "latitude": 43.889985197905155, "longitude": -79.04464962698363}, "857862437RR0001": {"name": "LIVING WORD CHURCH INTERNATIONAL HUMBOLDT, INC.", "designationCode": "C", "categoryCode": "39", "address": "BOX 238", "city": "HUMBOLDT", "province": "SK", "country": "CA", "postalCode": "S0K2A0", "twitter": "None", "instagram": "None", "facebook": "None", "youtube": "None", "website": "None", "summary": "None", "logo": "None", "latitude": 51.7871843348964, "longitude": -104.71638483007007}, "868791005RR0001": {"name": "LIVING WORD CHURCH OF JESUS IN CALGARY", "designationCode": "C", "categoryCode": "39", "address": "PO BOX 71041                  SS RPO", "city": "CALGARY", "province": "AB", "country": "CA", "postalCode": "T3B5K2", "twitter": "None", "instagram": "None", "facebook": "None", "youtube": "None", "website": "None", "summary": "None", "logo": "None", "latitude": 51.08674200000006, "longitude": -114.21710899999994}, "859992877RR0001": {"name": "LIVING WORD COMMUNITY CHURCH INC.", "designationCode": "C", "categoryCode": "39", "address": "16-170 WILKINSON RD.", "city": "BRAMPTON", "province": "ON", "country": "CA", "postalCode": "L6T4Z5", "twitter": "None", "instagram": "None", "facebook": "None", "youtube": "None", "website": "None", "summary": "None", "logo": "None", "latitude": 43.69168331256817, "longitude": -79.69975375027458}, "859317513RR0001": {"name": "LIVING WORD EPISCOPAL CHURCH", "designationCode": "C", "categoryCode": "30", "address": "4778 NORTH ISLAND HWY", "city": "COURTENAY", "province": "BC", "country": "CA", "postalCode": "V9N5Y7", "twitter": "None", "instagram": "None", "facebook": "None", "youtube": "None", "website": "None", "summary": "None", "logo": "None", "latitude": 49.71074227172866, "longitude": -124.99284418060289}, "866201213RR0001": {"name": "LIVING WORD FELLOWSHIP", "designationCode": "C", "categoryCode": "09", "address": "2623 272 ST", "city": "ALDER GROVE", "province": "BC", "country": "CA", "postalCode": "V4W3N6", "twitter": "None", "instagram": "None", "facebook": "None", "youtube": "None", "website": "None", "summary": "None", "logo": "None", "latitude": 49.00748738262332, "longitude": -122.48860278863641}, "140831835RR0001": {"name": "LIVING WORD FELLOWSHIP OF VULCAN", "designationCode": "C", "categoryCode": "39", "address": "BOX 866", "city": "VULCAN", "province": "AB", "country": "CA", "postalCode": "T0L2B0", "twitter": "None", "instagram": "None", "facebook": "None", "youtube": "None", "website": "None", "summary": "None", "logo": "None", "latitude": 50.39734000000004, "longitude": -113.25817999999998}, "866942063RR0001": {"name": "LIVING WORD HARVEST MISSIONARY CHURCH", "designationCode": "C", "categoryCode": "39", "address": "2365 WARDEN AVENUE, UNIT#4    P.O. BOX 30075", "city": "SCARBOROUGH", "province": "ON", "country": "CA", "postalCode": "M1T1V7", "twitter": "None", "instagram": "None", "facebook": "None", "youtube": "None", "website": "None", "summary": "None", "logo": "None", "latitude": 43.78491609660099, "longitude": -79.31066978331164}, "132006925RR0001": {"name": "LIVING WORD LUTHERAN CHURCH", "designationCode": "C", "categoryCode": "32", "address": "6525 OKANAGAN LANDING ROAD", "city": "VERNON", "province": "BC", "country": "CA", "postalCode": "V1H1M5", "twitter": "None", "instagram": "None", "facebook": "None", "youtube": "None", "website": "None", "summary": "None", "logo": "None", "latitude": 50.243589930088106, "longitude": -119.32912422485401}, "891358996RR0001": {"name": "LIVING WORD MINISTRIES", "designationCode": "C", "categoryCode": "36", "address": "17 ELIZABETH STREET", "city": "ORTON", "province": "ON", "country": "CA", "postalCode": "L0N1N0", "twitter": "None", "instagram": "None", "facebook": "None", "youtube": "None", "website": "None", "summary": "None", "logo": "None", "latitude": 43.21498813211952, "longitude": -80.69019613595734}, "899503213RR0001": {"name": "LIVING WORD MINISTRIES", "designationCode": "C", "categoryCode": "39", "address": "79 SOUTH BEND ROAD EAST", "city": "HAMILTON", "province": "ON", "country": "CA", "postalCode": "L9A2B2", "twitter": "None", "instagram": "None", "facebook": "None", "youtube": "None", "website": "None", "summary": "None", "logo": "None", "latitude": 43.230532154900025, "longitude": -79.87552623746076}, "870966033RR0001": {"name": "LIVING WORD MISSIONARY CHURCH INC.", "designationCode": "C", "categoryCode": "36", "address": "1100 BELLAMY RD N", "city": "SCARBOROUGH", "province": "ON", "country": "CA", "postalCode": "M1H1H2", "twitter": "None", "instagram": "None", "facebook": "None", "youtube": "None", "website": "None", "summary": "None", "logo": "None"}, "886792795RR0001": {"name": "LIVING WORD TABERNACLE", "designationCode": "C", "categoryCode": "47", "address": "BOX 117", "city": "SWAN RIVER", "province": "MB", "country": "CA", "postalCode": "R0L1Z0", "twitter": "None", "instagram": "None", "facebook": "None", "youtube": "None", "website": "None", "summary": "None", "logo": "None", "latitude": 52.11672730414978, "longitude": -101.25989472758229}, "119022150RR0001": {"name": "LIVING WORD TEMPLE", "designationCode": "C", "categoryCode": "39", "address": "2050 CHEVRIER BLVD", "city": "WINNIPEG", "province": "MB", "country": "CA", "postalCode": "R3Y0T3", "twitter": "None", "instagram": "None", "facebook": "None", "youtube": "None", "website": "None", "summary": "None", "logo": "None", "latitude": 49.820039187287584, "longitude": -97.18657076764417}, "871640546RR0001": {"name": "LIVING WORLD PENTECOSTAL ASSEMBLY", "designationCode": "C", "categoryCode": "36", "address": "580 ERIE ST W", "city": "WINDSOR", "province": "ON", "country": "CA", "postalCode": "N9A6C2", "twitter": "None", "instagram": "None", "facebook": "None", "youtube": "None", "website": "None", "summary": "None", "logo": "None", "latitude": 42.30679952403468, "longitude": -83.03980161423036}, "898842240RR0001": {"name": "LIVINGSTON OUTDOOR ADVENTURES INC./CENTRE DE PLEIN AIR LIVINGSTON INC.", "designationCode": "C", "categoryCode": "56", "address": "15 EVERETT ST.", "city": "MONCTON", "province": "NB", "country": "CA", "postalCode": "E1C3Z6", "twitter": "None", "instagram": "None", "facebook": "None", "youtube": "None", "website": "None", "summary": "None", "logo": "None", "latitude": 46.104126252870735, "longitude": -64.8148558610998}, "119021921RR0001": {"name": "LIVINGSTON PRESBYTERIAN CHURCH", "designationCode": "C", "categoryCode": "37", "address": "44 BECK ST", "city": "BADEN", "province": "ON", "country": "CA", "postalCode": "N3A2P3", "twitter": "None", "instagram": "None", "facebook": "None", "youtube": "None", "website": "None", "summary": "None", "logo": "None", "latitude": 43.402770257792895, "longitude": -80.66946721562259}, "881603617RR0001": {"name": "LIVINGSTONE CHARITABLE TRUST", "designationCode": "B", "categoryCode": "39", "address": "3425 2 AVE S", "city": "LETHBRIDGE", "province": "AB", "country": "CA", "postalCode": "T1J4V1", "twitter": "None", "instagram": "None", "facebook": "None", "youtube": "None", "website": "None", "summary": "None", "logo": "None", "latitude": 49.696839530439966, "longitude": -112.78914308381903}, "119021905RR0001": {"name": "LIVINGSTONE PRESBYTERIAN CHURCH", "designationCode": "C", "categoryCode": "37", "address": "7110 AV. DE L'EPEE", "city": "MONTREAL", "province": "QC", "country": "CA", "postalCode": "H3N2E1", "twitter": "None", "instagram": "None", "facebook": "None", "youtube": "None", "website": "None", "summary": "None", "logo": "None", "latitude": 45.52778103912524, "longitude": -73.62339822245941}, "899018899RR0001": {"name": "LIVINGSTONE RANGE SCHOOL DIVISION #68", "designationCode": "C", "categoryCode": "20", "address": "POST OFFICE BOX 69", "city": "CLARESHOLM", "province": "AB", "country": "CA", "postalCode": "T0L0T0", "twitter": "None", "instagram": "None", "facebook": "None", "youtube": "None", "website": "None", "summary": "None", "logo": "None", "latitude": 50.026080000000036, "longitude": -113.58213999999998}, "879768828RR0001": {"name": "LJ PEARSON FOUNDATION", "designationCode": "B", "categoryCode": "03", "address": "51 FOX RUN DRIVE", "city": "GUELPH", "province": "ON", "country": "CA", "postalCode": "N1H6H9", "twitter": "None", "instagram": "None", "facebook": "None", "youtube": "None", "website": "None", "summary": "None", "logo": "None", "latitude": 43.486245635350826, "longitude": -80.15575718313264}, "890766348RR0001": {"name": "LLAINA DONKIN MEMORIAL FUND", "designationCode": "C", "categoryCode": "21", "address": "OXFORD REGIONAL EDUCATIONAL C.P.O. BOX 340", "city": "OXFORD", "province": "NS", "country": "CA", "postalCode": "B0M1P0", "twitter": "None", "instagram": "None", "facebook": "None", "youtube": "None", "website": "None", "summary": "None", "logo": "None", "latitude": 45.71312100000006, "longitude": -63.87830449999993}, "887516599RR0001": {"name": "LLOYD BROTHERS SCHOLARSHIP TRUST FUND", "designationCode": "C", "categoryCode": "21", "address": "2100 FERRY AVENUE", "city": "PRINCE GEORGE", "province": "BC", "country": "CA", "postalCode": "V2L4R5", "twitter": "None", "instagram": "None", "facebook": "None", "youtube": "None", "website": "None", "summary": "None", "logo": "None", "latitude": 53.88891989678176, "longitude": -122.7656745}, "869543959RR0001": {"name": "LLOYD W SHIVRATTAN MINISTRIES", "designationCode": "C", "categoryCode": "47", "address": "179 CARLYLE DRIVE", "city": "LONDON", "province": "ON", "country": "CA", "postalCode": "N5V3J2", "twitter": "None", "instagram": "None", "facebook": "None", "youtube": "None", "website": "None", "summary": "None", "logo": "None", "latitude": 43.007149488199005, "longitude": -81.16134592120129}, "131741902RR0001": {"name": "LLOYDMINSTER & AREA BRAIN INJURY SOCIETY INC", "designationCode": "C", "categoryCode": "11", "address": "3 4620 44 ST", "city": "LLOYDMINSTER", "province": "SK", "country": "CA", "postalCode": "S9V0G4", "twitter": "None", "instagram": "None", "facebook": "None", "youtube": "None", "website": "None", "summary": "None", "logo": "None", "latitude": 53.27799150043269, "longitude": -109.99610083236193}, "130533342RR0001": {"name": "LLOYDMINSTER & DISTRICT UNITED WAY INC.", "designationCode": "C", "categoryCode": "05", "address": "4419 - 52 ND AVENUE", "city": "LLOYDMINSTER", "province": "AB", "country": "CA", "postalCode": "T9V0Y8", "twitter": "None", "instagram": "None", "facebook": "None", "youtube": "None", "website": "None", "summary": "None", "logo": "None", "latitude": 53.27902607216228, "longitude": -110.01024703107515}, "119022200RR0001": {"name": "LLOYDMINSTER AGRICULTURAL EXHIBITION ASSOCIATION LTD.", "designationCode": "C", "categoryCode": "56", "address": "P.O. BOX 690", "city": "LLOYDMINSTER", "province": "SK", "country": "CA", "postalCode": "S9V0Y7", "twitter": "None", "instagram": "None", "facebook": "None", "youtube": "None", "website": "None", "summary": "None", "logo": "None", "latitude": 53.274840000000054, "longitude": -109.99074949999994}, "129715157RR0001": {"name": "LLOYDMINSTER AIR CADET 186 SQUADRON INC.", "designationCode": "C", "categoryCode": "29", "address": "P. O. BOX 1102", "city": "LLOYDMINSTER", "province": "SK", "country": "CA", "postalCode": "S9V1E9", "twitter": "None", "instagram": "None", "facebook": "None", "youtube": "None", "website": "None", "summary": "None", "logo": "None", "latitude": 53.274840000000054, "longitude": -109.99074949999994}, "890481377RR0001": {"name": "LLOYDMINSTER AND DISTRICT CENTENNIAL COMMEMORATIVE ASSOCIATION INC", "designationCode": "C", "categoryCode": "50", "address": "27-5012 49 ST", "city": "LLOYDMINSTER", "province": "AB", "country": "CA", "postalCode": "T9V0K2", "twitter": "None", "instagram": "None", "facebook": "None", "youtube": "None", "website": "None", "summary": "None", "logo": "None", "latitude": 53.28254452596791, "longitude": -110.00708983236194}, "888628864RR0001": {"name": "LLOYDMINSTER ASSOCIATION FOR COMMUNITY LIVING INC.", "designationCode": "C", "categoryCode": "11", "address": "PO BOX 492", "city": "LLOYDMINSTER", "province": "SK", "country": "CA", "postalCode": "S9V0Y6", "twitter": "None", "instagram": "None", "facebook": "None", "youtube": "None", "website": "None", "summary": "None", "logo": "None", "latitude": 53.274840000000054, "longitude": -109.99074949999994}, "867035032RR0001": {"name": "LLOYDMINSTER CITIZEN'S PATROL", "designationCode": "C", "categoryCode": "59", "address": "BOX 2383", "city": "LLOYDMINSTER", "province": "SK", "country": "CA", "postalCode": "S9V1W5", "twitter": "None", "instagram": "None", "facebook": "None", "youtube": "None", "website": "None", "summary": "None", "logo": "None", "latitude": 53.274840000000054, "longitude": -109.99074949999994}, "107632325RR0001": {"name": "LLOYDMINSTER GOSPEL FELLOWSHIP", "designationCode": "C", "categoryCode": "36", "address": "4620-47 AVENUE", "city": "LLOYDMINSTER", "province": "SK", "country": "CA", "postalCode": "S9V0W3", "twitter": "None", "instagram": "None", "facebook": "None", "youtube": "None", "website": "None", "summary": "None", "logo": "None", "latitude": 53.28025756177491, "longitude": -109.99751841234315}, "119022333RR0002": {"name": "LLOYDMINSTER HANDI VAN SOCIETY", "designationCode": "C", "categoryCode": "09", "address": "PO BOX 2032  STN MAIN", "city": "LLOYDMINSTER", "province": "SK", "country": "CA", "postalCode": "S9V1R5", "twitter": "None", "instagram": "None", "facebook": "None", "youtube": "None", "website": "None", "summary": "None", "logo": "None", "latitude": 53.274840000000054, "longitude": -109.99074949999994}, "891850778RR0001": {"name": "LLOYDMINSTER HEALTH-CARE AUXILIARY", "designationCode": "C", "categoryCode": "19", "address": "3005-51A AVE", "city": "LLOYDMINSTER", "province": "AB", "country": "CA", "postalCode": "T9V1L9", "twitter": "None", "instagram": "None", "facebook": "None", "youtube": "None", "website": "None", "summary": "None", "logo": "None", "latitude": 53.264815479369155, "longitude": -110.0090987144382}, "130063431RR0001": {"name": "LLOYDMINSTER INTERVAL HOME SOCIETY", "designationCode": "C", "categoryCode": "09", "address": "PO BOX 1523 STN MAIN", "city": "LLOYDMINSTER", "province": "SK", "country": "CA", "postalCode": "S9V1K5", "twitter": "None", "instagram": "None", "facebook": "None", "youtube": "None", "website": "None", "summary": "None", "logo": "None", "latitude": 53.274840000000054, "longitude": -109.99074949999994}, "130586134RR0001": {"name": "LLOYDMINSTER NATIVE FRIENDSHIP CENTRE INC", "designationCode": "C", "categoryCode": "56", "address": "BOX 1364", "city": "LLOYDMINSTER", "province": "SK", "country": "CA", "postalCode": "S9V1K4", "twitter": "None", "instagram": "None", "facebook": "None", "youtube": "None", "website": "None", "summary": "None", "logo": "None", "latitude": 53.274840000000054, "longitude": -109.99074949999994}, "899617062RR0001": {"name": "LLOYDMINSTER OUTDOOR POOL SOCIETY", "designationCode": "C", "categoryCode": "56", "address": "4802 - 57 AVE", "city": "LLOYDMINSTER", "province": "AB", "country": "CA", "postalCode": "T9V1A3", "twitter": "None", "instagram": "None", "facebook": "None", "youtube": "None", "website": "None", "summary": "None", "logo": "None", "latitude": 53.28206974854291, "longitude": -110.0239769411966}, "131586646RR0001": {"name": "LLOYDMINSTER PUBLIC LIBRARY BOARD", "designationCode": "C", "categoryCode": "50", "address": "5010 49 ST", "city": "LLOYDMINSTER", "province": "AB", "country": "CA", "postalCode": "T9V0K2", "twitter": "None", "instagram": "None", "facebook": "None", "youtube": "None", "website": "None", "summary": "None", "logo": "None", "latitude": 53.28259990638233, "longitude": -110.00582753488868}, "119022390RR0001": {"name": "LLOYDMINSTER REGION HEALTH FOUNDATION INC.", "designationCode": "A", "categoryCode": "13", "address": "SUITE 116, 4190 50TH STREET", "city": "LLOYDMINSTER", "province": "SK", "country": "CA", "postalCode": "S9V0Y5", "twitter": "None", "instagram": "None", "facebook": "None", "youtube": "None", "website": "None", "summary": "None", "logo": "None", "latitude": 53.28344037699309, "longitude": -109.99858064995743}, "136164761RR0001": {"name": "LLOYDMINSTER REGIONAL THEATRE FOUNDATION", "designationCode": "A", "categoryCode": "23", "address": "2602 59 AVENUE", "city": "LLOYDMINSTER", "province": "AB", "country": "CA", "postalCode": "T9V3N7", "twitter": "None", "instagram": "None", "facebook": "None", "youtube": "None", "website": "None", "summary": "None", "logo": "None", "latitude": 53.26203203242859, "longitude": -110.02968322296343}, "119022408RR0001": {"name": "LLOYDMINSTER RESCUE SQUAD INC.", "designationCode": "C", "categoryCode": "59", "address": "PO BOX 335                    STATION MAIN", "city": "LLOYDMINSTER", "province": "SK", "country": "CA", "postalCode": "S9V0Y4", "twitter": "None", "instagram": "None", "facebook": "None", "youtube": "None", "website": "None", "summary": "None", "logo": "None", "latitude": 53.274840000000054, "longitude": -109.99074949999994}, "891942567RR0001": {"name": "LLOYDMINSTER ROMAN CATHOLIC SEPARATE SCHOOL DIVISION 89", "designationCode": "C", "categoryCode": "20", "address": "6611B - 39TH STREET", "city": "LLOYDMINSTER", "province": "AB", "country": "CA", "postalCode": "T9V2Z4", "twitter": "None", "instagram": "None", "facebook": "None", "youtube": "None", "website": "None", "summary": "None", "logo": "None", "latitude": 53.27214683562607, "longitude": -110.04150732638696}, "107632432RR0001": {"name": "LLOYDMINSTER SCHOOL DIVISION", "designationCode": "C", "categoryCode": "21", "address": "5017 46TH ST", "city": "LLOYDMINSTER", "province": "AB", "country": "CA", "postalCode": "T9V1R4", "twitter": "None", "instagram": "None", "facebook": "None", "youtube": "None", "website": "None", "summary": "None", "logo": "None", "latitude": 53.27980853952925, "longitude": -110.007531}, "119022424RR0001": {"name": "LLOYDMINSTER SCHOOL DIVISION SCHOLARSHIP TRUST FUND", "designationCode": "C", "categoryCode": "25", "address": "5017 46TH STREET", "city": "LLOYDMINSTER", "province": "AB", "country": "CA", "postalCode": "T9V1R4", "twitter": "None", "instagram": "None", "facebook": "None", "youtube": "None", "website": "None", "summary": "None", "logo": "None", "latitude": 53.27980853952925, "longitude": -110.007531}, "119022432RR0001": {"name": "LLOYDMINSTER SENIOR CITIZENS SOCIETY", "designationCode": "C", "categoryCode": "09", "address": "PO BOX 1545", "city": "LLOYDMINSTER", "province": "AB", "country": "CA", "postalCode": "T9V3B8", "twitter": "None", "instagram": "None", "facebook": "None", "youtube": "None", "website": "None", "summary": "None", "logo": "None", "latitude": 53.27803500000006, "longitude": -110.00671099999994}, "106693047RR0023": {"name": "LLOYDMINSTER SEVENTH-DAY ADVENTIST CHURCH", "designationCode": "C", "categoryCode": "41", "address": "5816 HIGHWAY, 2A", "city": "LACOMBE", "province": "AB", "country": "CA", "postalCode": "T4L2G5", "twitter": "None", "instagram": "None", "facebook": "None", "youtube": "None", "website": "None", "summary": "None", "logo": "None", "latitude": 52.474063600197404, "longitude": -113.71692568401835}, "119022457RR0001": {"name": "LLOYDMINSTER SEXUAL ASSAULT & INFORMATION CENTRE INC.", "designationCode": "C", "categoryCode": "09", "address": "PO BOX 2033 STN MAIN", "city": "LLOYDMINSTER", "province": "SK", "country": "CA", "postalCode": "S9V1R5", "twitter": "None", "instagram": "None", "facebook": "None", "youtube": "None", "website": "None", "summary": "None", "logo": "None", "latitude": 53.274840000000054, "longitude": -109.99074949999994}, "863648762RR0001": {"name": "LLOYDMINSTER SOCIAL ACTION COALITION SOCIETY", "designationCode": "C", "categoryCode": "09", "address": "PO BOX 1294 STN MAIN", "city": "LLOYDMINSTER", "province": "SK", "country": "CA", "postalCode": "S9V1G1", "twitter": "None", "instagram": "None", "facebook": "None", "youtube": "None", "website": "None", "summary": "None", "logo": "None", "latitude": 53.274840000000054, "longitude": -109.99074949999994}, "822781357RR0001": {"name": "LMMC ENDOWMENT FUND / FONDS DE DOTATION LMMC", "designationCode": "B", "categoryCode": "23", "address": "1000, RUE DE LA GAUCHETI\u00c8RE O BUREAU 3500", "city": "MONTR\u00c9AL", "province": "QC", "country": "CA", "postalCode": "H3B4W5", "twitter": "None", "instagram": "None", "facebook": "None", "youtube": "None", "website": "None", "summary": "None", "logo": "None", "latitude": 45.49846698248619, "longitude": -73.56698518102652}, "133723536RR0001": {"name": "LO-SE-CA Foundation - A Christian Society for Persons with Disabilities", "designationCode": "C", "categoryCode": "01", "address": "215-1 CARNEGIE DR", "city": "ST ALBERT", "province": "AB", "country": "CA", "postalCode": "T8N5B1", "twitter": "None", "instagram": "None", "facebook": "None", "youtube": "None", "website": "None", "summary": "None", "logo": "None", "latitude": 53.640704020467126, "longitude": -113.57587331237956}, "892870346RR0001": {"name": "LOADS OF LOVE HUMANITARIAN AID & MISSION SOCIETY", "designationCode": "C", "categoryCode": "47", "address": "15 PRINCE STREET N", "city": "CHATHAM", "province": "ON", "country": "CA", "postalCode": "N7M4J5", "twitter": "None", "instagram": "None", "facebook": "None", "youtube": "None", "website": "None", "summary": "None", "logo": "None", "latitude": 42.407401221766925, "longitude": -82.17780137881608}, "883101321RR0001": {"name": "LOAN CIRCLE SOCIETY OF CENTRAL ALBERTA", "designationCode": "C", "categoryCode": "59", "address": "5520 48A AVENUE", "city": "RED DEER", "province": "AB", "country": "CA", "postalCode": "T4N3V6", "twitter": "None", "instagram": "None", "facebook": "None", "youtube": "None", "website": "None", "summary": "None", "logo": "None", "latitude": 52.27489959256161, "longitude": -113.81033578215687}, "874927320RR0001": {"name": "LOAVES & FISHES", "designationCode": "C", "categoryCode": "09", "address": "25 FRONT AVENUE WEST", "city": "BROCKVILLE", "province": "ON", "country": "CA", "postalCode": "K6V4J2", "twitter": "None", "instagram": "None", "facebook": "None", "youtube": "None", "website": "None", "summary": "None", "logo": "None", "latitude": 44.59801180515327, "longitude": -75.68906457755796}, "868153867RR0001": {"name": "LOAVES & FISHES BENEVOLENT SOCIETY", "designationCode": "C", "categoryCode": "09", "address": "12 HERMARY ST", "city": "RED DEER", "province": "AB", "country": "CA", "postalCode": "T4N6E7", "twitter": "None", "instagram": "None", "facebook": "None", "youtube": "None", "website": "None", "summary": "None", "logo": "None", "latitude": 52.28369646768412, "longitude": -113.81861313918864}, "107632895RR0001": {"name": "LOAVES AND FISHES - INNER-CITY CHURCHES OF SYDNEY (SOCIETY)", "designationCode": "C", "categoryCode": "01", "address": "PO BOX 602 , STN A", "city": "SYDNEY", "province": "NS", "country": "CA", "postalCode": "B1P6H7", "twitter": "None", "instagram": "None", "facebook": "None", "youtube": "None", "website": "None", "summary": "None", "logo": "None", "latitude": 46.137372000000056, "longitude": -60.19552249999994}, "874258429RR0001": {"name": "LOAVES AND FISHES FOOD BANK FOUNDATION", "designationCode": "C", "categoryCode": "09", "address": "210 FRY ST", "city": "NANAIMO", "province": "BC", "country": "CA", "postalCode": "V9R2G2", "twitter": "None", "instagram": "None", "facebook": "None", "youtube": "None", "website": "None", "summary": "None", "logo": "None", "latitude": 49.15770187898897, "longitude": -123.92995385296281}, "871169942RR0001": {"name": "LOAVES AND FISHES FUND OF OTTAWA-CARLETON", "designationCode": "C", "categoryCode": "09", "address": "63 ROYDON PLACE", "city": "NEPEAN", "province": "ON", "country": "CA", "postalCode": "K2E1A3", "twitter": "None", "instagram": "None", "facebook": "None", "youtube": "None", "website": "None", "summary": "None", "logo": "None", "latitude": 45.338799831294075, "longitude": -75.72127396958868}, "871879151RR0001": {"name": "LOAVES AND FISHES OUTREACH PROGRAM", "designationCode": "C", "categoryCode": "39", "address": "550 EXETER TRUCK ROUTE        P.O. BOX 2032", "city": "100 MILE HOUSE", "province": "BC", "country": "CA", "postalCode": "V0K2E0", "twitter": "None", "instagram": "None", "facebook": "None", "youtube": "None", "website": "None", "summary": "None", "logo": "None", "latitude": 51.65343091911246, "longitude": -121.29952705433016}, "890472509RR0001": {"name": "LOBELCO COMMUNITY CLUB", "designationCode": "C", "categoryCode": "56", "address": "931 HIGHWAY 20                P. O. BOX 386", "city": "BELLA COOLA", "province": "BC", "country": "CA", "postalCode": "V0T1C0", "twitter": "None", "instagram": "None", "facebook": "None", "youtube": "None", "website": "None", "summary": "None", "logo": "None", "latitude": 52.36748566930581, "longitude": -126.69618724417674}, "119022515RR0001": {"name": "LOBO TOWNSHIP NON-PROFIT APARTMENT CORPORATION", "designationCode": "C", "categoryCode": "01", "address": "139 SIMCOE CRES", "city": "KOMOKA", "province": "ON", "country": "CA", "postalCode": "N0L1R0", "twitter": "None", "instagram": "None", "facebook": "None", "youtube": "None", "website": "None", "summary": "None", "logo": "None", "latitude": 42.95368620210387, "longitude": -81.43523724618495}}