{"866062433RR0001": {"name": "ZION EVANGELICAL LUTHERAN CHURCH", "designationCode": "C", "categoryCode": "32", "address": "189 UPTON RD", "city": "SAULT STE MARIE", "province": "ON", "country": "CA", "postalCode": "P6A3W5", "twitter": "None", "instagram": "None", "facebook": "None", "youtube": "None", "website": "None", "summary": "None", "logo": "None", "latitude": 46.50904065528882, "longitude": -84.31146310369876}, "130115777RR0001": {"name": "ZION EVANGELICAL LUTHERAN CHURCH (PHILIPSBURG) INCORPORATED", "designationCode": "C", "categoryCode": "32", "address": "3357 ERBS RD                  RR 2", "city": "BADEN", "province": "ON", "country": "CA", "postalCode": "N3A3M6", "twitter": "None", "instagram": "None", "facebook": "None", "youtube": "None", "website": "None", "summary": "None", "logo": "None", "latitude": 43.419752656096875, "longitude": -80.72717688175894}, "132384264RR0001": {"name": "ZION EVANGELICAL LUTHERAN CHURCH - ST AGATHA", "designationCode": "C", "categoryCode": "32", "address": "P O BOX 257                   1363 ERB'S RD", "city": "ST. AGATHA  RR 1", "province": "ON", "country": "CA", "postalCode": "N0B2L0", "twitter": "None", "instagram": "None", "facebook": "None", "youtube": "None", "website": "None", "summary": "None", "logo": "None", "latitude": 43.43841965220172, "longitude": -80.60601827961806}, "108230814RR0001": {"name": "ZION EVANGELICAL LUTHERAN CHURCH INCORPORATED", "designationCode": "C", "categoryCode": "32", "address": "PO BOX 968", "city": "BEAUSEJOUR", "province": "MB", "country": "CA", "postalCode": "R0E0C0", "twitter": "None", "instagram": "None", "facebook": "None", "youtube": "None", "website": "None", "summary": "None", "logo": "None", "latitude": 50.061750000000075, "longitude": -96.50519999999995}, "108230889RR0001": {"name": "ZION EVANGELICAL LUTHERAN CHURCH OF JANSEN, SASKATCHEWAN", "designationCode": "C", "categoryCode": "32", "address": "BOX 159", "city": "JANSEN", "province": "SK", "country": "CA", "postalCode": "S0K2B0", "twitter": "None", "instagram": "None", "facebook": "None", "youtube": "None", "website": "None", "summary": "None", "logo": "None", "latitude": 52.36206000248576, "longitude": -106.7957955}, "131920423RR0001": {"name": "ZION EVANGELICAL LUTHERAN CHURCH OF NIPAWIN", "designationCode": "C", "categoryCode": "32", "address": "PO BOX 2507", "city": "NIPAWIN", "province": "SK", "country": "CA", "postalCode": "S0E1E0", "twitter": "None", "instagram": "None", "facebook": "None", "youtube": "None", "website": "None", "summary": "None", "logo": "None", "latitude": 53.396118, "longitude": -104.00834700000001}, "108230897RR0001": {"name": "ZION EVANGELICAL LUTHERAN CHURCH OF YORKTON", "designationCode": "C", "categoryCode": "32", "address": "234 INDEPENDENT ST", "city": "YORKTON", "province": "SK", "country": "CA", "postalCode": "S3N0S8", "twitter": "None", "instagram": "None", "facebook": "None", "youtube": "None", "website": "None", "summary": "None", "logo": "None", "latitude": 51.20639247792723, "longitude": -102.47784202553522}, "119308492RR0001": {"name": "ZION EVANGELICAL LUTHERAN CHURCH,", "designationCode": "C", "categoryCode": "32", "address": "POST OFFICE BOX 576", "city": "MAPLE", "province": "ON", "country": "CA", "postalCode": "L6A1S5", "twitter": "None", "instagram": "None", "facebook": "None", "youtube": "None", "website": "None", "summary": "None", "logo": "None", "latitude": 43.86033600000006, "longitude": -79.51369399999993}, "119308468RR0001": {"name": "ZION EVANGELICAL LUTHERAN CHURCH, FRIEDENSTHAL", "designationCode": "C", "categoryCode": "32", "address": "BOX 419", "city": "EMERSON", "province": "MB", "country": "CA", "postalCode": "R0A0L0", "twitter": "None", "instagram": "None", "facebook": "None", "youtube": "None", "website": "None", "summary": "None", "logo": "None", "latitude": 49.00687000000005, "longitude": -97.20476999999994}, "108230665RR0001": {"name": "ZION EVANGELICAL MISSIONARY CHURCH", "designationCode": "C", "categoryCode": "39", "address": "BOX 23", "city": "NEW SAREPTA", "province": "AB", "country": "CA", "postalCode": "T0B3M0", "twitter": "None", "instagram": "None", "facebook": "None", "youtube": "None", "website": "None", "summary": "None", "logo": "None", "latitude": 53.266590000000065, "longitude": -113.14736999999997}, "108230715RR0001": {"name": "ZION EVANGELICAL UNITED CHURCH", "designationCode": "C", "categoryCode": "44", "address": "368 MILLER ST", "city": "PEMBROKE", "province": "ON", "country": "CA", "postalCode": "K8A5Y9", "twitter": "None", "instagram": "None", "facebook": "None", "youtube": "None", "website": "None", "summary": "None", "logo": "None", "latitude": 45.820486304795075, "longitude": -77.1210609923979}, "141055913RR0001": {"name": "ZION FELLOWSHIP CHURCH", "designationCode": "C", "categoryCode": "39", "address": "BOX 51", "city": "WOOLER", "province": "ON", "country": "CA", "postalCode": "K0K3M0", "twitter": "None", "instagram": "None", "facebook": "None", "youtube": "None", "website": "None", "summary": "None", "logo": "None", "latitude": 44.15688000000006, "longitude": -77.70040999999998}, "107406316RR0042": {"name": "ZION FREE METHODIST CHURCH", "designationCode": "C", "categoryCode": "39", "address": "RR 2", "city": "TUPPERVILLE", "province": "ON", "country": "CA", "postalCode": "N0P2M0", "twitter": "None", "instagram": "None", "facebook": "None", "youtube": "None", "website": "None", "summary": "None", "logo": "None", "latitude": 42.58052993628103, "longitude": -82.27146300142127}, "862415486RR0001": {"name": "ZION FREE REFORMED CHURCH", "designationCode": "C", "categoryCode": "39", "address": "PO BOX 383", "city": "FENWICK", "province": "ON", "country": "CA", "postalCode": "L0S1C0", "twitter": "None", "instagram": "None", "facebook": "None", "youtube": "None", "website": "None", "summary": "None", "logo": "None", "latitude": 43.027120000000025, "longitude": -79.35452999999995}, "879023927RR0001": {"name": "ZION GLENELG COMMUNITY CEMETERY", "designationCode": "C", "categoryCode": "59", "address": "BOX 575", "city": "DURHAM", "province": "ON", "country": "CA", "postalCode": "N0G1R0", "twitter": "None", "instagram": "None", "facebook": "None", "youtube": "None", "website": "None", "summary": "None", "logo": "None", "latitude": 44.125520383994086, "longitude": -81.21636506037191}, "891903379RR0001": {"name": "ZION GOSPEL ASSEMBLY", "designationCode": "C", "categoryCode": "39", "address": "244 BROCKPORT DRIVE UNIT 20", "city": "TORONTO", "province": "ON", "country": "CA", "postalCode": "M9W6X9", "twitter": "None", "instagram": "None", "facebook": "None", "youtube": "None", "website": "None", "summary": "None", "logo": "None", "latitude": 43.70442199691291, "longitude": -79.59047751641634}, "129870457RR0002": {"name": "ZION HILL CAMP", "designationCode": "C", "categoryCode": "39", "address": "RR# 7- 417 ZANDERS", "city": "PEMBROKE", "province": "ON", "country": "CA", "postalCode": "K8A6W8", "twitter": "None", "instagram": "None", "facebook": "None", "youtube": "None", "website": "None", "summary": "None", "logo": "None", "latitude": 45.75641994362079, "longitude": -77.17886320716732}, "139744718RR0001": {"name": "ZION KOREAN PRESBYTERIAN CHURCH", "designationCode": "C", "categoryCode": "37", "address": "15 CLAIRTRELL RD", "city": "NORTH YORK", "province": "ON", "country": "CA", "postalCode": "M2N5J7", "twitter": "None", "instagram": "None", "facebook": "None", "youtube": "None", "website": "None", "summary": "None", "logo": "None", "latitude": 43.76724867695757, "longitude": -79.39052051119542}, "108230780RR0001": {"name": "ZION LUTHERAN CHURCH", "designationCode": "C", "categoryCode": "32", "address": "BOX 207", "city": "MASSEY", "province": "ON", "country": "CA", "postalCode": "P0P1P0", "twitter": "None", "instagram": "None", "facebook": "None", "youtube": "None", "website": "None", "summary": "None", "logo": "None", "latitude": 46.21236000000006, "longitude": -82.07723599999993}, "108230822RR0001": {"name": "ZION LUTHERAN CHURCH", "designationCode": "C", "categoryCode": "32", "address": "BOX 278", "city": "PLUMAS", "province": "MB", "country": "CA", "postalCode": "R0J1P0", "twitter": "None", "instagram": "None", "facebook": "None", "youtube": "None", "website": "None", "summary": "None", "logo": "None", "latitude": 50.381487082446405, "longitude": -99.0863749508334}, "108230848RR0001": {"name": "ZION LUTHERAN CHURCH", "designationCode": "C", "categoryCode": "32", "address": "BOX 1078", "city": "MELVILLE", "province": "SK", "country": "CA", "postalCode": "S0A2P0", "twitter": "None", "instagram": "None", "facebook": "None", "youtube": "None", "website": "None", "summary": "None", "logo": "None", "latitude": 50.87164886256234, "longitude": -103.09293300498788}, "119308898RR0001": {"name": "ZION LUTHERAN CHURCH", "designationCode": "C", "categoryCode": "32", "address": "10801 WINDER CRESCENT", "city": "NORTH BATTLEFORD", "province": "SK", "country": "CA", "postalCode": "S9A2B9", "twitter": "None", "instagram": "None", "facebook": "None", "youtube": "None", "website": "None", "summary": "None", "logo": "None", "latitude": 52.779906251457106, "longitude": -108.28725738721195}, "119308963RR0001": {"name": "ZION LUTHERAN CHURCH", "designationCode": "C", "categoryCode": "32", "address": "BOX 747", "city": "BOW ISLAND", "province": "AB", "country": "CA", "postalCode": "T0K0G0", "twitter": "None", "instagram": "None", "facebook": "None", "youtube": "None", "website": "None", "summary": "None", "logo": "None", "latitude": 49.502780370958696, "longitude": -111.79166408625858}, "132291972RR0001": {"name": "ZION LUTHERAN CHURCH", "designationCode": "C", "categoryCode": "32", "address": "454 MILLER ST", "city": "PEMBROKE", "province": "ON", "country": "CA", "postalCode": "K8A5Z4", "twitter": "None", "instagram": "None", "facebook": "None", "youtube": "None", "website": "None", "summary": "None", "logo": "None", "latitude": 45.82068179692731, "longitude": -77.12427662488724}, "886893296RR0001": {"name": "ZION LUTHERAN CHURCH", "designationCode": "C", "categoryCode": "39", "address": "BOX 104", "city": "MISTATIM", "province": "SK", "country": "CA", "postalCode": "S0E1B0", "twitter": "None", "instagram": "None", "facebook": "None", "youtube": "None", "website": "None", "summary": "None", "logo": "None", "latitude": 52.86672000000004, "longitude": -103.36765999999994}, "889208773RR0001": {"name": "ZION LUTHERAN CHURCH", "designationCode": "C", "categoryCode": "32", "address": "RR1", "city": "WETASKIWIN", "province": "AB", "country": "CA", "postalCode": "T9A1W8", "twitter": "None", "instagram": "None", "facebook": "None", "youtube": "None", "website": "None", "summary": "None", "logo": "None", "latitude": 52.96987500000006, "longitude": -113.37725149999994}, "119308716RR0001": {"name": "ZION LUTHERAN CHURCH AND CHRISTIAN SCHOOL OF PRINCE GEORGE", "designationCode": "C", "categoryCode": "32", "address": "180 TABOR BLVD S", "city": "PRINCE GEORGE", "province": "BC", "country": "CA", "postalCode": "V2M5T4", "twitter": "None", "instagram": "None", "facebook": "None", "youtube": "None", "website": "None", "summary": "None", "logo": "None", "latitude": 53.92565207847378, "longitude": -122.80322006885989}, "119308609RR0001": {"name": "ZION LUTHERAN CHURCH CANWOOD INC.", "designationCode": "C", "categoryCode": "32", "address": "BOX 358", "city": "CANWOOD", "province": "SK", "country": "CA", "postalCode": "S0J0K0", "twitter": "None", "instagram": "None", "facebook": "None", "youtube": "None", "website": "None", "summary": "None", "logo": "None", "latitude": 53.36680000000007, "longitude": -106.60110999999995}, "119308971RR0001": {"name": "ZION LUTHERAN CHURCH OF GOLDEN SPIKE, ALBERTA, CANADA", "designationCode": "C", "categoryCode": "32", "address": "PO BOX 2747", "city": "STONEY PLAIN", "province": "AB", "country": "CA", "postalCode": "T7Z1Y2", "twitter": "None", "instagram": "None", "facebook": "None", "youtube": "None", "website": "None", "summary": "None", "logo": "None", "latitude": 53.52878400000006, "longitude": -114.00552349999992}, "108230855RR0001": {"name": "ZION LUTHERAN CHURCH OF NORTH SOUTHEY INC.", "designationCode": "C", "categoryCode": "32", "address": "BOX 219", "city": "SOUTHEY", "province": "SK", "country": "CA", "postalCode": "S0G4P0", "twitter": "None", "instagram": "None", "facebook": "None", "youtube": "None", "website": "None", "summary": "None", "logo": "None", "latitude": 50.93338000000006, "longitude": -104.50109999999995}, "131819609RR0001": {"name": "ZION LUTHERAN CHURCH OF RIMBEY", "designationCode": "C", "categoryCode": "32", "address": "PO BOX 133", "city": "RIMBEY", "province": "AB", "country": "CA", "postalCode": "T0C2J0", "twitter": "None", "instagram": "None", "facebook": "None", "youtube": "None", "website": "None", "summary": "None", "logo": "None", "latitude": 52.63970000000006, "longitude": -114.23827999999997}, "830989711RR0001": {"name": "ZION LUTHERAN CHURCH OF SURREY BC", "designationCode": "C", "categoryCode": "32", "address": "5950 - 179TH ST", "city": "SURREY", "province": "BC", "country": "CA", "postalCode": "V3S4J9", "twitter": "None", "instagram": "None", "facebook": "None", "youtube": "None", "website": "None", "summary": "None", "logo": "None", "latitude": 49.110484043857085, "longitude": -122.72690998776632}, "129862603RR0001": {"name": "ZION LUTHERAN CHURCH OF WEYBURN INCORPORATED", "designationCode": "C", "categoryCode": "32", "address": "504 WINDSOR ST.", "city": "WEYBURN", "province": "SK", "country": "CA", "postalCode": "S4H0W2", "twitter": "None", "instagram": "None", "facebook": "None", "youtube": "None", "website": "None", "summary": "None", "logo": "None", "latitude": 49.668816281483565, "longitude": -103.85112271851644}, "119308641RR0001": {"name": "ZION LUTHERAN CHURCH,", "designationCode": "C", "categoryCode": "32", "address": "1251 AUGSBURG RD              RR 5", "city": "EGANVILLE", "province": "ON", "country": "CA", "postalCode": "K0J1T0", "twitter": "None", "instagram": "None", "facebook": "None", "youtube": "None", "website": "None", "summary": "None", "logo": "None", "latitude": 45.52864576487422, "longitude": -77.18316773714594}, "119308765RR0001": {"name": "ZION LUTHERAN CHURCH,", "designationCode": "C", "categoryCode": "32", "address": "BOX 231", "city": "ROSE VALLEY", "province": "SK", "country": "CA", "postalCode": "S0E1M0", "twitter": "None", "instagram": "None", "facebook": "None", "youtube": "None", "website": "None", "summary": "None", "logo": "None", "latitude": 52.59930444439391, "longitude": -103.257981}, "119308781RR0001": {"name": "ZION LUTHERAN CHURCH,", "designationCode": "C", "categoryCode": "32", "address": "BOX 131", "city": "WINDTHORST", "province": "SK", "country": "CA", "postalCode": "S0G5G0", "twitter": "None", "instagram": "None", "facebook": "None", "youtube": "None", "website": "None", "summary": "None", "logo": "None", "latitude": 51.066910000000064, "longitude": -104.94988999999998}, "119308799RR0001": {"name": "ZION LUTHERAN CHURCH,", "designationCode": "C", "categoryCode": "32", "address": "BOX 68", "city": "WOLSELEY", "province": "SK", "country": "CA", "postalCode": "S0G5H0", "twitter": "None", "instagram": "None", "facebook": "None", "youtube": "None", "website": "None", "summary": "None", "logo": "None", "latitude": 50.411354882397546, "longitude": -102.93411353717349}, "119308930RR0001": {"name": "ZION LUTHERAN CHURCH,", "designationCode": "C", "categoryCode": "32", "address": "412 GARDEN MEADOWS DR", "city": "WETASKIWIN", "province": "AB", "country": "CA", "postalCode": "T9A3L1", "twitter": "None", "instagram": "None", "facebook": "None", "youtube": "None", "website": "None", "summary": "None", "logo": "None", "latitude": 52.977952234548866, "longitude": -113.35409974744638}, "126634005RR0001": {"name": "ZION LUTHERAN CHURCH,", "designationCode": "C", "categoryCode": "32", "address": "2633 RTE 303", "city": "THORNE", "province": "QC", "country": "CA", "postalCode": "J0X2A0", "twitter": "None", "instagram": "None", "facebook": "None", "youtube": "None", "website": "None", "summary": "None", "logo": "None", "latitude": 45.80652139105867, "longitude": -76.36471779612752}, "129904090RR0001": {"name": "ZION LUTHERAN CHURCH,", "designationCode": "C", "categoryCode": "32", "address": "RR#1", "city": "HOLDEN", "province": "AB", "country": "CA", "postalCode": "T0B2C0", "twitter": "None", "instagram": "None", "facebook": "None", "youtube": "None", "website": "None", "summary": "None", "logo": "None", "latitude": 53.22769000000005, "longitude": -112.23652999999996}, "132387739RR0001": {"name": "ZION LUTHERAN CHURCH,", "designationCode": "C", "categoryCode": "32", "address": "BOX 450", "city": "BASHAW", "province": "AB", "country": "CA", "postalCode": "T0B0H0", "twitter": "None", "instagram": "None", "facebook": "None", "youtube": "None", "website": "None", "summary": "None", "logo": "None"}, "135463081RR0001": {"name": "ZION LUTHERAN CHURCH,", "designationCode": "C", "categoryCode": "32", "address": "37650 HURON STREET R.R.#3", "city": "DASHWOOD", "province": "ON", "country": "CA", "postalCode": "N0M1N0", "twitter": "None", "instagram": "None", "facebook": "None", "youtube": "None", "website": "None", "summary": "None", "logo": "None", "latitude": 43.32805188989698, "longitude": -81.62818834169798}, "119309011RR0001": {"name": "ZION MENNONITE CHURCH", "designationCode": "C", "categoryCode": "34", "address": "78-6TH AVE NE", "city": "SWIFT CURRENT", "province": "SK", "country": "CA", "postalCode": "S9H2L7", "twitter": "None", "instagram": "None", "facebook": "None", "youtube": "None", "website": "None", "summary": "None", "logo": "None", "latitude": 50.28328401070217, "longitude": -107.79209577018302}, "890336571RR0001": {"name": "ZION MENNONITE FELLOWSHIP CHURCH", "designationCode": "C", "categoryCode": "34", "address": "3515 AMENT LINE               RR 3", "city": "WALLENSTEIN", "province": "ON", "country": "CA", "postalCode": "N0B2S0", "twitter": "None", "instagram": "None", "facebook": "None", "youtube": "None", "website": "None", "summary": "None", "logo": "None", "latitude": 43.55935045715253, "longitude": -80.63871136066712}, "826771891RR0001": {"name": "ZION MENNONITE FELLOWSHIP INC.", "designationCode": "C", "categoryCode": "34", "address": "47 ARTHUR ST S.               PO BOX 38", "city": "ELMIRA", "province": "ON", "country": "CA", "postalCode": "N3B2Z5", "twitter": "None", "instagram": "None", "facebook": "None", "youtube": "None", "website": "None", "summary": "None", "logo": "None", "latitude": 43.59891434580772, "longitude": -80.5584974282131}, "891534646RR0001": {"name": "ZION MESSIANIC FELLOWSHIP", "designationCode": "C", "categoryCode": "39", "address": "MAIN PO BOX 2902", "city": "VANCOUVER", "province": "BC", "country": "CA", "postalCode": "V6B3X4", "twitter": "None", "instagram": "None", "facebook": "None", "youtube": "None", "website": "None", "summary": "None", "logo": "None", "latitude": 49.28024400000005, "longitude": -123.11294749999993}, "119309045RR0001": {"name": "ZION MINISTRIES (BRANTFORD) INCORPORATED", "designationCode": "C", "categoryCode": "39", "address": "61 SHERWOOD DR", "city": "BRANTFORD", "province": "ON", "country": "CA", "postalCode": "N3T1N3", "twitter": "None", "instagram": "None", "facebook": "None", "youtube": "None", "website": "None", "summary": "None", "logo": "None", "latitude": 43.13468276521999, "longitude": -80.27684942593314}, "107833394RR0029": {"name": "ZION PENTECOSTAL CHURCH", "designationCode": "C", "categoryCode": "36", "address": "PO BOX 23", "city": "STEPHENVILLE", "province": "NL", "country": "CA", "postalCode": "A2N2Y7", "twitter": "None", "instagram": "None", "facebook": "None", "youtube": "None", "website": "None", "summary": "None", "logo": "None", "latitude": 48.549003000000056, "longitude": -58.57539199999994}, "107833394RR0049": {"name": "ZION PENTECOSTAL CHURCH", "designationCode": "C", "categoryCode": "36", "address": "BOX 48", "city": "MORETON'S HARBOUR", "province": "NL", "country": "CA", "postalCode": "A0G3H0", "twitter": "None", "instagram": "None", "facebook": "None", "youtube": "None", "website": "None", "summary": "None", "logo": "None", "latitude": 49.55675100000006, "longitude": -54.86719399999993}, "867971533RR0001": {"name": "ZION PENTECOSTAL CHURCH", "designationCode": "C", "categoryCode": "36", "address": "11 OLD ROAD CRESCENT", "city": "GARNETT SETTLEMENT", "province": "NB", "country": "CA", "postalCode": "E2S1T8", "twitter": "None", "instagram": "None", "facebook": "None", "youtube": "None", "website": "None", "summary": "None", "logo": "None", "latitude": 45.31527933021574, "longitude": -65.84789863442955}, "893673327RR0001": {"name": "ZION PENTECOSTAL CHURCH", "designationCode": "C", "categoryCode": "36", "address": "BOX 69", "city": "RIVERS", "province": "MB", "country": "CA", "postalCode": "R0K1X0", "twitter": "None", "instagram": "None", "facebook": "None", "youtube": "None", "website": "None", "summary": "None", "logo": "None", "latitude": 49.55658299999999, "longitude": -99.0937665}, "108231077RR0001": {"name": "ZION PRESBYTERIAN CHURCH", "designationCode": "C", "categoryCode": "37", "address": "PO BOX 103", "city": "CHARLOTTETOWN", "province": "PE", "country": "CA", "postalCode": "C1A7K2", "twitter": "None", "instagram": "None", "facebook": "None", "youtube": "None", "website": "None", "summary": "None", "logo": "None", "latitude": 46.23659700000006, "longitude": -63.12815449999994}, "108231085RR0001": {"name": "ZION PRESBYTERIAN CHURCH", "designationCode": "C", "categoryCode": "37", "address": "14 MARGARET ST", "city": "ANGUS", "province": "ON", "country": "CA", "postalCode": "L0M1B0", "twitter": "None", "instagram": "None", "facebook": "None", "youtube": "None", "website": "None", "summary": "None", "logo": "None", "latitude": 44.31647578287943, "longitude": -79.88443040322679}, "119309110RR0001": {"name": "ZION PRESBYTERIAN CHURCH", "designationCode": "C", "categoryCode": "37", "address": "R.R.#5 NEW GLASGOW", "city": "PIC. CO.", "province": "NS", "country": "CA", "postalCode": "B2H5C8", "twitter": "None", "instagram": "None", "facebook": "None", "youtube": "None", "website": "None", "summary": "None", "logo": "None", "latitude": 45.39144300000005, "longitude": -62.16826849999994}, "135887842RR0001": {"name": "ZION PRESBYTERIAN CHURCH", "designationCode": "C", "categoryCode": "37", "address": "7547 MAIN ST", "city": "LOUISBOURG", "province": "NS", "country": "CA", "postalCode": "B1C1J5", "twitter": "None", "instagram": "None", "facebook": "None", "youtube": "None", "website": "None", "summary": "None", "logo": "None", "latitude": 45.91931511183575, "longitude": -59.97383350484743}, "119309136RR0001": {"name": "ZION PRESBYTERIAN CHURCH,", "designationCode": "C", "categoryCode": "37", "address": "2979 ROUTE 470", "city": "FORD BANK", "province": "NB", "country": "CA", "postalCode": "E4W3R5", "twitter": "None", "instagram": "None", "facebook": "None", "youtube": "None", "website": "None", "summary": "None", "logo": "None", "latitude": 46.495932981902534, "longitude": -64.9993079869674}, "119309144RR0001": {"name": "ZION PRESBYTERIAN CHURCH,", "designationCode": "C", "categoryCode": "37", "address": "19 BURNT CHURCH ROAD", "city": "NEW JERSEY", "province": "NB", "country": "CA", "postalCode": "E9C2J9", "twitter": "None", "instagram": "None", "facebook": "None", "youtube": "None", "website": "None", "summary": "None", "logo": "None", "latitude": 47.20724234378711, "longitude": -65.18658317093623}, "124776774RR0001": {"name": "ZION PRESBYTERIAN CHURCH,", "designationCode": "C", "categoryCode": "37", "address": "1046 TORRANCE RD", "city": "TORRANCE", "province": "ON", "country": "CA", "postalCode": "P0C1M0", "twitter": "None", "instagram": "None", "facebook": "None", "youtube": "None", "website": "None", "summary": "None", "logo": "None", "latitude": 44.994890053840415, "longitude": -79.56937844806417}, "891464448RR0001": {"name": "ZION PRESBYTERIAN CHURCH,", "designationCode": "C", "categoryCode": "37", "address": "12358 SIMCOE COUNTY ROAD 10   RR #1", "city": "STAYNER", "province": "ON", "country": "CA", "postalCode": "L0M1S0", "twitter": "None", "instagram": "None", "facebook": "None", "youtube": "None", "website": "None", "summary": "None", "logo": "None", "latitude": 44.425909228403064, "longitude": -80.08504676745237}, "889217105RR0001": {"name": "ZION SACRED HEART CHRISTIAN CHURCH INC.", "designationCode": "B", "categoryCode": "39", "address": "5-1179 FINCH AVE W", "city": "NORTH YORK", "province": "ON", "country": "CA", "postalCode": "M3J2G1", "twitter": "None", "instagram": "None", "facebook": "None", "youtube": "None", "website": "None", "summary": "None", "logo": "None", "latitude": 43.764423902088836, "longitude": -79.48682251720832}, "119309219RR0001": {"name": "ZION TABERNACLE", "designationCode": "C", "categoryCode": "36", "address": "860 WILLIAM ST", "city": "LONDON", "province": "ON", "country": "CA", "postalCode": "N5Y2S4", "twitter": "None", "instagram": "None", "facebook": "None", "youtube": "None", "website": "None", "summary": "None", "logo": "None", "latitude": 43.00209372912452, "longitude": -81.24132217897771}, "119309227RR0001": {"name": "ZION UNITED BAPTIST CHURCH,", "designationCode": "C", "categoryCode": "31", "address": "P.O.BOX 910", "city": "SOUTH BROOKFIELD", "province": "NS", "country": "CA", "postalCode": "B0T1X0", "twitter": "None", "instagram": "None", "facebook": "None", "youtube": "None", "website": "None", "summary": "None", "logo": "None", "latitude": 44.37838000000005, "longitude": -64.96909999999997}, "108153651RR0001": {"name": "ZION UNITED CHURCH", "designationCode": "C", "categoryCode": "44", "address": "401 BANCROFT STREET           PO BOX 1449", "city": "ASHCROFT", "province": "BC", "country": "CA", "postalCode": "V0K1A0", "twitter": "None", "instagram": "None", "facebook": "None", "youtube": "None", "website": "None", "summary": "None", "logo": "None", "latitude": 50.72231122391664, "longitude": -121.28367072972486}, "108231168RR0001": {"name": "ZION UNITED CHURCH", "designationCode": "C", "categoryCode": "44", "address": "106 PINE STREET", "city": "KINGSTON", "province": "ON", "country": "CA", "postalCode": "K7K1W7", "twitter": "None", "instagram": "None", "facebook": "None", "youtube": "None", "website": "None", "summary": "None", "logo": "None", "latitude": 44.2393515905997, "longitude": -76.49383741020836}, "108231242RR0001": {"name": "ZION UNITED CHURCH", "designationCode": "C", "categoryCode": "44", "address": "BOX 370", "city": "ARMSTRONG", "province": "BC", "country": "CA", "postalCode": "V0E1B0", "twitter": "None", "instagram": "None", "facebook": "None", "youtube": "None", "website": "None", "summary": "None", "logo": "None", "latitude": 50.44798500000006, "longitude": -119.19492799999993}, "119309300RR0001": {"name": "ZION UNITED CHURCH", "designationCode": "C", "categoryCode": "44", "address": "BOX 62", "city": "APPLE HILL", "province": "ON", "country": "CA", "postalCode": "K0C1B0", "twitter": "None", "instagram": "None", "facebook": "None", "youtube": "None", "website": "None", "summary": "None", "logo": "None", "latitude": 45.22938325782052, "longitude": -74.77766172111691}, "119309326RR0001": {"name": "ZION UNITED CHURCH", "designationCode": "C", "categoryCode": "44", "address": "69 PEARL ST N", "city": "HAMILTON", "province": "ON", "country": "CA", "postalCode": "L8R2Z1", "twitter": "None", "instagram": "None", "facebook": "None", "youtube": "None", "website": "None", "summary": "None", "logo": "None", "latitude": 43.26231150458762, "longitude": -79.88108405998591}, "119309334RR0001": {"name": "ZION UNITED CHURCH", "designationCode": "C", "categoryCode": "44", "address": "50 EBY CR.", "city": "NEW HAMBURG", "province": "ON", "country": "CA", "postalCode": "N3A1Z1", "twitter": "None", "instagram": "None", "facebook": "None", "youtube": "None", "website": "None", "summary": "None", "logo": "None", "latitude": 43.386471530439984, "longitude": -80.72237194463038}, "119309359RR0001": {"name": "ZION UNITED CHURCH", "designationCode": "C", "categoryCode": "44", "address": "6 VICTORIA AVE", "city": "CREDITON", "province": "ON", "country": "CA", "postalCode": "N0M1M0", "twitter": "None", "instagram": "None", "facebook": "None", "youtube": "None", "website": "None", "summary": "None", "logo": "None", "latitude": 43.29899246436589, "longitude": -81.54846452567945}, "119309425RR0001": {"name": "ZION UNITED CHURCH", "designationCode": "C", "categoryCode": "44", "address": "BOX 992", "city": "SUNDRIDGE", "province": "ON", "country": "CA", "postalCode": "P0A1Z0", "twitter": "None", "instagram": "None", "facebook": "None", "youtube": "None", "website": "None", "summary": "None", "logo": "None", "latitude": 45.75507926133678, "longitude": -79.41022764524283}, "119309474RR0001": {"name": "ZION UNITED CHURCH", "designationCode": "C", "categoryCode": "44", "address": "BOX 183", "city": "BEISEKER", "province": "AB", "country": "CA", "postalCode": "T0M0G0", "twitter": "None", "instagram": "None", "facebook": "None", "youtube": "None", "website": "None", "summary": "None", "logo": "None", "latitude": 51.386990000000026, "longitude": -113.52201999999994}, "131738510RR0001": {"name": "ZION UNITED CHURCH", "designationCode": "C", "categoryCode": "44", "address": "PO BOX 3", "city": "DOUGLAS", "province": "ON", "country": "CA", "postalCode": "K0J1S0", "twitter": "None", "instagram": "None", "facebook": "None", "youtube": "None", "website": "None", "summary": "None", "logo": "None", "latitude": 45.50876000000005, "longitude": -76.93874999999997}, "132502998RR0001": {"name": "ZION UNITED CHURCH", "designationCode": "C", "categoryCode": "44", "address": "9249 PERTH ROAD. 157", "city": "PALMERSTON", "province": "ON", "country": "CA", "postalCode": "N0G2P0", "twitter": "None", "instagram": "None", "facebook": "None", "youtube": "None", "website": "None", "summary": "None", "logo": "None", "latitude": 43.83623400000006, "longitude": -80.74050649999994}, "889514790RR0001": {"name": "ZION UNITED CHURCH", "designationCode": "C", "categoryCode": "44", "address": "7789 RTE 132 RR1", "city": "SAINTE-AGNES-DE-DUNDEE", "province": "QC", "country": "CA", "postalCode": "J0S1L0", "twitter": "None", "instagram": "None", "facebook": "None", "youtube": "None", "website": "None", "summary": "None", "logo": "None", "latitude": 45.03366789120978, "longitude": -74.45688270995836}, "108231259RR0001": {"name": "ZION UNITED CHURCH FOUNDATION INCORPORATED", "designationCode": "C", "categoryCode": "09", "address": "106 PINE ST", "city": "KINGSTON", "province": "ON", "country": "CA", "postalCode": "K7K1W7", "twitter": "None", "instagram": "None", "facebook": "None", "youtube": "None", "website": "None", "summary": "None", "logo": "None", "latitude": 44.2393515905997, "longitude": -76.49383741020836}, "119309284RR0001": {"name": "ZION UNITED CHURCH,", "designationCode": "C", "categoryCode": "44", "address": "2468 HILLSIDE RD", "city": "MARION BRIDGE", "province": "NS", "country": "CA", "postalCode": "B1K1C4", "twitter": "None", "instagram": "None", "facebook": "None", "youtube": "None", "website": "None", "summary": "None", "logo": "None", "latitude": 45.98319399477722, "longitude": -60.2025397413582}, "119309318RR0001": {"name": "ZION UNITED CHURCH,", "designationCode": "C", "categoryCode": "44", "address": "BOX 4003", "city": "CARNARVON", "province": "ON", "country": "CA", "postalCode": "K0M1J0", "twitter": "None", "instagram": "None", "facebook": "None", "youtube": "None", "website": "None", "summary": "None", "logo": "None", "latitude": 45.26073998080657, "longitude": -78.5768201129232}, "119309458RR0001": {"name": "ZION UNITED CHURCH,", "designationCode": "C", "categoryCode": "44", "address": "423 MAIN ST N", "city": "MOOSE JAW", "province": "SK", "country": "CA", "postalCode": "S6H0W5", "twitter": "None", "instagram": "None", "facebook": "None", "youtube": "None", "website": "None", "summary": "None", "logo": "None", "latitude": 50.39435372571244, "longitude": -105.53454572571243}, "140103227RR0001": {"name": "ZION UNITED CHURCH,", "designationCode": "C", "categoryCode": "44", "address": "10851 PINEHURST LINE          RR 3", "city": "CHATHAM", "province": "ON", "country": "CA", "postalCode": "N7M5J3", "twitter": "None", "instagram": "None", "facebook": "None", "youtube": "None", "website": "None", "summary": "None", "logo": "None", "latitude": 42.394594366257635, "longitude": -82.0735162664571}, "119309250RR0001": {"name": "ZION UNITED CHURCH, CEDAR HILL,", "designationCode": "C", "categoryCode": "44", "address": "4099 PANMURE RD", "city": "KINBURN", "province": "ON", "country": "CA", "postalCode": "K0A2H0", "twitter": "None", "instagram": "None", "facebook": "None", "youtube": "None", "website": "None", "summary": "None", "logo": "None", "latitude": 45.31104713474433, "longitude": -76.19778832087712}, "832035539RR0001": {"name": "ZION UNITED REFORMED CHURCH OF SHEFFIELD", "designationCode": "C", "categoryCode": "39", "address": "1238 OLD HIGHWAY 8", "city": "SHEFFIELD", "province": "ON", "country": "CA", "postalCode": "L0R1Z0", "twitter": "None", "instagram": "None", "facebook": "None", "youtube": "None", "website": "None", "summary": "None", "logo": "None", "latitude": 43.32473891790883, "longitude": -80.20539199156873}, "108230970RR0001": {"name": "ZION-MEMORIAL UNITED CHURCH", "designationCode": "C", "categoryCode": "44", "address": "37 FRANKLIN ST", "city": "CARLETON PLACE", "province": "ON", "country": "CA", "postalCode": "K7C1R6", "twitter": "None", "instagram": "None", "facebook": "None", "youtube": "None", "website": "None", "summary": "None", "logo": "None", "latitude": 45.140253996970245, "longitude": -76.1440986487966}, "809327075RR0001": {"name": "ZION'S HOPE STRICT AND PARTICULAR BAPTIST CHURCH", "designationCode": "C", "categoryCode": "31", "address": "PO BOX 303                    NOBLE STREET #202", "city": "NOBLEFORD", "province": "AB", "country": "CA", "postalCode": "T0L1S0", "twitter": "None", "instagram": "None", "facebook": "None", "youtube": "None", "website": "None", "summary": "None", "logo": "None", "latitude": 49.88098858728149, "longitude": -113.05483979516995}, "119309201RR0001": {"name": "ZION'S LUTHERAN CHURCH,", "designationCode": "C", "categoryCode": "32", "address": "PO BOX 392", "city": "LUNENBURG", "province": "NS", "country": "CA", "postalCode": "B0J2C0", "twitter": "None", "instagram": "None", "facebook": "None", "youtube": "None", "website": "None", "summary": "None", "logo": "None", "latitude": 44.37886006217898, "longitude": -64.31792993782098}, "119309532RR0001": {"name": "ZIRKA DANCE ENSEMBLE, INC", "designationCode": "C", "categoryCode": "22", "address": "PO BOX 293", "city": "DAUPHIN", "province": "MB", "country": "CA", "postalCode": "R7N2V2", "twitter": "None", "instagram": "None", "facebook": "None", "youtube": "None", "website": "None", "summary": "None", "logo": "None", "latitude": 51.150138000000055, "longitude": -100.04934049999993}, "119309540RR0001": {"name": "ZIV TZEDAKAH FOUNDATION", "designationCode": "B", "categoryCode": "03", "address": "24 COLLEGE VIEW AVENUE", "city": "TORONTO", "province": "ON", "country": "CA", "postalCode": "M5P1J4", "twitter": "None", "instagram": "None", "facebook": "None", "youtube": "None", "website": "None", "summary": "None", "logo": "None", "latitude": 43.70201426729745, "longitude": -79.40662628449414}, "897476560RR0001": {"name": "ZLC FOUNDATION", "designationCode": "A", "categoryCode": "23", "address": "1200 PARK PLACE               666 BURRARD STREET", "city": "VANCOUVER", "province": "BC", "country": "CA", "postalCode": "V6C2X8", "twitter": "None", "instagram": "None", "facebook": "None", "youtube": "None", "website": "None", "summary": "None", "logo": "None", "latitude": 49.28528994113935, "longitude": -123.11971991892224}, "119309557RR0001": {"name": "ZOAR MENNONITE CHURCH", "designationCode": "C", "categoryCode": "34", "address": "BOX 285", "city": "LANGHAM", "province": "SK", "country": "CA", "postalCode": "S0K2L0", "twitter": "None", "instagram": "None", "facebook": "None", "youtube": "None", "website": "None", "summary": "None", "logo": "None", "latitude": 52.405424999999994, "longitude": -106.9638075}, "119309565RR0001": {"name": "ZOAR MENNONITE CHURCH", "designationCode": "C", "categoryCode": "34", "address": "PO BOX 368", "city": "WALDHEIM", "province": "SK", "country": "CA", "postalCode": "S0K4R0", "twitter": "None", "instagram": "None", "facebook": "None", "youtube": "None", "website": "None", "summary": "None", "logo": "None", "latitude": 52.620700000000056, "longitude": -106.65605}, "119309607RR0001": {"name": "ZOE VALLE LIBRARY,", "designationCode": "C", "categoryCode": "50", "address": "BOX 369", "city": "CHESTER", "province": "NS", "country": "CA", "postalCode": "B0J1J0", "twitter": "None", "instagram": "None", "facebook": "None", "youtube": "None", "website": "None", "summary": "None", "logo": "None", "latitude": 44.549654888646664, "longitude": -64.2288348174421}, "777873688RR0001": {"name": "ZOKESI TRUST", "designationCode": "B", "categoryCode": "05", "address": "747 MANNING AVE", "city": "TORONTO", "province": "ON", "country": "CA", "postalCode": "M6G2W5", "twitter": "None", "instagram": "None", "facebook": "None", "youtube": "None", "website": "None", "summary": "None", "logo": "None", "latitude": 43.666665086877444, "longitude": -79.41695011001808}, "893198887RR0001": {"name": "ZOLFAM MATAN BCETER FOUNDATION", "designationCode": "B", "categoryCode": "53", "address": "6150 CR. BERNARD MERGLER", "city": "COTE SAINT LUC", "province": "QC", "country": "CA", "postalCode": "H3X4A5", "twitter": "None", "instagram": "None", "facebook": "None", "youtube": "None", "website": "None", "summary": "None", "logo": "None", "latitude": 45.48469546182707, "longitude": -73.65469609697635}, "119309623RR0001": {"name": "ZOLTY CHARITABLE FOUNDATION", "designationCode": "B", "categoryCode": "03", "address": "4122 BATHURST ST", "city": "TORONTO", "province": "ON", "country": "CA", "postalCode": "M3H3P2", "twitter": "None", "instagram": "None", "facebook": "None", "youtube": "None", "website": "None", "summary": "None", "logo": "None", "latitude": 43.74664643213689, "longitude": -79.43635814490146}, "136156809RR0001": {"name": "ZONE D'INTERVENTION PRIORITAIRE (ZIP) SAGUENAY-CHARLEVOIX", "designationCode": "C", "categoryCode": "59", "address": "CP 1242", "city": "LA BAIE", "province": "QC", "country": "CA", "postalCode": "G7B3P4", "twitter": "None", "instagram": "None", "facebook": "None", "youtube": "None", "website": "None", "summary": "None", "logo": "None", "latitude": 48.28750800000006, "longitude": -70.92716299999994}, "868628553RR0001": {"name": "ZONE LIBRE MEMPHREMAGOG", "designationCode": "C", "categoryCode": "57", "address": "306 - 95 RUE MERRY N", "city": "MAGOG", "province": "QC", "country": "CA", "postalCode": "J1X2E7", "twitter": "None", "instagram": "None", "facebook": "None", "youtube": "None", "website": "None", "summary": "None", "logo": "None", "latitude": 45.26733096333669, "longitude": -72.15545880704816}, "106734429RR0001": {"name": "ZONE LOISIR MONTEREGIE INC.", "designationCode": "C", "categoryCode": "99", "address": "3800 BOUL. CASAVANT OUEST", "city": "SAINT-HYACINTHE", "province": "QC", "country": "CA", "postalCode": "J2S8E3", "twitter": "None", "instagram": "None", "facebook": "None", "youtube": "None", "website": "None", "summary": "None", "logo": "None", "latitude": 45.62581576190177, "longitude": -72.98587191791172}, "894064062RR0001": {"name": "ZONTA CLUB OF CHATHAM FOUNDATION", "designationCode": "A", "categoryCode": "25", "address": "210-20 TRILLIUM VILLAGE", "city": "CHATHAM", "province": "ON", "country": "CA", "postalCode": "N7L4A1", "twitter": "None", "instagram": "None", "facebook": "None", "youtube": "None", "website": "None", "summary": "None", "logo": "None", "latitude": 42.3965013923073, "longitude": -82.21634311153731}, "867278368RR0001": {"name": "ZONTA CLUB OF GUELPH CHARITABLE FOUNDATION", "designationCode": "A", "categoryCode": "63", "address": "17A-SUITE 1195                218 SILVER CREEK PKWY N.", "city": "GUELPH", "province": "ON", "country": "CA", "postalCode": "N1H8E8", "twitter": "None", "instagram": "None", "facebook": "None", "youtube": "None", "website": "None", "summary": "None", "logo": "None", "latitude": 43.54344866910997, "longitude": -80.28531017701486}, "119309656RR0001": {"name": "ZONTA CLUB OF HAMILTON 1 SERVICE TRUST FUND", "designationCode": "A", "categoryCode": "65", "address": "P.O. BOX 89034 WESTDALE", "city": "HAMILTON", "province": "ON", "country": "CA", "postalCode": "L8S4R5", "twitter": "None", "instagram": "None", "facebook": "None", "youtube": "None", "website": "None", "summary": "None", "logo": "None", "latitude": 43.258530000000064, "longitude": -79.90213999999997}, "886483593RR0001": {"name": "ZONTA CLUB OF KITCHENER-WATERLOO CHARITABLE FOUNDATION", "designationCode": "A", "categoryCode": "21", "address": "5-420 ERB STREET WEST         SUITE 422", "city": "WATERLOO", "province": "ON", "country": "CA", "postalCode": "N2L6K6", "twitter": "None", "instagram": "None", "facebook": "None", "youtube": "None", "website": "None", "summary": "None", "logo": "None", "latitude": 43.4588100085332, "longitude": -80.53799039440979}}