{"838475770RR0001": {"name": "The Gospel Truth Ministries", "designationCode": "C", "categoryCode": "47", "address": "23 PENDRILL WAY", "city": "AJAX", "province": "ON", "country": "CA", "postalCode": "L1Z0K9", "twitter": "None", "instagram": "None", "facebook": "None", "youtube": "None", "website": "None", "summary": "None", "logo": "None", "latitude": 43.88290131862771, "longitude": -79.00694798485213}, "855891263RR0001": {"name": "The Gottdenker Family Foundation Inc.", "designationCode": "B", "categoryCode": "03", "address": "185 CARLINGVIEW DRIVE         UNIT 7", "city": "TORONTO", "province": "ON", "country": "CA", "postalCode": "M9W5E8", "twitter": "None", "instagram": "None", "facebook": "None", "youtube": "None", "website": "None", "summary": "None", "logo": "None", "latitude": 43.68211241745039, "longitude": -79.5933881579728}, "107951618RR0001": {"name": "The Governing Council of the Salvation Army in Canada / Conseil de direction de l'Arm\u00e9e du Salut du Canada", "designationCode": "C", "categoryCode": "40", "address": "2 OVERLEA BLVD                4TH FLOOR", "city": "TORONTO", "province": "ON", "country": "CA", "postalCode": "M4H1P4", "twitter": "None", "instagram": "None", "facebook": "None", "youtube": "None", "website": "None", "summary": "None", "logo": "None", "latitude": 43.70240076493152, "longitude": -79.35266780353714}, "133732800RR0001": {"name": "The Governor General's Performing Arts Awards Foundation/La Fondation des Prix du Gouverneur g\u00e9n\u00e9ral pour les arts du spectacle", "designationCode": "C", "categoryCode": "22", "address": "280 METCALFE ST.              SUITE 400", "city": "OTTAWA", "province": "ON", "country": "CA", "postalCode": "K2P1R7", "twitter": "None", "instagram": "None", "facebook": "None", "youtube": "None", "website": "None", "summary": "None", "logo": "None", "latitude": 45.415843450718555, "longitude": -75.69137681256818}, "108102864RR0001": {"name": "The Governors of The University of Calgary", "designationCode": "C", "categoryCode": "20", "address": "2500 UNIVERSITY DRIVE, NW", "city": "CALGARY", "province": "AB", "country": "CA", "postalCode": "T2N1N4", "twitter": "None", "instagram": "None", "facebook": "None", "youtube": "None", "website": "None", "summary": "None", "logo": "None", "latitude": 51.074918604189705, "longitude": -114.1284997045416}, "829791698RR0001": {"name": "The Grace of God Bethel Church Corp.", "designationCode": "C", "categoryCode": "39", "address": "1844 GRANT DR", "city": "REGINA", "province": "SK", "country": "CA", "postalCode": "S4S4V4", "twitter": "None", "instagram": "None", "facebook": "None", "youtube": "None", "website": "None", "summary": "None", "logo": "None", "latitude": 50.40797751875454, "longitude": -104.60593260935426}, "836132381RR0001": {"name": "The Grace Cafe of St. Thomas", "designationCode": "C", "categoryCode": "09", "address": "313 SUNSET DR", "city": "ST THOMAS", "province": "ON", "country": "CA", "postalCode": "N5R3C6", "twitter": "None", "instagram": "None", "facebook": "None", "youtube": "None", "website": "None", "summary": "None", "logo": "None", "latitude": 42.74951762894514, "longitude": -81.19216646869809}, "834655664RR0001": {"name": "The Grace Korean Church of Halifax", "designationCode": "C", "categoryCode": "39", "address": "7077 BAYERS RD", "city": "HALIFAX", "province": "NS", "country": "CA", "postalCode": "B3L2C5", "twitter": "None", "instagram": "None", "facebook": "None", "youtube": "None", "website": "None", "summary": "None", "logo": "None", "latitude": 44.653571431617316, "longitude": -63.62824235942637}, "830931978RR0001": {"name": "The Graham and Ruby DeLaet Foundation", "designationCode": "B", "categoryCode": "03", "address": "69 ONTARIO ST", "city": "ST CATHARINES", "province": "ON", "country": "CA", "postalCode": "L2R5J5", "twitter": "None", "instagram": "None", "facebook": "None", "youtube": "None", "website": "None", "summary": "None", "logo": "None", "latitude": 43.155956632494906, "longitude": -79.24778415670245}, "851154856RR0001": {"name": "The Graham Family Foundation", "designationCode": "B", "categoryCode": "03", "address": "1855 MERIVALE ROAD", "city": "OTTAWA", "province": "ON", "country": "CA", "postalCode": "K2G1E3", "twitter": "None", "instagram": "None", "facebook": "None", "youtube": "None", "website": "None", "summary": "None", "logo": "None", "latitude": 45.33583134058492, "longitude": -75.72457217958421}, "815865852RR0001": {"name": "The Graham Farquharson Foundation", "designationCode": "B", "categoryCode": "05", "address": "130 KING ST. W. 20TH FL, PO   BOX 430 STN FIRST CAN PLACE", "city": "TORONTO", "province": "ON", "country": "CA", "postalCode": "M5X1K1", "twitter": "None", "instagram": "None", "facebook": "None", "youtube": "None", "website": "None", "summary": "None", "logo": "None", "latitude": 43.64868300000006, "longitude": -79.38544399999994}, "118945591RR0001": {"name": "The Grand Falls Historical Society Inc.Soci\u00e9t\u00e9 Historique deGrand-Sault Inc.", "designationCode": "C", "categoryCode": "50", "address": "68 MADAWASKA ROAD             SUITE 100", "city": "GRAND FALLS", "province": "NB", "country": "CA", "postalCode": "E3Y1C6", "twitter": "None", "instagram": "None", "facebook": "None", "youtube": "None", "website": "None", "summary": "None", "logo": "None", "latitude": 47.05297203629466, "longitude": -67.73972247636166}, "825763717RR0001": {"name": "The Grand River Jazz Society Corp.", "designationCode": "C", "categoryCode": "22", "address": "5 - 420 ERB ST W", "city": "WATERLOO", "province": "ON", "country": "CA", "postalCode": "N2L6K6", "twitter": "None", "instagram": "None", "facebook": "None", "youtube": "None", "website": "None", "summary": "None", "logo": "None", "latitude": 43.4588100085332, "longitude": -80.53799039440979}, "757719695RR0001": {"name": "The Grant Morris Foundation", "designationCode": "B", "categoryCode": "05", "address": "397 SHEPPARD AVE", "city": "PICKERING", "province": "ON", "country": "CA", "postalCode": "L1V1E6", "twitter": "None", "instagram": "None", "facebook": "None", "youtube": "None", "website": "None", "summary": "None", "logo": "None", "latitude": 43.81884349409909, "longitude": -79.13161568814944}, "831939392RR0001": {"name": "The Graves Disease Foundation of Edmonton", "designationCode": "C", "categoryCode": "11", "address": "926 ARMITAGE CRT SW", "city": "EDMONTON", "province": "AB", "country": "CA", "postalCode": "T6W0K6", "twitter": "None", "instagram": "None", "facebook": "None", "youtube": "None", "website": "None", "summary": "None", "logo": "None", "latitude": 53.43118551875455, "longitude": -113.604462}, "811310960RR0001": {"name": "The Great Village Cemetery Company", "designationCode": "C", "categoryCode": "59", "address": "8268 HIGHWAY 2", "city": "GREAT VILLAGE", "province": "NS", "country": "CA", "postalCode": "B0M1L0", "twitter": "None", "instagram": "None", "facebook": "None", "youtube": "None", "website": "None", "summary": "None", "logo": "None", "latitude": 45.41541650996694, "longitude": -63.59785932271224}, "891755589RR0001": {"name": "The Greater Forest Lawn 55+ Society", "designationCode": "C", "categoryCode": "56", "address": "3425 26 AVE SE", "city": "CALGARY", "province": "AB", "country": "CA", "postalCode": "T2B2P2", "twitter": "None", "instagram": "None", "facebook": "None", "youtube": "None", "website": "None", "summary": "None", "logo": "None", "latitude": 51.030492539529256, "longitude": -113.9863725}, "849632740RR0001": {"name": "The Greater Fundy Ground Search & Rescue Association Inc.", "designationCode": "C", "categoryCode": "59", "address": "96 COURT STREET", "city": "SUSSEX", "province": "NB", "country": "CA", "postalCode": "E4E1N4", "twitter": "None", "instagram": "None", "facebook": "None", "youtube": "None", "website": "None", "summary": "None", "logo": "None", "latitude": 45.72072278766813, "longitude": -65.51915825936295}, "119235869RR0002": {"name": "The Greater Moncton Music Festival Inc.", "designationCode": "C", "categoryCode": "22", "address": "P.O. BOX 1457", "city": "MONCTON", "province": "NB", "country": "CA", "postalCode": "E1C8T6", "twitter": "None", "instagram": "None", "facebook": "None", "youtube": "None", "website": "None", "summary": "None", "logo": "None", "latitude": 46.08834900000005, "longitude": -64.77824149999994}, "140569260RR0001": {"name": "The Greater St.Albert Roman Catholic Separate School District No. 734", "designationCode": "C", "categoryCode": "20", "address": "6 ST VITAL AVE", "city": "ST ALBERT", "province": "AB", "country": "CA", "postalCode": "T8N1K2", "twitter": "None", "instagram": "None", "facebook": "None", "youtube": "None", "website": "None", "summary": "None", "logo": "None", "latitude": 53.63744915843415, "longitude": -113.63285123628057}, "844255695RR0001": {"name": "The Greater Toronto Philharmonic Orchestra", "designationCode": "C", "categoryCode": "22", "address": "1022 - 377 RIDELLE AVE", "city": "YORK", "province": "ON", "country": "CA", "postalCode": "M6B1K2", "twitter": "None", "instagram": "None", "facebook": "None", "youtube": "None", "website": "None", "summary": "None", "logo": "None", "latitude": 43.703128460195224, "longitude": -79.44515401616523}, "800805277RR0001": {"name": "The Green Fischer Family Trust", "designationCode": "B", "categoryCode": "05", "address": "64 MERTON ST", "city": "TORONTO", "province": "ON", "country": "CA", "postalCode": "M4S1A1", "twitter": "None", "instagram": "None", "facebook": "None", "youtube": "None", "website": "None", "summary": "None", "logo": "None", "latitude": 43.696549191268716, "longitude": -79.39413654705973}, "803359223RR0001": {"name": "The Greenwood Chamber Singers Society", "designationCode": "C", "categoryCode": "22", "address": "10026-97 AVENUE", "city": "EDMONTON", "province": "AB", "country": "CA", "postalCode": "T5K0B1", "twitter": "None", "instagram": "None", "facebook": "None", "youtube": "None", "website": "None", "summary": "None", "logo": "None", "latitude": 53.534082518754566, "longitude": -113.49249372300768}, "801220328RR0001": {"name": "The Greg Morris Foundation", "designationCode": "B", "categoryCode": "03", "address": "1828 MALLWOOD COURT", "city": "MISSISSAUGA", "province": "ON", "country": "CA", "postalCode": "L5J4A9", "twitter": "None", "instagram": "None", "facebook": "None", "youtube": "None", "website": "None", "summary": "None", "logo": "None", "latitude": 43.525662916440766, "longitude": -79.63900236883278}, "820520443RR0001": {"name": "The Gregg Zaun Foundation", "designationCode": "A", "categoryCode": "03", "address": "2-15 MISSISSAUGA RD N", "city": "MISSISSAUGA", "province": "ON", "country": "CA", "postalCode": "L5H2H5", "twitter": "None", "instagram": "None", "facebook": "None", "youtube": "None", "website": "None", "summary": "None", "logo": "None", "latitude": 43.5490328230169, "longitude": -79.5913820964441}, "891250771RR0001": {"name": "The Grenada Hospitals Assistance Fund", "designationCode": "C", "categoryCode": "19", "address": "125 THE QUEENSWAY             POBOX 15323 RPO QUEENSWAY HIGH", "city": "TORONTO", "province": "ON", "country": "CA", "postalCode": "M8Y0B4", "twitter": "None", "instagram": "None", "facebook": "None", "youtube": "None", "website": "None", "summary": "None", "logo": "None"}, "817144181RR0001": {"name": "The Grenadier Foundation", "designationCode": "B", "categoryCode": "03", "address": "1500 AVENUE ROAD              P.O. BOX 1330", "city": "TORONTO", "province": "ON", "country": "CA", "postalCode": "M5M0A1", "twitter": "None", "instagram": "None", "facebook": "None", "youtube": "None", "website": "None", "summary": "None", "logo": "None", "latitude": 43.72280114764277, "longitude": -79.41587383989241}, "816132815RR0001": {"name": "The Grieving Parents Society (of Edmonton)", "designationCode": "B", "categoryCode": "09", "address": "1812 47 ST NW", "city": "EDMONTON", "province": "AB", "country": "CA", "postalCode": "T6L3J3", "twitter": "None", "instagram": "None", "facebook": "None", "youtube": "None", "website": "None", "summary": "None", "logo": "None", "latitude": 53.449857346096174, "longitude": -113.41299304250077}, "801806191RR0001": {"name": "The Grindstone Award Foundation", "designationCode": "C", "categoryCode": "09", "address": "555 KNOWLES RD", "city": "KELOWNA", "province": "BC", "country": "CA", "postalCode": "V1W1H4", "twitter": "None", "instagram": "None", "facebook": "None", "youtube": "None", "website": "None", "summary": "None", "logo": "None", "latitude": 49.82000568884548, "longitude": -119.49235752582368}, "811357847RR0001": {"name": "The Grove : A Church Community", "designationCode": "C", "categoryCode": "39", "address": "PO BOX 21042 RPO MAPLERIDGE", "city": "PETERBOROUGH", "province": "ON", "country": "CA", "postalCode": "K9J8M7", "twitter": "None", "instagram": "None", "facebook": "None", "youtube": "None", "website": "None", "summary": "None", "logo": "None", "latitude": 44.27831890484371, "longitude": -78.37831606488032}, "854155652RR0001": {"name": "The Grove Cemetery", "designationCode": "C", "categoryCode": "59", "address": "5832 3RD LINE RR 1", "city": "HILLSBURGH", "province": "ON", "country": "CA", "postalCode": "N0B1Z0", "twitter": "None", "instagram": "None", "facebook": "None", "youtube": "None", "website": "None", "summary": "None", "logo": "None", "latitude": 43.7474985125804, "longitude": -80.18155726123793}, "140813536RR0001": {"name": "The Grove Church", "designationCode": "C", "categoryCode": "31", "address": "20784 93 AVE", "city": "LANGLEY", "province": "BC", "country": "CA", "postalCode": "V1M2W5", "twitter": "None", "instagram": "None", "facebook": "None", "youtube": "None", "website": "None", "summary": "None", "logo": "None", "latitude": 49.17121047619646, "longitude": -122.64749202123605}, "843416611RR0001": {"name": "The Growing Tree Preschool Co-Operative Ltd.", "designationCode": "C", "categoryCode": "01", "address": "BOX 8", "city": "ESTERHAZY", "province": "SK", "country": "CA", "postalCode": "S0A0X0", "twitter": "None", "instagram": "None", "facebook": "None", "youtube": "None", "website": "None", "summary": "None", "logo": "None", "latitude": 50.65157000000005, "longitude": -102.05784999999997}, "803602358RR0001": {"name": "The Guelph Giants Special Hockey Foundation", "designationCode": "C", "categoryCode": "56", "address": "35 HARVARD ROAD               PO BOX 21001 CAMPUS", "city": "GUELPH", "province": "ON", "country": "CA", "postalCode": "N1G4T3", "twitter": "None", "instagram": "None", "facebook": "None", "youtube": "None", "website": "None", "summary": "None", "logo": "None", "latitude": 43.52407310470837, "longitude": -80.22229025815085}, "845435007RR0001": {"name": "The Guesthouse Shelter", "designationCode": "C", "categoryCode": "01", "address": "522 ELIZABETH ST", "city": "MIDLAND", "province": "ON", "country": "CA", "postalCode": "L4R2A1", "twitter": "None", "instagram": "None", "facebook": "None", "youtube": "None", "website": "None", "summary": "None", "logo": "None", "latitude": 44.748151963081064, "longitude": -79.88497306421544}, "724929492RR0001": {"name": "The Gwen Simmonds Foundation", "designationCode": "C", "categoryCode": "21", "address": "116 LISGAR ST                 SUITE 200", "city": "OTTAWA", "province": "ON", "country": "CA", "postalCode": "K2P0C2", "twitter": "None", "instagram": "None", "facebook": "None", "youtube": "None", "website": "None", "summary": "None", "logo": "None", "latitude": 45.41954658921473, "longitude": -75.69054167234127}, "837390319RR0001": {"name": "The GRA Charitable Trust", "designationCode": "B", "categoryCode": "05", "address": "4 MAIMONIDES COURT", "city": "THORNHILL", "province": "ON", "country": "CA", "postalCode": "L4J4X8", "twitter": "None", "instagram": "None", "facebook": "None", "youtube": "None", "website": "None", "summary": "None", "logo": "None", "latitude": 43.809687711639384, "longitude": -79.44167537443002}, "718228695RR0001": {"name": "The H. John McDonald Foundation", "designationCode": "B", "categoryCode": "05", "address": "130 KING STREET WEST          20TH FLOOR", "city": "TORONTO", "province": "ON", "country": "CA", "postalCode": "M5X1K1", "twitter": "None", "instagram": "None", "facebook": "None", "youtube": "None", "website": "None", "summary": "None", "logo": "None", "latitude": 43.64798216515656, "longitude": -79.38336717805407}, "831567623RR0001": {"name": "The Hadassah House Society", "designationCode": "C", "categoryCode": "57", "address": "11 MEADOW LANE", "city": "MURPHY LAKE", "province": "NS", "country": "CA", "postalCode": "B4N3V8", "twitter": "None", "instagram": "None", "facebook": "None", "youtube": "None", "website": "None", "summary": "None", "logo": "None", "latitude": 44.90024279736299, "longitude": -64.51508248130277}, "843751116RR0001": {"name": "The Haibrydge Charitable Trust", "designationCode": "B", "categoryCode": "05", "address": "31 SKAGWAY AVE", "city": "SCARBOROUGH", "province": "ON", "country": "CA", "postalCode": "M1M3T9", "twitter": "None", "instagram": "None", "facebook": "None", "youtube": "None", "website": "None", "summary": "None", "logo": "None", "latitude": 43.72960079987315, "longitude": -79.24257151093562}, "807997598RR0001": {"name": "The Halatsis Family Foundation", "designationCode": "B", "categoryCode": "03", "address": "84A CRESCENT RD", "city": "TORONTO", "province": "ON", "country": "CA", "postalCode": "M4W1T5", "twitter": "None", "instagram": "None", "facebook": "None", "youtube": "None", "website": "None", "summary": "None", "logo": "None", "latitude": 43.67791323038022, "longitude": -79.38437195882966}, "825135338RR0001": {"name": "The Halifax Women's History Society", "designationCode": "C", "categoryCode": "59", "address": "PO BOX 60022                  RPO PROFESS CENTRE", "city": "HALIFAX", "province": "NS", "country": "CA", "postalCode": "B3H4R7", "twitter": "None", "instagram": "None", "facebook": "None", "youtube": "None", "website": "None", "summary": "None", "logo": "None", "latitude": 44.645478000000054, "longitude": -63.576552499999934}, "809777246RR0001": {"name": "The Hall Family Foundation", "designationCode": "B", "categoryCode": "03", "address": "M30-1510 VENETIAN BOULEVARD", "city": "POINT EDWARD", "province": "ON", "country": "CA", "postalCode": "N7T7X8", "twitter": "None", "instagram": "None", "facebook": "None", "youtube": "None", "website": "None", "summary": "None", "logo": "None", "latitude": 42.991963722425325, "longitude": -82.41326738787342}, "845251222RR0001": {"name": "The Hamilton Dream Center", "designationCode": "C", "categoryCode": "09", "address": "627 MAIN STREET EAST,", "city": "HAMILTON", "province": "ON", "country": "CA", "postalCode": "L8M1J5", "twitter": "None", "instagram": "None", "facebook": "None", "youtube": "None", "website": "None", "summary": "None", "logo": "None", "latitude": 43.24916603416224, "longitude": -79.84545463015762}, "802057182RR0001": {"name": "The Hamilton Fellowships", "designationCode": "C", "categoryCode": "39", "address": "136 HOMEWOOD AVE,", "city": "HAMILTON", "province": "ON", "country": "CA", "postalCode": "L8P2M5", "twitter": "None", "instagram": "None", "facebook": "None", "youtube": "None", "website": "None", "summary": "None", "logo": "None", "latitude": 43.25103714351649, "longitude": -79.88891549388316}, "831876909RR0001": {"name": "The Hamilton Korean Church", "designationCode": "C", "categoryCode": "39", "address": "668 UPPER WENTWORTH ST", "city": "HAMILTON", "province": "ON", "country": "CA", "postalCode": "L9A4V5", "twitter": "None", "instagram": "None", "facebook": "None", "youtube": "None", "website": "None", "summary": "None", "logo": "None", "latitude": 43.22875769193255, "longitude": -79.85966674164666}, "760392696RR0001": {"name": "The Hamilton Vietnamese Gospel Church", "designationCode": "C", "categoryCode": "39", "address": "35 HAWKSWOOD TRAIL", "city": "HAMILTON", "province": "ON", "country": "CA", "postalCode": "L9B2P4", "twitter": "None", "instagram": "None", "facebook": "None", "youtube": "None", "website": "None", "summary": "None", "logo": "None", "latitude": 43.20781981626178, "longitude": -79.9258581891339}, "817470628RR0001": {"name": "The Hammer Band-From Violence to Violins", "designationCode": "C", "categoryCode": "22", "address": "226 BALLIOL STREET            SUITE 301", "city": "TORONTO", "province": "ON", "country": "CA", "postalCode": "M4S1C5", "twitter": "None", "instagram": "None", "facebook": "None", "youtube": "None", "website": "None", "summary": "None", "logo": "None", "latitude": 43.698863209013645, "longitude": -79.38900797766742}, "851607804RR0001": {"name": "The Hands of the Lord Independent Ministries", "designationCode": "C", "categoryCode": "36", "address": "51 GOLDSBORO ROAD,", "city": "TORONTO", "province": "ON", "country": "CA", "postalCode": "M9L1A6", "twitter": "None", "instagram": "None", "facebook": "None", "youtube": "None", "website": "None", "summary": "None", "logo": "None", "latitude": 43.75355138216297, "longitude": -79.56372696583777}, "828186932RR0001": {"name": "The Hantsport and Area Community Food Bank Society", "designationCode": "C", "categoryCode": "09", "address": "PO BOX 728", "city": "HANTSPORT", "province": "NS", "country": "CA", "postalCode": "B0P1P0", "twitter": "None", "instagram": "None", "facebook": "None", "youtube": "None", "website": "None", "summary": "None", "logo": "None", "latitude": 45.054843212991415, "longitude": -64.17704290496583}, "801371618RR0001": {"name": "The Happy Liver Society", "designationCode": "C", "categoryCode": "01", "address": "999 WEST BROADWAY             SUITE 720", "city": "VANCOUVER", "province": "BC", "country": "CA", "postalCode": "V5Z1K5", "twitter": "None", "instagram": "None", "facebook": "None", "youtube": "None", "website": "None", "summary": "None", "logo": "None", "latitude": 49.2638495656414, "longitude": -123.1257525584567}, "118981273RR0001": {"name": "The Harbour", "designationCode": "C", "categoryCode": "36", "address": "249 BRUCE AVE", "city": "KINCARDINE", "province": "ON", "country": "CA", "postalCode": "N2Z2P2", "twitter": "None", "instagram": "None", "facebook": "None", "youtube": "None", "website": "None", "summary": "None", "logo": "None", "latitude": 44.162619575704895, "longitude": -81.6482802807079}, "846447118RR0001": {"name": "The Harbour Christian Church Inc.", "designationCode": "C", "categoryCode": "39", "address": "6 DOUGLAS AVE", "city": "SAINT JOHN", "province": "NB", "country": "CA", "postalCode": "E2K1E4", "twitter": "None", "instagram": "None", "facebook": "None", "youtube": "None", "website": "None", "summary": "None", "logo": "None", "latitude": 45.2747718856541, "longitude": -66.07850854841605}, "801108184RR0001": {"name": "The Harmony Collaboration", "designationCode": "C", "categoryCode": "50", "address": "1403 - 2045 LAKE SHORE BLVD W", "city": "ETOBICOKE", "province": "ON", "country": "CA", "postalCode": "M8V2Z6", "twitter": "None", "instagram": "None", "facebook": "None", "youtube": "None", "website": "None", "summary": "None", "logo": "None", "latitude": 43.6086218892631, "longitude": -79.49033377478737}, "815893003RR0001": {"name": "The Harold and Beverly Krugel Foundation", "designationCode": "B", "categoryCode": "25", "address": "2100 - 350 ALBERT ST", "city": "OTTAWA", "province": "ON", "country": "CA", "postalCode": "K1R1A4", "twitter": "None", "instagram": "None", "facebook": "None", "youtube": "None", "website": "None", "summary": "None", "logo": "None", "latitude": 45.41332607969947, "longitude": -75.71158691322}, "854306396RR0001": {"name": "The Harris-Taylor Family Foundation", "designationCode": "B", "categoryCode": "05", "address": "333 BAY STREET, SUITE 3400", "city": "TORONTO", "province": "ON", "country": "CA", "postalCode": "M5H2S7", "twitter": "None", "instagram": "None", "facebook": "None", "youtube": "None", "website": "None", "summary": "None", "logo": "None", "latitude": 43.65025349737428, "longitude": -79.38084819908858}, "859077810RR0001": {"name": "The Harrison Lewis Coastal Discovery Centre Society", "designationCode": "C", "categoryCode": "50", "address": "339 SANDY BAY RD RR 1", "city": "PORT JOLI", "province": "NS", "country": "CA", "postalCode": "B0T1S0", "twitter": "None", "instagram": "None", "facebook": "None", "youtube": "None", "website": "None", "summary": "None", "logo": "None", "latitude": 43.8148775204853, "longitude": -64.89738047703318}, "891417545RR0001": {"name": "The Harvest Mission Centre & Church", "designationCode": "C", "categoryCode": "39", "address": "110 MORNELLE CRT., APT 907", "city": "SCARBOROUGH", "province": "ON", "country": "CA", "postalCode": "M1E4R1", "twitter": "None", "instagram": "None", "facebook": "None", "youtube": "None", "website": "None", "summary": "None", "logo": "None", "latitude": 43.786493025535236, "longitude": -79.1936680594663}, "849309935RR0001": {"name": "The Harvey and Jody Dales Family Philanthropic Foundation", "designationCode": "B", "categoryCode": "03", "address": "508-1001 WEST BROADWAY", "city": "VANCOUVER", "province": "BC", "country": "CA", "postalCode": "V6H4B1", "twitter": "None", "instagram": "None", "facebook": "None", "youtube": "None", "website": "None", "summary": "None", "logo": "None", "latitude": 49.263497176401465, "longitude": -123.12621931125425}, "761255926RR0001": {"name": "The Harvey and Mary Ellen Hunt Foundation", "designationCode": "B", "categoryCode": "03", "address": "PO BOX 1501", "city": "WOODSTOCK", "province": "ON", "country": "CA", "postalCode": "N4S0A7", "twitter": "None", "instagram": "None", "facebook": "None", "youtube": "None", "website": "None", "summary": "None", "logo": "None", "latitude": 43.13010300000006, "longitude": -80.75657149999994}, "863557302RR0001": {"name": "The Hastings North Area Planning Association", "designationCode": "C", "categoryCode": "59", "address": "2620 EAST HASTINGS ST", "city": "VANCOUVER", "province": "BC", "country": "CA", "postalCode": "V5K1Z6", "twitter": "None", "instagram": "None", "facebook": "None", "youtube": "None", "website": "None", "summary": "None", "logo": "None", "latitude": 49.281050437039696, "longitude": -123.05131335049288}, "852903970RR0001": {"name": "The Hawn Foundation Canada", "designationCode": "C", "categoryCode": "21", "address": "1200 200 BURRARD STREET       PO BOX 48600", "city": "VANCOUVER", "province": "BC", "country": "CA", "postalCode": "V7X1T2", "twitter": "None", "instagram": "None", "facebook": "None", "youtube": "None", "website": "None", "summary": "None", "logo": "None", "latitude": 49.28797693363747, "longitude": -123.1156542976228}, "849694799RR0001": {"name": "The Healing Oasis Program", "designationCode": "C", "categoryCode": "09", "address": "678 MOHAWK RD", "city": "ANCASTER", "province": "ON", "country": "CA", "postalCode": "L9G2X3", "twitter": "None", "instagram": "None", "facebook": "None", "youtube": "None", "website": "None", "summary": "None", "logo": "None", "latitude": 43.23139279819972, "longitude": -79.95899688022973}, "808648802RR0001": {"name": "The Healing Seed", "designationCode": "C", "categoryCode": "09", "address": "4314 40 AVE", "city": "STONY PLAIN", "province": "AB", "country": "CA", "postalCode": "T7Z1J7", "twitter": "None", "instagram": "None", "facebook": "None", "youtube": "None", "website": "None", "summary": "None", "logo": "None", "latitude": 53.5401465212074, "longitude": -113.9946525}, "830311429RR0001": {"name": "The Hearn Family Foundation", "designationCode": "B", "categoryCode": "03", "address": "3840 - 855 2 ST SW", "city": "CALGARY", "province": "AB", "country": "CA", "postalCode": "T2P4K7", "twitter": "None", "instagram": "None", "facebook": "None", "youtube": "None", "website": "None", "summary": "None", "logo": "None", "latitude": 51.04920186667524, "longitude": -114.0676309458328}, "804446060RR0001": {"name": "The Heart of Hawthorne Foundation", "designationCode": "A", "categoryCode": "03", "address": "2111 HAWTHORNE AVENUE", "city": "PORT COQUITLAM", "province": "BC", "country": "CA", "postalCode": "V3C1W3", "twitter": "None", "instagram": "None", "facebook": "None", "youtube": "None", "website": "None", "summary": "None", "logo": "None", "latitude": 49.25706676199798, "longitude": -122.7756845980613}, "802049510RR0001": {"name": "The Heart to Heart Foundation", "designationCode": "C", "categoryCode": "21", "address": "156 SHELBOURNE AVE.", "city": "TORONTO", "province": "ON", "country": "CA", "postalCode": "M6B2N1", "twitter": "None", "instagram": "None", "facebook": "None", "youtube": "None", "website": "None", "summary": "None", "logo": "None", "latitude": 43.71530216515656, "longitude": -79.43211945504639}, "835806936RR0001": {"name": "The Heart Research Institute (CAN)", "designationCode": "C", "categoryCode": "11", "address": "11 KING ST W, STE 700, BOX 27 COLLINS BARROW TORONTO LLP", "city": "TORONTO", "province": "ON", "country": "CA", "postalCode": "M5H4C7", "twitter": "None", "instagram": "None", "facebook": "None", "youtube": "None", "website": "None", "summary": "None", "logo": "None"}, "898464052RR0001": {"name": "The Heart's Content Mizzen Heritage Society Inc.", "designationCode": "C", "categoryCode": "50", "address": "154 MAIN ROAD                 PO BOX 31", "city": "HEART'S CONTENT", "province": "NL", "country": "CA", "postalCode": "A0B1Z0", "twitter": "None", "instagram": "None", "facebook": "None", "youtube": "None", "website": "None", "summary": "None", "logo": "None", "latitude": 47.428712611615545, "longitude": -53.85642497973783}, "760475491RR0001": {"name": "The Hellenic Initiative Canada / L'initiative hell\u00e9nique du Canada", "designationCode": "C", "categoryCode": "09", "address": "3700-800 PLACE VICTORIA", "city": "MONTREAL", "province": "QC", "country": "CA", "postalCode": "H4Z1E9", "twitter": "None", "instagram": "None", "facebook": "None", "youtube": "None", "website": "None", "summary": "None", "logo": "None", "latitude": 45.51239400000006, "longitude": -73.55469049999994}, "888943198RR0001": {"name": "The Help and Legal Centre of Northumberland", "designationCode": "C", "categoryCode": "59", "address": "1005 ELGIN STREET WEST        SUITE 301", "city": "COBOURG", "province": "ON", "country": "CA", "postalCode": "K9A5J4", "twitter": "None", "instagram": "None", "facebook": "None", "youtube": "None", "website": "None", "summary": "None", "logo": "None", "latitude": 43.97188465712273, "longitude": -78.19666857643591}, "824811665RR0001": {"name": "The Helpalittle Foundation", "designationCode": "B", "categoryCode": "05", "address": "6160 EASTMONT DRIVE", "city": "WEST VANCOUVER", "province": "BC", "country": "CA", "postalCode": "V7W1X3", "twitter": "None", "instagram": "None", "facebook": "None", "youtube": "None", "website": "None", "summary": "None", "logo": "None", "latitude": 49.36271454674261, "longitude": -123.28279255886072}, "821289451RR0001": {"name": "The Helping Hand Network Society", "designationCode": "C", "categoryCode": "47", "address": "3769 COMMERCIAL STREET", "city": "VANCOUVER", "province": "BC", "country": "CA", "postalCode": "V5N4G1", "twitter": "None", "instagram": "None", "facebook": "None", "youtube": "None", "website": "None", "summary": "None", "logo": "None", "latitude": 49.251060733279466, "longitude": -123.0680738523859}, "806475968RR0001": {"name": "The Helping Hands Philippines", "designationCode": "C", "categoryCode": "11", "address": "621 - 35 BRIAN PECK CRES", "city": "EAST YORK", "province": "ON", "country": "CA", "postalCode": "M4G0A5", "twitter": "None", "instagram": "None", "facebook": "None", "youtube": "None", "website": "None", "summary": "None", "logo": "None", "latitude": 43.714338158779924, "longitude": -79.35471184676}, "801600107RR0001": {"name": "The Hendrik and Daphne Dykhuizen Private Foundation", "designationCode": "B", "categoryCode": "03", "address": "327 BREEZEHILL AVENUE S.      UNIT PH-3", "city": "OTTAWA", "province": "ON", "country": "CA", "postalCode": "K1Y1R6", "twitter": "None", "instagram": "None", "facebook": "None", "youtube": "None", "website": "None", "summary": "None", "logo": "None", "latitude": 45.39622254760801, "longitude": -75.7128803861737}, "826889636RR0001": {"name": "The Henry and Gertrude Sawatzky Family Foundation Inc.", "designationCode": "B", "categoryCode": "03", "address": "284 QUILCHENA DRIVE", "city": "KELOWNA", "province": "BC", "country": "CA", "postalCode": "V1W4Y9", "twitter": "None", "instagram": "None", "facebook": "None", "youtube": "None", "website": "None", "summary": "None", "logo": "None", "latitude": 49.79010139206992, "longitude": -119.52184562591911}, "821568250RR0001": {"name": "The Henry and Sylvia Waks Family Foundation", "designationCode": "B", "categoryCode": "03", "address": "15 MALLORY CRESCENT", "city": "TORONTO", "province": "ON", "country": "CA", "postalCode": "M4G3L6", "twitter": "None", "instagram": "None", "facebook": "None", "youtube": "None", "website": "None", "summary": "None", "logo": "None", "latitude": 43.69634005799534, "longitude": -79.36878854997391}, "847489499RR0001": {"name": "The Henry Ramer Foundation", "designationCode": "B", "categoryCode": "03", "address": "101-5407 EGLINTON AVE W", "city": "TORONTO", "province": "ON", "country": "CA", "postalCode": "M9C5K6", "twitter": "None", "instagram": "None", "facebook": "None", "youtube": "None", "website": "None", "summary": "None", "logo": "None", "latitude": 43.661858772597405, "longitude": -79.59173539145377}, "855817482RR0001": {"name": "The Hensen Foundation", "designationCode": "B", "categoryCode": "03", "address": "55 PLANT FARM BLVD", "city": "BRANTFORD", "province": "ON", "country": "CA", "postalCode": "N3S7W2", "twitter": "None", "instagram": "None", "facebook": "None", "youtube": "None", "website": "None", "summary": "None", "logo": "None", "latitude": 43.1562035166174, "longitude": -80.21590168151555}, "844714030RR0001": {"name": "The Henslow-Brown Foundation", "designationCode": "B", "categoryCode": "03", "address": "11415 SIXTH LINE", "city": "ACTON", "province": "ON", "country": "CA", "postalCode": "L7J2L7", "twitter": "None", "instagram": "None", "facebook": "None", "youtube": "None", "website": "None", "summary": "None", "logo": "None", "latitude": 43.62395100000006, "longitude": -80.07851149999993}, "858004724RR0001": {"name": "The Herbert and District Health - Care Auxiliary", "designationCode": "C", "categoryCode": "19", "address": "P.O. BOX 554", "city": "HERBERT", "province": "SK", "country": "CA", "postalCode": "S0H2A0", "twitter": "None", "instagram": "None", "facebook": "None", "youtube": "None", "website": "None", "summary": "None", "logo": "None", "latitude": 50.42651921542417, "longitude": -107.22535903213169}, "844821413RR0001": {"name": "The Herbert S. and Jean W. Lamb Charitable Foundation", "designationCode": "B", "categoryCode": "55", "address": "380 WELLINGTON STREET         12TH FLOOR", "city": "LONDON", "province": "ON", "country": "CA", "postalCode": "N6A5B5", "twitter": "None", "instagram": "None", "facebook": "None", "youtube": "None", "website": "None", "summary": "None", "logo": "None", "latitude": 42.98403487844074, "longitude": -81.24475227780037}, "820712354RR0001": {"name": "The Heuver Family Foundation", "designationCode": "B", "categoryCode": "05", "address": "BOX 2340", "city": "STRATHMORE", "province": "AB", "country": "CA", "postalCode": "T1P1K3", "twitter": "None", "instagram": "None", "facebook": "None", "youtube": "None", "website": "None", "summary": "None", "logo": "None", "latitude": 51.041247000000055, "longitude": -113.40029149999994}, "828683698RR0001": {"name": "The Hieros Foundation", "designationCode": "B", "categoryCode": "05", "address": "2 - 5110 ALDERFEILD PL", "city": "WEST VANCOUVER", "province": "BC", "country": "CA", "postalCode": "V7W2W7", "twitter": "None", "instagram": "None", "facebook": "None", "youtube": "None", "website": "None", "summary": "None", "logo": "None", "latitude": 49.347464228143565, "longitude": -123.25511000138496}, "802507145RR0001": {"name": "The High School at Vancouver Island University Association", "designationCode": "C", "categoryCode": "20", "address": "900 FIFTH ST                  BUILDING 350", "city": "NANAIMO", "province": "BC", "country": "CA", "postalCode": "V9R5S5", "twitter": "None", "instagram": "None", "facebook": "None", "youtube": "None", "website": "None", "summary": "None", "logo": "None", "latitude": 49.154814551531814, "longitude": -123.97002666146297}, "843678301RR0001": {"name": "The Highwater Foundation / La Fondation Highwater", "designationCode": "B", "categoryCode": "03", "address": "32A LAKESHORE RD", "city": "BEACONSFIELD", "province": "QC", "country": "CA", "postalCode": "H9W4H3", "twitter": "None", "instagram": "None", "facebook": "None", "youtube": "None", "website": "None", "summary": "None", "logo": "None", "latitude": 45.427040907317156, "longitude": -73.83630568951378}, "814094173RR0001": {"name": "The Hill 70 Memorial/La C\u00f4te 70 Memorial", "designationCode": "C", "categoryCode": "59", "address": "P.O. BOX 73", "city": "KINGSTON", "province": "ON", "country": "CA", "postalCode": "K7L5J7", "twitter": "None", "instagram": "None", "facebook": "None", "youtube": "None", "website": "None", "summary": "None", "logo": "None", "latitude": 44.23153200000006, "longitude": -76.47933049999993}, "844353680RR0001": {"name": "The Historical Society of Church River Inc.", "designationCode": "C", "categoryCode": "50", "address": "402 BURNT CHURCH RD", "city": "BURNT CHURCH", "province": "NB", "country": "CA", "postalCode": "E9G2G2", "twitter": "None", "instagram": "None", "facebook": "None", "youtube": "None", "website": "None", "summary": "None", "logo": "None", "latitude": 47.19690280930821, "longitude": -65.14381771259167}, "851577288RR0001": {"name": "The Hockeyville Legacy Foundation", "designationCode": "A", "categoryCode": "25", "address": "4 HIGHLAND PARK DR", "city": "DUNDAS", "province": "ON", "country": "CA", "postalCode": "L9H3L8", "twitter": "None", "instagram": "None", "facebook": "None", "youtube": "None", "website": "None", "summary": "None", "logo": "None", "latitude": 43.25761602080337, "longitude": -79.97056052207277}, "821477494RR0001": {"name": "The Hogervorst Foundation", "designationCode": "B", "categoryCode": "03", "address": "86508 ST-HELEN'S LINE         RR 1", "city": "LUCKNOW", "province": "ON", "country": "CA", "postalCode": "N0G2H0", "twitter": "None", "instagram": "None", "facebook": "None", "youtube": "None", "website": "None", "summary": "None", "logo": "None", "latitude": 43.93564185599543, "longitude": -81.48487523226741}, "837156157RR0001": {"name": "The Holy Confessors of Transylvania", "designationCode": "C", "categoryCode": "39", "address": "1873 BRIARCROOK CRES", "city": "MISSISSAUGA", "province": "ON", "country": "CA", "postalCode": "L4X1X3", "twitter": "None", "instagram": "None", "facebook": "None", "youtube": "None", "website": "None", "summary": "None", "logo": "None", "latitude": 43.629968943389635, "longitude": -79.5880996011886}, "834279150RR0001": {"name": "The Holy Cross Cemetery Trust", "designationCode": "C", "categoryCode": "59", "address": "101-120 EILEEN STUBBS AVE", "city": "DARTMOUTH", "province": "NS", "country": "CA", "postalCode": "B3B1Y1", "twitter": "None", "instagram": "None", "facebook": "None", "youtube": "None", "website": "None", "summary": "None", "logo": "None", "latitude": 44.69607583816166, "longitude": -63.57429891508445}, "107876476RR0087": {"name": "The Holy Family of Jesus, Mary and Joseph", "designationCode": "C", "categoryCode": "38", "address": "208 PRENTICE AVENUE", "city": "SAULT STE MARIE", "province": "ON", "country": "CA", "postalCode": "P6C4P9", "twitter": "None", "instagram": "None", "facebook": "None", "youtube": "None", "website": "None", "summary": "None", "logo": "None", "latitude": 46.53696837829651, "longitude": -84.37136184912593}, "853149615RR0001": {"name": "The Holy Remnant Apostolic Church of Jesus Christ", "designationCode": "C", "categoryCode": "39", "address": "11 - 6665 TOMKEN RD", "city": "MISSISSAUGA", "province": "ON", "country": "CA", "postalCode": "L5T2C4", "twitter": "None", "instagram": "None", "facebook": "None", "youtube": "None", "website": "None", "summary": "None", "logo": "None", "latitude": 43.658761126031344, "longitude": -79.67561427015433}, "809450000RR0001": {"name": "The Holy Trinity Christian Ministries Inc.", "designationCode": "C", "categoryCode": "39", "address": "562 JONES AVENUE,", "city": "TORONTO", "province": "ON", "country": "CA", "postalCode": "M4J3H1", "twitter": "None", "instagram": "None", "facebook": "None", "youtube": "None", "website": "None", "summary": "None", "logo": "None", "latitude": 43.6785023716314, "longitude": -79.33959574536891}, "828431015RR0001": {"name": "The Home Depot Canada Foundation / Fondation Home Depot Canada", "designationCode": "B", "categoryCode": "03", "address": "900-1 CONCORDE GATE", "city": "TORONTO", "province": "ON", "country": "CA", "postalCode": "M3C4H9", "twitter": "None", "instagram": "None", "facebook": "None", "youtube": "None", "website": "None", "summary": "None", "logo": "None", "latitude": 43.72932254616569, "longitude": -79.32924960782503}, "830768495RR0001": {"name": "The Homenko Fund, Inc.", "designationCode": "B", "categoryCode": "03", "address": "204 - 952 MAIN STREET", "city": "WINNIPEG", "province": "MB", "country": "CA", "postalCode": "R2W3P4", "twitter": "None", "instagram": "None", "facebook": "None", "youtube": "None", "website": "None", "summary": "None", "logo": "None", "latitude": 49.91135085651219, "longitude": -97.13292027231778}, "867288243RR0001": {"name": "The Homer Fund - Canada / Fonds Homer Canada", "designationCode": "C", "categoryCode": "09", "address": "900-1 CONCORDE GATE", "city": "TORONTO", "province": "ON", "country": "CA", "postalCode": "M3C4H9", "twitter": "None", "instagram": "None", "facebook": "None", "youtube": "None", "website": "None", "summary": "None", "logo": "None", "latitude": 43.72932254616569, "longitude": -79.32924960782503}, "869406181RR0001": {"name": "The Honey & Leonard Wolfe Family Charitable Foundation", "designationCode": "B", "categoryCode": "03", "address": "493 SPADINA RD", "city": "TORONTO", "province": "ON", "country": "CA", "postalCode": "M5P2W6", "twitter": "None", "instagram": "None", "facebook": "None", "youtube": "None", "website": "None", "summary": "None", "logo": "None", "latitude": 43.69134197613822, "longitude": -79.41376928057034}, "830917001RR0001": {"name": "The Hope Exchange StreetLevel Network", "designationCode": "C", "categoryCode": "09", "address": "PO BOX 21217 RPO MEADOWVALE", "city": "MISSISSAUGA", "province": "ON", "country": "CA", "postalCode": "L5N6A2", "twitter": "None", "instagram": "None", "facebook": "None", "youtube": "None", "website": "None", "summary": "None", "logo": "None", "latitude": 43.6057725179135, "longitude": -79.75966853445514}}