{"894945633RR0029": {"name": "EAST YORK CHINESE ALLIANCE CHURCH OF THE CHRISTIAN AND MISSIONARY ALLIANCE IN CANADA", "designationCode": "C", "categoryCode": "39", "address": "306 RIVERDALE AVE.", "city": "TORONTO", "province": "ON", "country": "CA", "postalCode": "M4J1A2", "twitter": "None", "instagram": "None", "facebook": "None", "youtube": "None", "website": "None", "summary": "None", "logo": "None", "latitude": 43.67143193202134, "longitude": -79.34097168249747}, "847091725RR0001": {"name": "EAST YORK CONCERT BAND", "designationCode": "C", "categoryCode": "22", "address": "27 MACNAUGHTON RD", "city": "TORONTO", "province": "ON", "country": "CA", "postalCode": "M4G3H5", "twitter": "None", "instagram": "None", "facebook": "None", "youtube": "None", "website": "None", "summary": "None", "logo": "None", "latitude": 43.70661476741302, "longitude": -79.37238525295764}, "107274839RR0001": {"name": "EAST YORK LEARNING EXPERIENCE", "designationCode": "C", "categoryCode": "59", "address": "266 DONLANDS AVE", "city": "EAST YORK", "province": "ON", "country": "CA", "postalCode": "M4J5B1", "twitter": "None", "instagram": "None", "facebook": "None", "youtube": "None", "website": "None", "summary": "None", "logo": "None", "latitude": 43.68978187647883, "longitude": -79.34115590556246}, "129139366RR0001": {"name": "EAST YORK MEALS ON WHEELS", "designationCode": "C", "categoryCode": "09", "address": "52 - 2 THORNCLIFFE PARK DR", "city": "EAST YORK", "province": "ON", "country": "CA", "postalCode": "M4H1H2", "twitter": "None", "instagram": "None", "facebook": "None", "youtube": "None", "website": "None", "summary": "None", "logo": "None", "latitude": 43.705938515464986, "longitude": -79.35141902775693}, "138366984RR0001": {"name": "EAST YORK MENTAL HEALTH COUNSELLING SERVICES AGENCY", "designationCode": "C", "categoryCode": "11", "address": "1245 DANFORTH AVENUE", "city": "TORONTO", "province": "ON", "country": "CA", "postalCode": "M4J1M8", "twitter": "None", "instagram": "None", "facebook": "None", "youtube": "None", "website": "None", "summary": "None", "logo": "None", "latitude": 43.68178180930822, "longitude": -79.33076784748114}, "118891639RR0001": {"name": "EAST YORK/SCARBOROUGH B.M.E. CHURCH", "designationCode": "C", "categoryCode": "39", "address": "7 WOOD FERNWAY", "city": "NORTH YORK", "province": "ON", "country": "CA", "postalCode": "M2J4P6", "twitter": "None", "instagram": "None", "facebook": "None", "youtube": "None", "website": "None", "summary": "None", "logo": "None", "latitude": 43.79105583680535, "longitude": -79.35913810087149}, "107274904RR0001": {"name": "EAST ZORRA MENNONITE CHURCH", "designationCode": "C", "categoryCode": "34", "address": "657173 15TH LINE", "city": "TAVISTOCK", "province": "ON", "country": "CA", "postalCode": "N0B2R0", "twitter": "None", "instagram": "None", "facebook": "None", "youtube": "None", "website": "None", "summary": "None", "logo": "None", "latitude": 43.32854956757463, "longitude": -80.80832231421296}, "898744008RR0001": {"name": "EAST-CENTRAL SASKATCHEWAN ASSOCIATION FOR THE REHABILITATION OF THE BRAIN INJURED INC.", "designationCode": "C", "categoryCode": "11", "address": "231-1ST AVE WEST", "city": "KELVINGTON", "province": "SK", "country": "CA", "postalCode": "S0A1W0", "twitter": "None", "instagram": "None", "facebook": "None", "youtube": "None", "website": "None", "summary": "None", "logo": "None", "latitude": 52.16284964708811, "longitude": -103.52584277625681}, "118890565RR0001": {"name": "EASTEND ACTIVITY CENTRE INC.", "designationCode": "C", "categoryCode": "56", "address": "BOX 504", "city": "EASTEND", "province": "SK", "country": "CA", "postalCode": "S0N0T0", "twitter": "None", "instagram": "None", "facebook": "None", "youtube": "None", "website": "None", "summary": "None", "logo": "None", "latitude": 49.51367000000005, "longitude": -108.82889999999998}, "118890573RR0001": {"name": "EASTEND ARTS COUNCIL INC.", "designationCode": "C", "categoryCode": "50", "address": "P.O. BOX 415", "city": "EASTEND", "province": "SK", "country": "CA", "postalCode": "S0N0T0", "twitter": "None", "instagram": "None", "facebook": "None", "youtube": "None", "website": "None", "summary": "None", "logo": "None", "latitude": 49.51367000000005, "longitude": -108.82889999999998}, "118890599RR0001": {"name": "EASTEND CEMETERY IMPROVEMENT LEAGUE", "designationCode": "C", "categoryCode": "59", "address": "BOX 405", "city": "EASTEND", "province": "SK", "country": "CA", "postalCode": "S0N0T0", "twitter": "None", "instagram": "None", "facebook": "None", "youtube": "None", "website": "None", "summary": "None", "logo": "None", "latitude": 49.51367000000005, "longitude": -108.82889999999998}, "118890623RR0001": {"name": "EASTEND HISTORICAL MUSEUM & CULTURE CENTRE INC.", "designationCode": "C", "categoryCode": "52", "address": "BOX 214", "city": "EASTEND", "province": "SK", "country": "CA", "postalCode": "S0N0T0", "twitter": "None", "instagram": "None", "facebook": "None", "youtube": "None", "website": "None", "summary": "None", "logo": "None", "latitude": 49.51367000000005, "longitude": -108.82889999999998}, "132867045RR0001": {"name": "EASTEND MEMORIAL HALL CO-OPERATIVE", "designationCode": "C", "categoryCode": "56", "address": "BOX 404", "city": "EASTEND", "province": "SK", "country": "CA", "postalCode": "S0N0T0", "twitter": "None", "instagram": "None", "facebook": "None", "youtube": "None", "website": "None", "summary": "None", "logo": "None", "latitude": 49.51367000000005, "longitude": -108.82889999999998}, "107273278RR0001": {"name": "EASTEND PASTORAL CHARGE", "designationCode": "C", "categoryCode": "44", "address": "PO BOX 11", "city": "EASTEND", "province": "SK", "country": "CA", "postalCode": "S0N0T0", "twitter": "None", "instagram": "None", "facebook": "None", "youtube": "None", "website": "None", "summary": "None", "logo": "None", "latitude": 49.51367000000005, "longitude": -108.82889999999998}, "118890656RR0001": {"name": "EASTEND RINK COMPLEX INC.", "designationCode": "C", "categoryCode": "56", "address": "BOX 517", "city": "EASTEND", "province": "SK", "country": "CA", "postalCode": "S0N0T0", "twitter": "None", "instagram": "None", "facebook": "None", "youtube": "None", "website": "None", "summary": "None", "logo": "None", "latitude": 49.51367000000005, "longitude": -108.82889999999998}, "118890904RR0001": {"name": "EASTER SEAL HOUSE SOCIETY", "designationCode": "C", "categoryCode": "01", "address": "3981 OAK ST", "city": "VANCOUVER", "province": "BC", "country": "CA", "postalCode": "V6H4H5", "twitter": "None", "instagram": "None", "facebook": "None", "youtube": "None", "website": "None", "summary": "None", "logo": "None", "latitude": 49.25013370191587, "longitude": -123.12757204555918}, "118890672RR0001": {"name": "EASTERN CANADA ASSOCIATION OF THE DEAF INCORPORATED", "designationCode": "C", "categoryCode": "11", "address": "15 BONNIE BRAE DR", "city": "DARTMOUTH", "province": "NS", "country": "CA", "postalCode": "B2W1E3", "twitter": "None", "instagram": "None", "facebook": "None", "youtube": "None", "website": "None", "summary": "None", "logo": "None", "latitude": 44.64860166443543, "longitude": -63.53453599307509}, "118829225RR0001": {"name": "EASTERN CHARLOTTE ASSOCIATION FOR COMMUNITY LIVING INC.", "designationCode": "C", "categoryCode": "11", "address": "401-124 MAIN STREET", "city": "ST GEORGE", "province": "NB", "country": "CA", "postalCode": "E5C3S3", "twitter": "None", "instagram": "None", "facebook": "None", "youtube": "None", "website": "None", "summary": "None", "logo": "None", "latitude": 45.133777878123624, "longitude": -66.81089525685279}, "140783861RR0001": {"name": "EASTERN CHARLOTTE WATERWAYS INC", "designationCode": "C", "categoryCode": "52", "address": "881 MAIN STREET", "city": "BLACKS HARBOUR", "province": "NB", "country": "CA", "postalCode": "E5H1E6", "twitter": "None", "instagram": "None", "facebook": "None", "youtube": "None", "website": "None", "summary": "None", "logo": "None", "latitude": 45.0549239203359, "longitude": -66.78654186981372}, "861354769RR0001": {"name": "EASTERN COUNTIES (ON) YOUTH FOR CHRIST INCORPORATED", "designationCode": "C", "categoryCode": "49", "address": "BOX 564                       21, 111 CONCESSION 5", "city": "NORTH LANCASTER", "province": "ON", "country": "CA", "postalCode": "K0C1Z0", "twitter": "None", "instagram": "None", "facebook": "None", "youtube": "None", "website": "None", "summary": "None", "logo": "None", "latitude": 45.259024304443386, "longitude": -74.46734784757852}, "107273351RR0001": {"name": "EASTERN COUNTIES REGIONAL LIBRARY", "designationCode": "C", "categoryCode": "50", "address": "PO BAG 2500                   390 MURRAY ST", "city": "MULGRAVE", "province": "NS", "country": "CA", "postalCode": "B0E2G0", "twitter": "None", "instagram": "None", "facebook": "None", "youtube": "None", "website": "None", "summary": "None", "logo": "None", "latitude": 45.60845567473584, "longitude": -61.39467653439337}, "129343836RR0001": {"name": "EASTERN EDGE ART GALLERY INC", "designationCode": "C", "categoryCode": "50", "address": "72 HARBOUR DRIVE              PO BOX 2641 STN C", "city": "ST. JOHN'S", "province": "NL", "country": "CA", "postalCode": "A1C6K1", "twitter": "None", "instagram": "None", "facebook": "None", "youtube": "None", "website": "None", "summary": "None", "logo": "None", "latitude": 47.56448415342823, "longitude": -52.70546771042458}, "894885359RR0001": {"name": "EASTERN GATE CHURCH INC.", "designationCode": "C", "categoryCode": "39", "address": "759 EMPIRE AVE.", "city": "ST. JOHN'S", "province": "NL", "country": "CA", "postalCode": "A1E1X3", "twitter": "None", "instagram": "None", "facebook": "None", "youtube": "None", "website": "None", "summary": "None", "logo": "None", "latitude": 47.542419171475906, "longitude": -52.7633880188128}, "118890706RR0001": {"name": "EASTERN GUYSBOROUGH PASTORAL CHARGE", "designationCode": "C", "categoryCode": "44", "address": "RR 2", "city": "GUYSBOROUGH", "province": "NS", "country": "CA", "postalCode": "B0H1N0", "twitter": "None", "instagram": "None", "facebook": "None", "youtube": "None", "website": "None", "summary": "None", "logo": "None", "latitude": 45.37026600000006, "longitude": -61.50474349999993}, "118890714RR0001": {"name": "EASTERN INTERLAKE HANDI-VAN INC.", "designationCode": "C", "categoryCode": "09", "address": "BOX 1928", "city": "GIMLI", "province": "MB", "country": "CA", "postalCode": "R0C1B0", "twitter": "None", "instagram": "None", "facebook": "None", "youtube": "None", "website": "None", "summary": "None", "logo": "None", "latitude": 50.30677349294383, "longitude": -96.92898988377391}, "139192538RR0001": {"name": "EASTERN KINGS COMMUNITY COALITION INC.", "designationCode": "C", "categoryCode": "09", "address": "P O BOX 682", "city": "SOURIS", "province": "PE", "country": "CA", "postalCode": "C0A2B0", "twitter": "None", "instagram": "None", "facebook": "None", "youtube": "None", "website": "None", "summary": "None", "logo": "None", "latitude": 46.35451000000006, "longitude": -62.25295999999997}, "888694791RR0001": {"name": "EASTERN KINGS HEALTH FOUNDATION INC.", "designationCode": "A", "categoryCode": "13", "address": "PO BOX 640", "city": "SOURIS", "province": "PE", "country": "CA", "postalCode": "C0A2B0", "twitter": "None", "instagram": "None", "facebook": "None", "youtube": "None", "website": "None", "summary": "None", "logo": "None", "latitude": 46.35451000000006, "longitude": -62.25295999999997}, "897030631RR0001": {"name": "EASTERN LAND BUDDHIST ASSOCIATION CANADA", "designationCode": "C", "categoryCode": "35", "address": "9703 PEGGY'S COVE RD", "city": "HACKETTS COVE", "province": "NS", "country": "CA", "postalCode": "B3Z3L5", "twitter": "None", "instagram": "None", "facebook": "None", "youtube": "None", "website": "None", "summary": "None", "logo": "None", "latitude": 44.56052226374775, "longitude": -63.93261034159878}, "886282631RR0001": {"name": "EASTERN MEMORIAL HOSPITAL FOUNDATION", "designationCode": "A", "categoryCode": "13", "address": "R R #1", "city": "CANSO", "province": "NS", "country": "CA", "postalCode": "B0H1H0", "twitter": "None", "instagram": "None", "facebook": "None", "youtube": "None", "website": "None", "summary": "None", "logo": "None", "latitude": 45.643443709263856, "longitude": -61.4208012834455}, "118890771RR0001": {"name": "EASTERN NEWFOUNDLAND SCIENCE FAIRS COUNCIL Inc.", "designationCode": "C", "categoryCode": "21", "address": "250 LEMARCHANT RD.            P.O. BOX 26036", "city": "ST. JOHNS", "province": "NL", "country": "CA", "postalCode": "A1E0A5", "twitter": "None", "instagram": "None", "facebook": "None", "youtube": "None", "website": "None", "summary": "None", "logo": "None", "latitude": 47.554007530959574, "longitude": -52.723557861676724}, "118890805RR0001": {"name": "EASTERN ONTARIO DRAMA LEAGUE", "designationCode": "C", "categoryCode": "22", "address": "5581 DOCTOR LEACH DR", "city": "MANOTICK", "province": "ON", "country": "CA", "postalCode": "K4M1J6", "twitter": "None", "instagram": "None", "facebook": "None", "youtube": "None", "website": "None", "summary": "None", "logo": "None", "latitude": 45.221210777165226, "longitude": -75.68523838903054}, "134820927RR0001": {"name": "EASTERN ONTARIO FOREST GROUP", "designationCode": "C", "categoryCode": "52", "address": "P.O. BAG 2111, 10 CAMPUS DRIVE", "city": "KEMPTVILLE", "province": "ON", "country": "CA", "postalCode": "K0G1J0", "twitter": "None", "instagram": "None", "facebook": "None", "youtube": "None", "website": "None", "summary": "None", "logo": "None", "latitude": 45.00883010885985, "longitude": -75.64039514422774}, "892586280RR0001": {"name": "EASTERN ONTARIO ITALIAN CANADIAN CHARTIABLE FOUNDATION", "designationCode": "A", "categoryCode": "03", "address": "101-865 GLADSTONE", "city": "OTTAWA", "province": "ON", "country": "CA", "postalCode": "K1R7T4", "twitter": "None", "instagram": "None", "facebook": "None", "youtube": "None", "website": "None", "summary": "None", "logo": "None", "latitude": 45.40504778547144, "longitude": -75.71085593935642}, "870653227RR0001": {"name": "EASTERN ONTARIO TRAILS ALLIANCE", "designationCode": "C", "categoryCode": "56", "address": "POSTAL BAG 1444", "city": "TWEED", "province": "ON", "country": "CA", "postalCode": "K0K3J0", "twitter": "None", "instagram": "None", "facebook": "None", "youtube": "None", "website": "None", "summary": "None", "logo": "None", "latitude": 44.51884534534283, "longitude": -77.11593882304619}, "129602470RR0001": {"name": "EASTERN OTTAWA RESOURCE CENTRE/CENTRE DES RESSOURCES DE L'EST D'OTTAWA", "designationCode": "C", "categoryCode": "59", "address": "215 - 1980 OGILVIE RD", "city": "GLOUCESTER", "province": "ON", "country": "CA", "postalCode": "K1J9L3", "twitter": "None", "instagram": "None", "facebook": "None", "youtube": "None", "website": "None", "summary": "None", "logo": "None", "latitude": 45.434534907501735, "longitude": -75.6104361865614}, "139828610RR0001": {"name": "EASTERN PASSAGE BAPTIST CHURCH", "designationCode": "C", "categoryCode": "39", "address": "385 COW BAY RD", "city": "EASTERN PASSAGE", "province": "NS", "country": "CA", "postalCode": "B3G1J4", "twitter": "None", "instagram": "None", "facebook": "None", "youtube": "None", "website": "None", "summary": "None", "logo": "None", "latitude": 44.612193427405046, "longitude": -63.472678859541936}, "888699592RR0001": {"name": "EASTERN PASSAGE/COW BAY BENEVOLENT SOCIETY", "designationCode": "C", "categoryCode": "09", "address": "48 CHERYLANN", "city": "EASTERN PASSAGE", "province": "NS", "country": "CA", "postalCode": "B3G1S2", "twitter": "None", "instagram": "None", "facebook": "None", "youtube": "None", "website": "None", "summary": "None", "logo": "None", "latitude": 44.619996812395286, "longitude": -63.450740684402064}, "895640944RR0001": {"name": "EASTERN REGIONAL INTEGRATED HEALTH AUTHORITY", "designationCode": "C", "categoryCode": "19", "address": "MOUNT PEARL SQUARE            760 TOPSAIL ROAD", "city": "ST. JOHN'S", "province": "NL", "country": "CA", "postalCode": "A1N4J5", "twitter": "None", "instagram": "None", "facebook": "None", "youtube": "None", "website": "None", "summary": "None", "logo": "None", "latitude": 47.523191904323134, "longitude": -52.7779878575576}, "867093544RR0001": {"name": "EASTERN SCHOOL DISTRICT EDUCATION FOUNDATION INC", "designationCode": "C", "categoryCode": "21", "address": "PO BOX 8600", "city": "CHARLOTTETOWN", "province": "PE", "country": "CA", "postalCode": "C1A8V7", "twitter": "None", "instagram": "None", "facebook": "None", "youtube": "None", "website": "None", "summary": "None", "logo": "None", "latitude": 46.23659700000006, "longitude": -63.12815449999994}, "863901773RR0001": {"name": "EASTERN SHORE & MUSQUODOBOIT VALLEY LITERACY NETWORK", "designationCode": "C", "categoryCode": "21", "address": "218 NAUGLERS SETTLEMENT RD", "city": "MOSER", "province": "NS", "country": "CA", "postalCode": "B0J2K0", "twitter": "None", "instagram": "None", "facebook": "None", "youtube": "None", "website": "None", "summary": "None", "logo": "None", "latitude": 44.98478088207605, "longitude": -62.25765472514341}, "118890847RR0001": {"name": "EASTERN SHORE FOOD BANK", "designationCode": "C", "categoryCode": "09", "address": "9389 HIGHWAY 7", "city": "HEAD OF JEDDORE", "province": "NS", "country": "CA", "postalCode": "B0J1P0", "twitter": "None", "instagram": "None", "facebook": "None", "youtube": "None", "website": "None", "summary": "None", "logo": "None", "latitude": 44.77659348990111, "longitude": -63.0689644432454}, "896716719RR0001": {"name": "EASTERN SHORE GROUND SEARCH AND RESCUE TEAM", "designationCode": "C", "categoryCode": "59", "address": "5688 HWY7                     SITE 5 BOX 0", "city": "CHEZZETCOOK", "province": "NS", "country": "CA", "postalCode": "B0J1N0", "twitter": "None", "instagram": "None", "facebook": "None", "youtube": "None", "website": "None", "summary": "None", "logo": "None", "latitude": 44.74421700000005, "longitude": -63.24492949999993}, "122639909RR0001": {"name": "EASTERN SHORE RECREATION COMMISSION", "designationCode": "C", "categoryCode": "56", "address": "PO BOX 143", "city": "MUSQUODOBOIT HARBOUR", "province": "NS", "country": "CA", "postalCode": "B0J2L0", "twitter": "None", "instagram": "None", "facebook": "None", "youtube": "None", "website": "None", "summary": "None", "logo": "None", "latitude": 44.786579926712626, "longitude": -63.14877998110121}, "107273666RR0002": {"name": "EASTERN SYNOD OF THE EVANGELICAL LUTHERAN CHURCH IN CANADA /SYNODE DE L'EST DE L'EGLISE EVANGELIQUE LUTHERIENNE AU CANADA", "designationCode": "C", "categoryCode": "32", "address": "74 WEBER ST W,", "city": "KITCHENER", "province": "ON", "country": "CA", "postalCode": "N2H3Z3", "twitter": "None", "instagram": "None", "facebook": "None", "youtube": "None", "website": "None", "summary": "None", "logo": "None", "latitude": 43.45353827589579, "longitude": -80.49125180431655}, "893412643RR0001": {"name": "EASTERN TIP TRAILS ASSOCIATION", "designationCode": "C", "categoryCode": "56", "address": "32 WHITMAN ST                 PO B 71", "city": "CANSO", "province": "NS", "country": "CA", "postalCode": "B0H1H0", "twitter": "None", "instagram": "None", "facebook": "None", "youtube": "None", "website": "None", "summary": "None", "logo": "None", "latitude": 45.33432617430318, "longitude": -60.99703080783632}, "107273740RR0001": {"name": "EASTERN VALLEY BAPTIST ASSOCIATION", "designationCode": "C", "categoryCode": "31", "address": "PO BOX 56", "city": "KENTVILLE", "province": "NS", "country": "CA", "postalCode": "B4N3V9", "twitter": "None", "instagram": "None", "facebook": "None", "youtube": "None", "website": "None", "summary": "None", "logo": "None", "latitude": 45.07663200000006, "longitude": -64.49369299999994}, "871877999RR0001": {"name": "EASTGATE CHRISTIAN FELLOWSHIP ASSOCIATION", "designationCode": "C", "categoryCode": "39", "address": "476 MARY ST", "city": "HAMILTON", "province": "ON", "country": "CA", "postalCode": "L8L4X2", "twitter": "None", "instagram": "None", "facebook": "None", "youtube": "None", "website": "None", "summary": "None", "logo": "None", "latitude": 43.26918532638932, "longitude": -79.85799022228653}, "119288918RR0539": {"name": "EASTGATE CONGREGATION OF JEHOVAH'S WITNESSES", "designationCode": "C", "categoryCode": "61", "address": "PO BOX 57043", "city": "HAMILTON", "province": "ON", "country": "CA", "postalCode": "L8P4W9", "twitter": "None", "instagram": "None", "facebook": "None", "youtube": "None", "website": "None", "summary": "None", "logo": "None", "latitude": 43.261962000000054, "longitude": -79.88800399999994}, "886341882RR0001": {"name": "EASTGATE FIRE PROTECTION SOCIETY", "designationCode": "C", "categoryCode": "59", "address": "P.O. BOX 2, COMP 5", "city": "MANNING PARK", "province": "BC", "country": "CA", "postalCode": "V0X1R0", "twitter": "None", "instagram": "None", "facebook": "None", "youtube": "None", "website": "None", "summary": "None", "logo": "None", "latitude": 49.382829000000015, "longitude": -121.40509941140559}, "887950467RR0001": {"name": "EASTHOPE HISTORICAL GROUP INC", "designationCode": "C", "categoryCode": "50", "address": "RR#1", "city": "STRATFORD", "province": "ON", "country": "CA", "postalCode": "N5A6S2", "twitter": "None", "instagram": "None", "facebook": "None", "youtube": "None", "website": "None", "summary": "None", "logo": "None", "latitude": 43.38933900000005, "longitude": -80.96317999999994}, "119172385RR0001": {"name": "EASTMAN CRISIS CENTRE INC.", "designationCode": "C", "categoryCode": "09", "address": "P O BOX 3130", "city": "STEINBACH", "province": "MB", "country": "CA", "postalCode": "R0A2A0", "twitter": "None", "instagram": "None", "facebook": "None", "youtube": "None", "website": "None", "summary": "None", "logo": "None", "latitude": 49.52573000000007, "longitude": -96.68392999999998}, "837825546RR0001": {"name": "EASTMAN EDUCATION CENTRE INC.", "designationCode": "C", "categoryCode": "21", "address": "385 LOEWEN BLVD", "city": "STEINBACH", "province": "MB", "country": "CA", "postalCode": "R5G0B3", "twitter": "None", "instagram": "None", "facebook": "None", "youtube": "None", "website": "None", "summary": "None", "logo": "None", "latitude": 49.532264440104115, "longitude": -96.6727884633789}, "132154220RR0001": {"name": "EASTMINSTER UNITED CHURCH", "designationCode": "C", "categoryCode": "44", "address": "310 DANFORTH AVENUE", "city": "TORONTO", "province": "ON", "country": "CA", "postalCode": "M4K1N6", "twitter": "None", "instagram": "None", "facebook": "None", "youtube": "None", "website": "None", "summary": "None", "logo": "None", "latitude": 43.67726619458693, "longitude": -79.35356827728077}, "129946042RR0001": {"name": "EASTMINSTER UNITED CHURCH,", "designationCode": "C", "categoryCode": "44", "address": "432 BRIDGE STREET EAST", "city": "BELLEVILLE", "province": "ON", "country": "CA", "postalCode": "K8N1R1", "twitter": "None", "instagram": "None", "facebook": "None", "youtube": "None", "website": "None", "summary": "None", "logo": "None", "latitude": 44.16985408638652, "longitude": -77.35716653514316}, "890387574RR0001": {"name": "EASTMOUNT CEMETERY CO LIMITED", "designationCode": "C", "categoryCode": "59", "address": "15 LABEN DR", "city": "SYDNEY", "province": "NS", "country": "CA", "postalCode": "B1S3A3", "twitter": "None", "instagram": "None", "facebook": "None", "youtube": "None", "website": "None", "summary": "None", "logo": "None", "latitude": 46.11170184430716, "longitude": -60.19931199763407}, "119288918RR0084": {"name": "EASTMOUNT PARK CONGREGATION OF JEHOVAH'S WITNESSES, HAMILTON, ONTARIO", "designationCode": "C", "categoryCode": "61", "address": "241 EAST 43RD STREET", "city": "HAMILTON", "province": "ON", "country": "CA", "postalCode": "L8T3C4", "twitter": "None", "instagram": "None", "facebook": "None", "youtube": "None", "website": "None", "summary": "None", "logo": "None", "latitude": 43.22676140839972, "longitude": -79.83623711330303}, "118891209RR0001": {"name": "EASTONS CORNERS UNITED CHURCH", "designationCode": "C", "categoryCode": "44", "address": "2296 COUNTY RD 16 RR 2", "city": "MERRICKVILLE", "province": "ON", "country": "CA", "postalCode": "K0G1N0", "twitter": "None", "instagram": "None", "facebook": "None", "youtube": "None", "website": "None", "summary": "None", "logo": "None", "latitude": 44.890778579834254, "longitude": -75.84150874637116}, "897790747RR0001": {"name": "EASTPORT PENINSULA HERITAGE SOCIETY INCORPORATED", "designationCode": "C", "categoryCode": "52", "address": "P. O. BOX 136", "city": "EASTPORT", "province": "NL", "country": "CA", "postalCode": "A0G1Z0", "twitter": "None", "instagram": "None", "facebook": "None", "youtube": "None", "website": "None", "summary": "None", "logo": "None", "latitude": 48.65217000000007, "longitude": -53.761259999999936}, "118891274RR0001": {"name": "EASTPORT PENINSULA VOLUNTEER FIRE DEPARTMENT", "designationCode": "C", "categoryCode": "59", "address": "BOX 117", "city": "EASTPORT", "province": "NL", "country": "CA", "postalCode": "A0G1Z0", "twitter": "None", "instagram": "None", "facebook": "None", "youtube": "None", "website": "None", "summary": "None", "logo": "None", "latitude": 48.65217000000007, "longitude": -53.761259999999936}, "132331497RR0001": {"name": "EASTRIDGE EVANGELICAL MISSIONARY CHURCH", "designationCode": "C", "categoryCode": "39", "address": "12485 TENTH LINE", "city": "STOUFFVILLE", "province": "ON", "country": "CA", "postalCode": "L4A3E9", "twitter": "None", "instagram": "None", "facebook": "None", "youtube": "None", "website": "None", "summary": "None", "logo": "None", "latitude": 43.9808323713716, "longitude": -79.23257660465198}, "118891332RR0001": {"name": "EASTSHORE COMMUNITY LIBRARY SOCIETY", "designationCode": "C", "categoryCode": "50", "address": "PO BOX 85", "city": "CRAWFORD BAY", "province": "BC", "country": "CA", "postalCode": "V0B1E0", "twitter": "None", "instagram": "None", "facebook": "None", "youtube": "None", "website": "None", "summary": "None", "logo": "None", "latitude": 49.67554000000007, "longitude": -116.82475999999997}, "130132715RR0001": {"name": "EASTSIDE CITY CHURCH AND MISSIONARY SOCIETY", "designationCode": "C", "categoryCode": "39", "address": "1320 ABBEYDALE DR SE", "city": "CALGARY", "province": "AB", "country": "CA", "postalCode": "T2A7L8", "twitter": "None", "instagram": "None", "facebook": "None", "youtube": "None", "website": "None", "summary": "None", "logo": "None", "latitude": 51.05169992200936, "longitude": -113.93127933692091}, "118891381RR0001": {"name": "EASTSIDE CONGREGATION OF JEHOVAH'S WITNESSES, RED DEER, ALBERTA", "designationCode": "C", "categoryCode": "61", "address": "209 - 8 STANTON ST", "city": "RED DEER", "province": "AB", "country": "CA", "postalCode": "T4N6A2", "twitter": "None", "instagram": "None", "facebook": "None", "youtube": "None", "website": "None", "summary": "None", "logo": "None", "latitude": 52.25134634000798, "longitude": -113.79327461824106}, "869910513RR0001": {"name": "EASTSIDE MOVEMENT FOR BUSINESS AND ECONOMIC RENEWAL SOCIETY", "designationCode": "C", "categoryCode": "09", "address": "310-111 HASTINGS ST W", "city": "VANCOUVER", "province": "BC", "country": "CA", "postalCode": "V6B1H4", "twitter": "None", "instagram": "None", "facebook": "None", "youtube": "None", "website": "None", "summary": "None", "logo": "None", "latitude": 49.282138914441255, "longitude": -123.10753795129177}, "130522899RR0001": {"name": "EASTSIDE UNITED CHURCH", "designationCode": "C", "categoryCode": "44", "address": "3018 DOAN DRIVE", "city": "REGINA", "province": "SK", "country": "CA", "postalCode": "S4V1M1", "twitter": "None", "instagram": "None", "facebook": "None", "youtube": "None", "website": "None", "summary": "None", "logo": "None", "latitude": 50.43040362173217, "longitude": -104.54718113411006}, "107274623RR0001": {"name": "EASTVIEW BAPTIST CHURCH", "designationCode": "C", "categoryCode": "31", "address": "329 OLMSTEAD ST", "city": "OTTAWA", "province": "ON", "country": "CA", "postalCode": "K1L7K2", "twitter": "None", "instagram": "None", "facebook": "None", "youtube": "None", "website": "None", "summary": "None", "logo": "None", "latitude": 45.43370685596392, "longitude": -75.66090442766485}, "128925989RR0001": {"name": "EASTVIEW COMMUNITY CHURCH MENNONITE BRETHREN INC.", "designationCode": "C", "categoryCode": "34", "address": "3500 DE VRIES AVENUE", "city": "WINNIPEG", "province": "MB", "country": "CA", "postalCode": "R2E0C8", "twitter": "None", "instagram": "None", "facebook": "None", "youtube": "None", "website": "None", "summary": "None", "logo": "None", "latitude": 49.959872247949825, "longitude": -97.04926612340203}, "118891571RR0001": {"name": "EASTWOOD CHRISTIAN FELLOWSHIP INC.", "designationCode": "C", "categoryCode": "31", "address": "56 ROSS AVE", "city": "KITCHENER", "province": "ON", "country": "CA", "postalCode": "N2A1V3", "twitter": "None", "instagram": "None", "facebook": "None", "youtube": "None", "website": "None", "summary": "None", "logo": "None", "latitude": 43.43747532001267, "longitude": -80.45485054097155}, "119288918RR0043": {"name": "EASTWOOD CONGREGATION OF JEHOVAH'S WITNESSES, KITCHENER, ONTARIO", "designationCode": "C", "categoryCode": "61", "address": "71 ROTHSAY AVE", "city": "KITCHENER", "province": "ON", "country": "CA", "postalCode": "N2B3N4", "twitter": "None", "instagram": "None", "facebook": "None", "youtube": "None", "website": "None", "summary": "None", "logo": "None", "latitude": 43.46835023561675, "longitude": -80.44737367678466}, "107274789RR0001": {"name": "EASTWOOD FELLOWSHIP BAPTIST CHURCH", "designationCode": "C", "categoryCode": "31", "address": "400 WELLINGTON ST", "city": "ST THOMAS", "province": "ON", "country": "CA", "postalCode": "N5R5T3", "twitter": "None", "instagram": "None", "facebook": "None", "youtube": "None", "website": "None", "summary": "None", "logo": "None", "latitude": 42.774643914635156, "longitude": -81.16590142528165}, "118891589RR0001": {"name": "EASTWOOD STAFF SCHOLARSHIP FUND", "designationCode": "C", "categoryCode": "21", "address": "760 WEBER ST E", "city": "KITCHENER", "province": "ON", "country": "CA", "postalCode": "N2H1H6", "twitter": "None", "instagram": "None", "facebook": "None", "youtube": "None", "website": "None", "summary": "None", "logo": "None", "latitude": 43.43917153903832, "longitude": -80.46113159766884}, "889720041RR0001": {"name": "EASTWOOD UNITED CHURCH", "designationCode": "C", "categoryCode": "44", "address": "P.O BOX 137", "city": "INNERKIP", "province": "ON", "country": "CA", "postalCode": "N0J1M0", "twitter": "None", "instagram": "None", "facebook": "None", "youtube": "None", "website": "None", "summary": "None", "logo": "None", "latitude": 43.20965000000007, "longitude": -80.69663999999995}, "873269815RR0001": {"name": "EATING DISORDER COUNCIL OF NEW BRUNSWICK INC.", "designationCode": "C", "categoryCode": "11", "address": "FACULTY OF NURSING / U OF NB  -FREDERICTON, PO BOX 4400", "city": "FREDERICTON", "province": "NB", "country": "CA", "postalCode": "E3B5A3", "twitter": "None", "instagram": "None", "facebook": "None", "youtube": "None", "website": "None", "summary": "None", "logo": "None", "latitude": 45.96038309678879, "longitude": -66.64306801385926}, "827334566RR0001": {"name": "EATING DISORDER FOUNDATION OF NL INC.", "designationCode": "C", "categoryCode": "11", "address": "13 - 15 PIPPY PL", "city": "ST. JOHN'S", "province": "NL", "country": "CA", "postalCode": "A1B3X2", "twitter": "None", "instagram": "None", "facebook": "None", "youtube": "None", "website": "None", "summary": "None", "logo": "None", "latitude": 47.557313122915595, "longitude": -52.76859993608936}, "875282014RR0001": {"name": "EATING DISORDER SERVICES OF BRANT", "designationCode": "C", "categoryCode": "01", "address": "90 MCGILL RD", "city": "MOUNT PLEASANT", "province": "ON", "country": "CA", "postalCode": "N0E1K0", "twitter": "None", "instagram": "None", "facebook": "None", "youtube": "None", "website": "None", "summary": "None", "logo": "None", "latitude": 43.07548203882641, "longitude": -80.31374723948451}, "898779152RR0001": {"name": "EATING DISORDERS ASSOCIATION OF LONDON INC.", "designationCode": "C", "categoryCode": "11", "address": "PO BOX 21014                  WONDERLAND RD. S.", "city": "LONDON", "province": "ON", "country": "CA", "postalCode": "N6K0C7", "twitter": "None", "instagram": "None", "facebook": "None", "youtube": "None", "website": "None", "summary": "None", "logo": "None", "latitude": 42.953765503731496, "longitude": -81.2905428332968}, "894485598RR0001": {"name": "EATING DISORDERS FOUNDATION OF CANADA", "designationCode": "C", "categoryCode": "19", "address": "RESEARCH PARK STE 230A,       100 COLLIP CIR", "city": "LONDON", "province": "ON", "country": "CA", "postalCode": "N6G4X8", "twitter": "None", "instagram": "None", "facebook": "None", "youtube": "None", "website": "None", "summary": "None", "logo": "None", "latitude": 43.01477600355503, "longitude": -81.28069392878236}, "863132775RR0001": {"name": "EATING DISORDERS OF YORK REGION", "designationCode": "C", "categoryCode": "11", "address": "P.O. BOX 71648", "city": "AURORA", "province": "ON", "country": "CA", "postalCode": "L4G6S9", "twitter": "None", "instagram": "None", "facebook": "None", "youtube": "None", "website": "None", "summary": "None", "logo": "None", "latitude": 44.00671200000005, "longitude": -79.44972199999994}, "118891654RR0001": {"name": "EATON CEMETERY ASSOCIATION", "designationCode": "C", "categoryCode": "59", "address": "POST OFFICE BOX 934", "city": "COOKSHIRE-EATON", "province": "QC", "country": "CA", "postalCode": "J0B1M0", "twitter": "None", "instagram": "None", "facebook": "None", "youtube": "None", "website": "None", "summary": "None", "logo": "None", "latitude": 45.412720000000036, "longitude": -71.62782999999996}, "141048850RR0001": {"name": "EATONIA CHARITABLE TRUST", "designationCode": "B", "categoryCode": "39", "address": "50-1ST AVE NE", "city": "SWIFT CURRENT", "province": "SK", "country": "CA", "postalCode": "S9H4W4", "twitter": "None", "instagram": "None", "facebook": "None", "youtube": "None", "website": "None", "summary": "None", "logo": "None", "latitude": 50.282664378132, "longitude": -107.79863205289816}, "892835364RR0001": {"name": "EATONIA DISTRICT HEALTH CARE FOUNDATION INC.", "designationCode": "C", "categoryCode": "19", "address": "BOX 356", "city": "EATONIA", "province": "SK", "country": "CA", "postalCode": "S0L0Y0", "twitter": "None", "instagram": "None", "facebook": "None", "youtube": "None", "website": "None", "summary": "None", "logo": "None", "latitude": 51.216810000000066, "longitude": -109.38480999999996}, "118891738RR0001": {"name": "EATONIA DONORS CHOICE CAMPAIGN", "designationCode": "A", "categoryCode": "05", "address": "BOX 445", "city": "EATONIA", "province": "SK", "country": "CA", "postalCode": "S0L0Y0", "twitter": "None", "instagram": "None", "facebook": "None", "youtube": "None", "website": "None", "summary": "None", "logo": "None", "latitude": 51.216810000000066, "longitude": -109.38480999999996}, "107275000RR0001": {"name": "EATONIA UNITED CHURCH", "designationCode": "C", "categoryCode": "44", "address": "BOX 506", "city": "EATONIA", "province": "SK", "country": "CA", "postalCode": "S0L0Y0", "twitter": "None", "instagram": "None", "facebook": "None", "youtube": "None", "website": "None", "summary": "None", "logo": "None", "latitude": 51.216810000000066, "longitude": -109.38480999999996}, "107275117RR0001": {"name": "EAU CLAIRE MISSIONARY CHURCH", "designationCode": "C", "categoryCode": "39", "address": "991 HWY 630", "city": "MATTAWA", "province": "ON", "country": "CA", "postalCode": "P0H1V0", "twitter": "None", "instagram": "None", "facebook": "None", "youtube": "None", "website": "None", "summary": "None", "logo": "None", "latitude": 46.257736575695084, "longitude": -78.89593435492573}, "118891829RR0001": {"name": "EBCO ARTS FOUNDATION SOCIETY", "designationCode": "A", "categoryCode": "22", "address": "7851 ALDERBRIDGE WAY", "city": "RICHMOND", "province": "BC", "country": "CA", "postalCode": "V6X2A4", "twitter": "None", "instagram": "None", "facebook": "None", "youtube": "None", "website": "None", "summary": "None", "logo": "None", "latitude": 49.176553207408645, "longitude": -123.14012963156488}, "107275422RR0001": {"name": "EBEN-EZER MENNONITE CHURCH", "designationCode": "C", "categoryCode": "34", "address": "2051 WINDSOR ST", "city": "ABBOTSFORD", "province": "BC", "country": "CA", "postalCode": "V2T6L9", "twitter": "None", "instagram": "None", "facebook": "None", "youtube": "None", "website": "None", "summary": "None", "logo": "None", "latitude": 49.03930803136362, "longitude": -122.35553391571868}, "107275315RR0001": {"name": "EBENEZER BAPTIST CHURCH", "designationCode": "C", "categoryCode": "31", "address": "6858 FRASER ST", "city": "VANCOUVER", "province": "BC", "country": "CA", "postalCode": "V5X3V1", "twitter": "None", "instagram": "None", "facebook": "None", "youtube": "None", "website": "None", "summary": "None", "logo": "None", "latitude": 49.22228234801343, "longitude": -123.09078861784027}, "130230659RR0001": {"name": "EBENEZER BAPTIST CHURCH INC.", "designationCode": "C", "categoryCode": "31", "address": "107 MCWILLIE AVENUE", "city": "SASKATOON", "province": "SK", "country": "CA", "postalCode": "S7S1B2", "twitter": "None", "instagram": "None", "facebook": "None", "youtube": "None", "website": "None", "summary": "None", "logo": "None", "latitude": 52.156008000000014, "longitude": -106.59661627277913}, "118891878RR0001": {"name": "EBENEZER BAPTIST CHURCH OF EBENEZER INC.", "designationCode": "C", "categoryCode": "31", "address": "BOX 55", "city": "EBENEZER", "province": "SK", "country": "CA", "postalCode": "S0A0T0", "twitter": "None", "instagram": "None", "facebook": "None", "youtube": "None", "website": "None", "summary": "None", "logo": "None", "latitude": 51.36907000000008, "longitude": -102.45304999999996}, "126806975RR0001": {"name": "EBENEZER CEMETERY BOARD", "designationCode": "C", "categoryCode": "59", "address": "43 EDGEHILL DR", "city": "GUELPH", "province": "ON", "country": "CA", "postalCode": "N1H5E3", "twitter": "None", "instagram": "None", "facebook": "None", "youtube": "None", "website": "None", "summary": "None", "logo": "None", "latitude": 43.5520943519532, "longitude": -80.2701338496742}, "859965477RR0001": {"name": "EBENEZER CHRISTIAN CHURCH/IGLESIA CRISTIANA EBENEZER INC.", "designationCode": "C", "categoryCode": "34", "address": "1145 LORNE AVENUE EAST", "city": "BRANDON", "province": "MB", "country": "CA", "postalCode": "R7A1W9", "twitter": "None", "instagram": "None", "facebook": "None", "youtube": "None", "website": "None", "summary": "None", "logo": "None", "latitude": 49.8453174676841, "longitude": -99.92264399999999}, "118891886RR0001": {"name": "EBENEZER CHRISTIAN REFORMED CHURCH", "designationCode": "C", "categoryCode": "39", "address": "18 FOURTH AVE.", "city": "TRENTON", "province": "ON", "country": "CA", "postalCode": "K8V5N3", "twitter": "None", "instagram": "None", "facebook": "None", "youtube": "None", "website": "None", "summary": "None", "logo": "None", "latitude": 44.0971390069249, "longitude": -77.5934046044199}, "107275356RR0001": {"name": "EBENEZER CHRISTIAN REFORMED CHURCH OF LEDUC", "designationCode": "C", "categoryCode": "39", "address": "PO BOX 3248  STN MAIN", "city": "LEDUC", "province": "AB", "country": "CA", "postalCode": "T9E6M1", "twitter": "None", "instagram": "None", "facebook": "None", "youtube": "None", "website": "None", "summary": "None", "logo": "None", "latitude": 53.26475400000001, "longitude": -113.56141274999999}, "125009092RR0001": {"name": "EBENEZER CHRISTIAN REFORMED CHURCH,", "designationCode": "C", "categoryCode": "39", "address": "BOX 239", "city": "JARVIS", "province": "ON", "country": "CA", "postalCode": "N0A1J0", "twitter": "None", "instagram": "None", "facebook": "None", "youtube": "None", "website": "None", "summary": "None", "logo": "None", "latitude": 42.885110000000054, "longitude": -80.11368999999996}, "894872167RR0001": {"name": "EBENEZER FOUNDATION", "designationCode": "B", "categoryCode": "03", "address": "300-32988 SOUTH FRASER WAY", "city": "ABBOTSFORD", "province": "BC", "country": "CA", "postalCode": "V2S2A8", "twitter": "None", "instagram": "None", "facebook": "None", "youtube": "None", "website": "None", "summary": "None", "logo": "None", "latitude": 49.0506258238304, "longitude": -122.30613459581247}, "887339190RR0001": {"name": "EBENEZER FREE PRESBYTERIAN CHURCH", "designationCode": "C", "categoryCode": "37", "address": "176 SIDE ROAD 25              RR#3", "city": "CHESLEY", "province": "ON", "country": "CA", "postalCode": "N0G1L0", "twitter": "None", "instagram": "None", "facebook": "None", "youtube": "None", "website": "None", "summary": "None", "logo": "None", "latitude": 44.05304362353315, "longitude": -81.14071394248444}, "888476439RR0001": {"name": "EBENEZER GOSPEL TABERNACLE", "designationCode": "C", "categoryCode": "39", "address": "2356 MERIADOC DR", "city": "PICKERING", "province": "ON", "country": "CA", "postalCode": "L1X2T2", "twitter": "None", "instagram": "None", "facebook": "None", "youtube": "None", "website": "None", "summary": "None", "logo": "None", "latitude": 43.864473175947964, "longitude": -79.08656697420497}, "890406564RR0001": {"name": "EBENEZER HOLINESS CHURCH OF GOD INC.", "designationCode": "C", "categoryCode": "39", "address": "104 PANNAHILL DRIVE", "city": "BRAMPTON", "province": "ON", "country": "CA", "postalCode": "L6P2Y4", "twitter": "None", "instagram": "None", "facebook": "None", "youtube": "None", "website": "None", "summary": "None", "logo": "None", "latitude": 43.78121346047076, "longitude": -79.6823662260661}, "857404636RR0001": {"name": "EBENEZER INTERNATIONAL CHRISTIAN FELLOWSHIP OF CALGARY", "designationCode": "C", "categoryCode": "39", "address": "148 PINEMEADOW RD NE", "city": "CALGARY", "province": "AB", "country": "CA", "postalCode": "T1Y4N9", "twitter": "None", "instagram": "None", "facebook": "None", "youtube": "None", "website": "None", "summary": "None", "logo": "None", "latitude": 51.079507250072105, "longitude": -113.9422987786371}, "889463840RR0001": {"name": "EBENEZER OUTREACH MISSION", "designationCode": "C", "categoryCode": "39", "address": "111 BRAYMORE BLVD", "city": "TORONTO", "province": "ON", "country": "CA", "postalCode": "M1B2N6", "twitter": "None", "instagram": "None", "facebook": "None", "youtube": "None", "website": "None", "summary": "None", "logo": "None", "latitude": 43.80600742602005, "longitude": -79.17734636759202}}