{"138690540RR0001": {"name": "BETHEL KOREAN BAPTIST CHURCH OF EDMONTON", "designationCode": "C", "categoryCode": "31", "address": "8205 79ST", "city": "EDMONTON", "province": "AB", "country": "CA", "postalCode": "T6C2N9", "twitter": "None", "instagram": "None", "facebook": "None", "youtube": "None", "website": "None", "summary": "None", "logo": "None", "latitude": 53.518328999999994, "longitude": -113.4489978040281}, "106789043RR0001": {"name": "BETHEL LUTHERAN CHURCH", "designationCode": "C", "categoryCode": "32", "address": "264 WILSON ST", "city": "THUNDER BAY", "province": "ON", "country": "CA", "postalCode": "P7B1M9", "twitter": "None", "instagram": "None", "facebook": "None", "youtube": "None", "website": "None", "summary": "None", "logo": "None", "latitude": 48.433251341392975, "longitude": -89.22550821758333}, "106789068RR0001": {"name": "BETHEL LUTHERAN CHURCH", "designationCode": "C", "categoryCode": "32", "address": "BOX 7", "city": "FRONTIER", "province": "SK", "country": "CA", "postalCode": "S0N0W0", "twitter": "None", "instagram": "None", "facebook": "None", "youtube": "None", "website": "None", "summary": "None", "logo": "None", "latitude": 49.20003000000003, "longitude": -108.56809999999996}, "106789076RR0001": {"name": "BETHEL LUTHERAN CHURCH", "designationCode": "C", "categoryCode": "32", "address": "BOX 272", "city": "MARWAYNE", "province": "AB", "country": "CA", "postalCode": "T0B2X0", "twitter": "None", "instagram": "None", "facebook": "None", "youtube": "None", "website": "None", "summary": "None", "logo": "None", "latitude": 53.53347000000008, "longitude": -110.33490999999998}, "106789100RR0001": {"name": "BETHEL LUTHERAN CHURCH", "designationCode": "C", "categoryCode": "32", "address": "298 BETHEL DRIVE", "city": "SHERWOOD PARK", "province": "AB", "country": "CA", "postalCode": "T8H2C5", "twitter": "None", "instagram": "None", "facebook": "None", "youtube": "None", "website": "None", "summary": "None", "logo": "None", "latitude": 53.54610543883068, "longitude": -113.30111443756124}, "118805530RR0001": {"name": "BETHEL LUTHERAN CHURCH", "designationCode": "C", "categoryCode": "32", "address": "BOX 255", "city": "ELBOW", "province": "SK", "country": "CA", "postalCode": "S0H1J0", "twitter": "None", "instagram": "None", "facebook": "None", "youtube": "None", "website": "None", "summary": "None", "logo": "None", "latitude": 51.116760000000056, "longitude": -106.58454999999998}, "118805548RR0001": {"name": "BETHEL LUTHERAN CHURCH", "designationCode": "C", "categoryCode": "32", "address": "PO BOX 206", "city": "MEDSTEAD", "province": "SK", "country": "CA", "postalCode": "S0M1W0", "twitter": "None", "instagram": "None", "facebook": "None", "youtube": "None", "website": "None", "summary": "None", "logo": "None"}, "118805589RR0001": {"name": "BETHEL LUTHERAN CHURCH", "designationCode": "C", "categoryCode": "32", "address": "BOX 476", "city": "VULCAN", "province": "AB", "country": "CA", "postalCode": "T0L2B0", "twitter": "None", "instagram": "None", "facebook": "None", "youtube": "None", "website": "None", "summary": "None", "logo": "None", "latitude": 50.39734000000004, "longitude": -113.25817999999998}, "131978355RR0001": {"name": "BETHEL LUTHERAN CHURCH", "designationCode": "C", "categoryCode": "32", "address": "47 SHELDON AVE N", "city": "KITCHENER", "province": "ON", "country": "CA", "postalCode": "N2H3M1", "twitter": "None", "instagram": "None", "facebook": "None", "youtube": "None", "website": "None", "summary": "None", "logo": "None", "latitude": 43.44148997166616, "longitude": -80.46701929459303}, "132145723RR0001": {"name": "BETHEL LUTHERAN CHURCH", "designationCode": "C", "categoryCode": "32", "address": "RR 1", "city": "RYLEY", "province": "AB", "country": "CA", "postalCode": "T0B4A0", "twitter": "None", "instagram": "None", "facebook": "None", "youtube": "None", "website": "None", "summary": "None", "logo": "None", "latitude": 53.28344000000004, "longitude": -112.43517999999995}, "898158902RR0001": {"name": "BETHEL LUTHERAN SOCIETY INC.", "designationCode": "C", "categoryCode": "59", "address": "BOX 292", "city": "ERICKSON", "province": "MB", "country": "CA", "postalCode": "R0J0P0", "twitter": "None", "instagram": "None", "facebook": "None", "youtube": "None", "website": "None", "summary": "None", "logo": "None", "latitude": 50.49852000000004, "longitude": -99.90785999999997}, "118805605RR0001": {"name": "BETHEL MEMORIAL CHAPEL AND CEMETERY", "designationCode": "C", "categoryCode": "59", "address": "2451 BENEDET DR", "city": "MISSISSAUGA", "province": "ON", "country": "CA", "postalCode": "L5J4H5", "twitter": "None", "instagram": "None", "facebook": "None", "youtube": "None", "website": "None", "summary": "None", "logo": "None", "latitude": 43.51312701416691, "longitude": -79.65433427327007}, "118805613RR0001": {"name": "BETHEL MENNONITE CARE SERVICES INC.", "designationCode": "C", "categoryCode": "01", "address": "100-445 STAFFORD ST", "city": "WINNIPEG", "province": "MB", "country": "CA", "postalCode": "R3M3V9", "twitter": "None", "instagram": "None", "facebook": "None", "youtube": "None", "website": "None", "summary": "None", "logo": "None", "latitude": 49.86561347178548, "longitude": -97.15944845798057}, "118805639RR0001": {"name": "BETHEL MENNONITE CHURCH", "designationCode": "C", "categoryCode": "34", "address": "465 STAFFORD ST", "city": "WINNIPEG", "province": "MB", "country": "CA", "postalCode": "R3M2E2", "twitter": "None", "instagram": "None", "facebook": "None", "youtube": "None", "website": "None", "summary": "None", "logo": "None", "latitude": 49.860616402966336, "longitude": -97.15544000628972}, "118805647RR0001": {"name": "BETHEL MENNONITE CHURCH", "designationCode": "C", "categoryCode": "34", "address": "24687-56TH AVE", "city": "LANGLEY", "province": "BC", "country": "CA", "postalCode": "V2Z1B9", "twitter": "None", "instagram": "None", "facebook": "None", "youtube": "None", "website": "None", "summary": "None", "logo": "None", "latitude": 49.10406647821568, "longitude": -122.54051233236194}, "131039075RR0001": {"name": "BETHEL MENNONITE CHURCH", "designationCode": "C", "categoryCode": "34", "address": "6772 EIGHTH LINE W RR#1", "city": "ELORA", "province": "ON", "country": "CA", "postalCode": "N0B1S0", "twitter": "None", "instagram": "None", "facebook": "None", "youtube": "None", "website": "None", "summary": "None", "logo": "None", "latitude": 43.671143634469615, "longitude": -80.51124791645684}, "870618006RR0001": {"name": "BETHEL MENNONITE CHURCH", "designationCode": "C", "categoryCode": "34", "address": "216 BENT ROAD", "city": "WATERVILLE", "province": "NS", "country": "CA", "postalCode": "B0P1V0", "twitter": "None", "instagram": "None", "facebook": "None", "youtube": "None", "website": "None", "summary": "None", "logo": "None", "latitude": 45.04628552097626, "longitude": -64.6985176486533}, "893257972RR0001": {"name": "BETHEL PARK BIBLE CHAPEL OF BRANTFORD", "designationCode": "C", "categoryCode": "39", "address": "BOX 28053 NORTH PARK PLAZA", "city": "BRANTFORD", "province": "ON", "country": "CA", "postalCode": "N3R7X5", "twitter": "None", "instagram": "None", "facebook": "None", "youtube": "None", "website": "None", "summary": "None", "logo": "None", "latitude": 43.164344813079865, "longitude": -80.2649226702642}, "106789233RR0001": {"name": "BETHEL PENTECOSTAL ASSEMBLIES OF GOD", "designationCode": "C", "categoryCode": "36", "address": "RR1 SITE 9                    BOX 33", "city": "SEXSMITH", "province": "AB", "country": "CA", "postalCode": "T0H3C0", "twitter": "None", "instagram": "None", "facebook": "None", "youtube": "None", "website": "None", "summary": "None", "logo": "None", "latitude": 55.348520000000065, "longitude": -118.78230999999994}, "107833394RR0062": {"name": "BETHEL PENTECOSTAL ASSEMBLY", "designationCode": "C", "categoryCode": "36", "address": "PO BOX 131", "city": "BAY ROBERT'S", "province": "NL", "country": "CA", "postalCode": "A0A1G0", "twitter": "None", "instagram": "None", "facebook": "None", "youtube": "None", "website": "None", "summary": "None", "logo": "None", "latitude": 47.58335663598053, "longitude": -53.28220018500299}, "107833394RR0073": {"name": "BETHEL PENTECOSTAL ASSEMBLY", "designationCode": "C", "categoryCode": "36", "address": "PO BOX 26", "city": "ST ANTHONY", "province": "NL", "country": "CA", "postalCode": "A0K4S0", "twitter": "None", "instagram": "None", "facebook": "None", "youtube": "None", "website": "None", "summary": "None", "logo": "None", "latitude": 51.372690000000034, "longitude": -55.597039999999936}, "867947137RR0001": {"name": "BETHEL PENTECOSTAL ASSEMBLY", "designationCode": "C", "categoryCode": "36", "address": "321 BAYFIELD ROAD BOX 264", "city": "GODERICH", "province": "ON", "country": "CA", "postalCode": "N7A3Z2", "twitter": "None", "instagram": "None", "facebook": "None", "youtube": "None", "website": "None", "summary": "None", "logo": "None", "latitude": 43.732043528449424, "longitude": -81.70588294717014}, "871786745RR0001": {"name": "BETHEL PENTECOSTAL ASSEMBLY", "designationCode": "C", "categoryCode": "36", "address": "32729 -7TH AVE", "city": "MISSION", "province": "BC", "country": "CA", "postalCode": "V2V2B8", "twitter": "None", "instagram": "None", "facebook": "None", "youtube": "None", "website": "None", "summary": "None", "logo": "None", "latitude": 49.14029881236592, "longitude": -122.31886010670105}, "878945021RR0001": {"name": "BETHEL PENTECOSTAL ASSEMBLY", "designationCode": "C", "categoryCode": "36", "address": "500 CENTRAL AVENUE", "city": "FORT ERIE", "province": "ON", "country": "CA", "postalCode": "L2A3V1", "twitter": "None", "instagram": "None", "facebook": "None", "youtube": "None", "website": "None", "summary": "None", "logo": "None", "latitude": 42.9260871498747, "longitude": -78.91870605559312}, "106789795RR0001": {"name": "BETHEL PENTECOSTAL CHURCH", "designationCode": "C", "categoryCode": "36", "address": "77 HERMAN ST", "city": "TRENTON", "province": "ON", "country": "CA", "postalCode": "K8V3C4", "twitter": "None", "instagram": "None", "facebook": "None", "youtube": "None", "website": "None", "summary": "None", "logo": "None", "latitude": 44.105039570633075, "longitude": -77.56293500718469}, "107833394RR0052": {"name": "BETHEL PENTECOSTAL CHURCH", "designationCode": "C", "categoryCode": "36", "address": "P.O. BOX 48                   HICKMAN'S HARBOUR", "city": "TRINITY BAY", "province": "NL", "country": "CA", "postalCode": "A0C1P0", "twitter": "None", "instagram": "None", "facebook": "None", "youtube": "None", "website": "None", "summary": "None", "logo": "None", "latitude": 48.12598500000006, "longitude": -53.74779199999993}, "107833394RR0074": {"name": "BETHEL PENTECOSTAL CHURCH", "designationCode": "C", "categoryCode": "36", "address": "SITE 2, BOX 17", "city": "STANHOPE", "province": "NL", "country": "CA", "postalCode": "A0G3A0", "twitter": "None", "instagram": "None", "facebook": "None", "youtube": "None", "website": "None", "summary": "None", "logo": "None", "latitude": 49.24452300000006, "longitude": -55.05726949999993}, "118805787RR0001": {"name": "BETHEL PENTECOSTAL CHURCH", "designationCode": "C", "categoryCode": "36", "address": "45 LEGENDRE STREET WEST", "city": "MONTREAL-AHUNTSIC", "province": "QC", "country": "CA", "postalCode": "H2N1G9", "twitter": "None", "instagram": "None", "facebook": "None", "youtube": "None", "website": "None", "summary": "None", "logo": "None", "latitude": 45.542860857348906, "longitude": -73.64835134404736}, "118805845RR0001": {"name": "BETHEL PENTECOSTAL CHURCH", "designationCode": "C", "categoryCode": "36", "address": "P.O. BOX 396                  301 HWY 29", "city": "SMITHS FALLS", "province": "ON", "country": "CA", "postalCode": "K7A4T4", "twitter": "None", "instagram": "None", "facebook": "None", "youtube": "None", "website": "None", "summary": "None", "logo": "None", "latitude": 44.879297718519744, "longitude": -76.01476181480245}, "118806009RR0001": {"name": "BETHEL PENTECOSTAL CHURCH", "designationCode": "C", "categoryCode": "36", "address": "35 MCNAUGHTON AVENUE", "city": "WALLACEBURG", "province": "ON", "country": "CA", "postalCode": "N8A1R7", "twitter": "None", "instagram": "None", "facebook": "None", "youtube": "None", "website": "None", "summary": "None", "logo": "None", "latitude": 42.58835747351249, "longitude": -82.3849052836001}, "129879417RR0001": {"name": "BETHEL PENTECOSTAL CHURCH", "designationCode": "C", "categoryCode": "36", "address": "PO BOX 126", "city": "IMPERIAL", "province": "SK", "country": "CA", "postalCode": "S0G2J0", "twitter": "None", "instagram": "None", "facebook": "None", "youtube": "None", "website": "None", "summary": "None", "logo": "None", "latitude": 51.34433000000007, "longitude": -105.43451999999996}, "871719548RR0001": {"name": "BETHEL PENTECOSTAL CHURCH", "designationCode": "C", "categoryCode": "36", "address": "BOX 86", "city": "KALADAR", "province": "ON", "country": "CA", "postalCode": "K0H1Z0", "twitter": "None", "instagram": "None", "facebook": "None", "youtube": "None", "website": "None", "summary": "None", "logo": "None", "latitude": 44.64718000000005, "longitude": -77.12229999999994}, "871979746RR0001": {"name": "BETHEL PENTECOSTAL CHURCH", "designationCode": "C", "categoryCode": "36", "address": "PO BOX 196", "city": "THEDFORD", "province": "ON", "country": "CA", "postalCode": "N0M2N0", "twitter": "None", "instagram": "None", "facebook": "None", "youtube": "None", "website": "None", "summary": "None", "logo": "None", "latitude": 43.164100000000076, "longitude": -81.85481999999996}, "873303358RR0001": {"name": "BETHEL PENTECOSTAL CHURCH", "designationCode": "C", "categoryCode": "36", "address": "PO BOX 250", "city": "SUNDRIDGE", "province": "ON", "country": "CA", "postalCode": "P0A1Z0", "twitter": "None", "instagram": "None", "facebook": "None", "youtube": "None", "website": "None", "summary": "None", "logo": "None", "latitude": 45.75507926133678, "longitude": -79.41022764524283}, "893378927RR0001": {"name": "BETHEL PENTECOSTAL CHURCH", "designationCode": "C", "categoryCode": "36", "address": "4664 BATTERSEA CROSS ST.", "city": "BATTERSEA", "province": "ON", "country": "CA", "postalCode": "K0H1H0", "twitter": "None", "instagram": "None", "facebook": "None", "youtube": "None", "website": "None", "summary": "None", "logo": "None", "latitude": 44.432333695677336, "longitude": -76.38252556530031}, "129887345RR0001": {"name": "BETHEL PENTECOSTAL CHURCH - Barrhead", "designationCode": "C", "categoryCode": "36", "address": "5410 53 AVE", "city": "BARRHEAD", "province": "AB", "country": "CA", "postalCode": "T7N1C4", "twitter": "None", "instagram": "None", "facebook": "None", "youtube": "None", "website": "None", "summary": "None", "logo": "None", "latitude": 54.123262442644915, "longitude": -114.41020535657287}, "820916534RR0001": {"name": "BETHEL PENTECOSTAL CHURCH OF OTTAWA", "designationCode": "C", "categoryCode": "36", "address": "500 VIEWMOUNT DR", "city": "NEPEAN", "province": "ON", "country": "CA", "postalCode": "K2E7P2", "twitter": "None", "instagram": "None", "facebook": "None", "youtube": "None", "website": "None", "summary": "None", "logo": "None", "latitude": 45.35486750871392, "longitude": -75.70752052925747}, "106789456RR0001": {"name": "BETHEL PENTECOSTAL CHURCH OF SARNIA", "designationCode": "C", "categoryCode": "36", "address": "1565 LONDON ROAD", "city": "SARNIA", "province": "ON", "country": "CA", "postalCode": "N7T7H2", "twitter": "None", "instagram": "None", "facebook": "None", "youtube": "None", "website": "None", "summary": "None", "logo": "None", "latitude": 42.985043710229185, "longitude": -82.34562867803243}, "107833394RR0122": {"name": "BETHEL PENTECOSTAL TABERNACLE", "designationCode": "C", "categoryCode": "36", "address": "129 BAYVIEW RD", "city": "BEACHSIDE", "province": "NL", "country": "CA", "postalCode": "A0J1T0", "twitter": "None", "instagram": "None", "facebook": "None", "youtube": "None", "website": "None", "summary": "None", "logo": "None", "latitude": 49.5032688393916, "longitude": -56.05774924067777}, "118805985RR0002": {"name": "BETHEL PENTECOSTAL TABERNACLE", "designationCode": "C", "categoryCode": "36", "address": "BOX 7", "city": "SHAWVILLE", "province": "QC", "country": "CA", "postalCode": "J0X2Y0", "twitter": "None", "instagram": "None", "facebook": "None", "youtube": "None", "website": "None", "summary": "None", "logo": "None", "latitude": 45.599560000000054, "longitude": -76.49331999999998}, "118806017RR0001": {"name": "BETHEL PENTECOSTAL TABERNACLE", "designationCode": "C", "categoryCode": "36", "address": "35 SILVERWOOD DR", "city": "HUNTSVILLE", "province": "ON", "country": "CA", "postalCode": "P1H1N1", "twitter": "None", "instagram": "None", "facebook": "None", "youtube": "None", "website": "None", "summary": "None", "logo": "None", "latitude": 45.33058452726693, "longitude": -79.23570096321204}, "118806041RR0001": {"name": "BETHEL PENTECOSTAL TABERNACLE", "designationCode": "C", "categoryCode": "36", "address": "BOX 238", "city": "CLINTON", "province": "BC", "country": "CA", "postalCode": "V0K1K0", "twitter": "None", "instagram": "None", "facebook": "None", "youtube": "None", "website": "None", "summary": "None", "logo": "None", "latitude": 51.10950950140031, "longitude": -121.5872047698897}, "118806074RR0001": {"name": "BETHEL PENTECOSTAL TABERNACLE", "designationCode": "C", "categoryCode": "36", "address": "143 COACH RD N.", "city": "QUESNEL", "province": "BC", "country": "CA", "postalCode": "V2J4W8", "twitter": "None", "instagram": "None", "facebook": "None", "youtube": "None", "website": "None", "summary": "None", "logo": "None", "latitude": 52.980092664723884, "longitude": -122.43716665367269}, "868985938RR0001": {"name": "BETHEL PENTECOSTAL TABERNACLE", "designationCode": "C", "categoryCode": "36", "address": "320-41 ST", "city": "EDSON", "province": "AB", "country": "CA", "postalCode": "T7E1A1", "twitter": "None", "instagram": "None", "facebook": "None", "youtube": "None", "website": "None", "summary": "None", "logo": "None", "latitude": 53.58936717346646, "longitude": -116.41036775815084}, "887946333RR0001": {"name": "BETHEL PRAYER MINISTRY INTERNATIONAL (CANADA)", "designationCode": "C", "categoryCode": "39", "address": "12 - 52 CARRIER DR", "city": "ETOBICOKE", "province": "ON", "country": "CA", "postalCode": "M9W5S5", "twitter": "None", "instagram": "None", "facebook": "None", "youtube": "None", "website": "None", "summary": "None", "logo": "None", "latitude": 43.738391081914465, "longitude": -79.60846793202134}, "106789654RR0001": {"name": "BETHEL PRESBYTERIAN CHURCH", "designationCode": "C", "categoryCode": "37", "address": "9 BROOKLAND STREET", "city": "SYDNEY", "province": "NS", "country": "CA", "postalCode": "B1P5B1", "twitter": "None", "instagram": "None", "facebook": "None", "youtube": "None", "website": "None", "summary": "None", "logo": "None", "latitude": 46.133656332794615, "longitude": -60.19069661824105}, "118806116RR0001": {"name": "BETHEL PRESBYTERIAN CHURCH", "designationCode": "C", "categoryCode": "37", "address": "RR 2", "city": "SCOTSBURN", "province": "NS", "country": "CA", "postalCode": "B0K1R0", "twitter": "None", "instagram": "None", "facebook": "None", "youtube": "None", "website": "None", "summary": "None", "logo": "None", "latitude": 45.658211365424286, "longitude": -62.81245543993171}, "118806124RR0001": {"name": "BETHEL PRESBYTERIAN CHURCH", "designationCode": "C", "categoryCode": "37", "address": "SITE 3 COMP. 4 R.R.#2", "city": "TRENTON", "province": "NS", "country": "CA", "postalCode": "B0K1X0", "twitter": "None", "instagram": "None", "facebook": "None", "youtube": "None", "website": "None", "summary": "None", "logo": "None", "latitude": 45.62076573081878, "longitude": -62.6324693021126}, "118806140RR0001": {"name": "BETHEL PRESBYTERIAN CHURCH", "designationCode": "C", "categoryCode": "37", "address": "600 COVERDALE ROAD", "city": "RIVERVIEW", "province": "NB", "country": "CA", "postalCode": "E1B3K6", "twitter": "None", "instagram": "None", "facebook": "None", "youtube": "None", "website": "None", "summary": "None", "logo": "None", "latitude": 46.062731874228454, "longitude": -64.80944659642807}, "106789688RR0001": {"name": "BETHEL REFORMED CHURCH", "designationCode": "C", "categoryCode": "39", "address": "112 CARLING STREET", "city": "EXETER", "province": "ON", "country": "CA", "postalCode": "N0M1S2", "twitter": "None", "instagram": "None", "facebook": "None", "youtube": "None", "website": "None", "summary": "None", "logo": "None", "latitude": 43.352770117404326, "longitude": -81.48543650150054}, "118806181RR0001": {"name": "BETHEL REFORMED CHURCH", "designationCode": "C", "categoryCode": "39", "address": "506 WEST STREET", "city": "BRANTFORD", "province": "ON", "country": "CA", "postalCode": "N3R3W7", "twitter": "None", "instagram": "None", "facebook": "None", "youtube": "None", "website": "None", "summary": "None", "logo": "None", "latitude": 43.16375582379226, "longitude": -80.25216800605858}, "119243582RR0001": {"name": "BETHEL REFORMED CHURCH OF MONARCH", "designationCode": "C", "categoryCode": "39", "address": "BOX 10", "city": "MONARCH", "province": "AB", "country": "CA", "postalCode": "T0L1M0", "twitter": "None", "instagram": "None", "facebook": "None", "youtube": "None", "website": "None", "summary": "None", "logo": "None", "latitude": 49.80453000000006, "longitude": -113.09581999999995}, "891840571RR0001": {"name": "BETHEL REFORMED CHURCH OF SMITHERS, B C", "designationCode": "C", "categoryCode": "39", "address": "P.O. BOX 3847", "city": "SMITHERS", "province": "BC", "country": "CA", "postalCode": "V0J2N0", "twitter": "None", "instagram": "None", "facebook": "None", "youtube": "None", "website": "None", "summary": "None", "logo": "None", "latitude": 54.78312000000005, "longitude": -127.16847999999999}, "138504253RR0001": {"name": "BETHEL RESTORATION MINISTRIES", "designationCode": "C", "categoryCode": "39", "address": "611 VAUGHAN ROAD", "city": "TORONTO", "province": "ON", "country": "CA", "postalCode": "M6C2R4", "twitter": "None", "instagram": "None", "facebook": "None", "youtube": "None", "website": "None", "summary": "None", "logo": "None", "latitude": 43.69221136109982, "longitude": -79.44004845155528}, "891722035RR0001": {"name": "BETHEL ROMANIAN BAPTIST CHURCH", "designationCode": "C", "categoryCode": "31", "address": "1222 DOON VILLAGE ROAD", "city": "KITCHENER", "province": "ON", "country": "CA", "postalCode": "N2P1A5", "twitter": "None", "instagram": "None", "facebook": "None", "youtube": "None", "website": "None", "summary": "None", "logo": "None", "latitude": 43.38870546047074, "longitude": -80.42748258090484}, "139818165RR0001": {"name": "BETHEL ROMANIAN PENTECOSTAL CHURCH", "designationCode": "C", "categoryCode": "39", "address": "5920 BASELINE RD RR# 3", "city": "MAIDSTONE", "province": "ON", "country": "CA", "postalCode": "N0R1K0", "twitter": "None", "instagram": "None", "facebook": "None", "youtube": "None", "website": "None", "summary": "None", "logo": "None", "latitude": 42.26272244662095, "longitude": -82.93019061073923}, "118806199RR0001": {"name": "BETHEL SENIOR CITIZENS HOUSING SOCIETY (DAWSON CREEK)", "designationCode": "C", "categoryCode": "09", "address": "122-11335 17TH ST", "city": "DAWSON CREEK", "province": "BC", "country": "CA", "postalCode": "V1G4S7", "twitter": "None", "instagram": "None", "facebook": "None", "youtube": "None", "website": "None", "summary": "None", "logo": "None", "latitude": 55.74601799999999, "longitude": -120.25055227387564}, "107797383RR0068": {"name": "BETHEL SEVENTH-DAY ADVENTIST CHURCH", "designationCode": "C", "categoryCode": "41", "address": "511 HOMER AVE", "city": "ETOBICOKE", "province": "ON", "country": "CA", "postalCode": "M8W2B9", "twitter": "None", "instagram": "None", "facebook": "None", "youtube": "None", "website": "None", "summary": "None", "logo": "None", "latitude": 43.68067200000001, "longitude": -79.4885985}, "118806215RR0001": {"name": "BETHEL STONE UNITED CHURCH", "designationCode": "C", "categoryCode": "44", "address": "77 BALL STREET", "city": "PARIS", "province": "ON", "country": "CA", "postalCode": "N3L1X7", "twitter": "None", "instagram": "None", "facebook": "None", "youtube": "None", "website": "None", "summary": "None", "logo": "None", "latitude": 43.18270475575628, "longitude": -80.37415645311316}, "118806223RR0001": {"name": "BETHEL TABERNACLE", "designationCode": "C", "categoryCode": "36", "address": "PO BOX 213", "city": "ELGIN", "province": "ON", "country": "CA", "postalCode": "K0G1E0", "twitter": "None", "instagram": "None", "facebook": "None", "youtube": "None", "website": "None", "summary": "None", "logo": "None", "latitude": 44.91404284441957, "longitude": -75.83470875089802}, "129946844RR0001": {"name": "BETHEL TABERNACLE", "designationCode": "C", "categoryCode": "36", "address": "PO BOX 384                    1149 4TH AVE", "city": "LADYSMITH", "province": "BC", "country": "CA", "postalCode": "V9G1A3", "twitter": "None", "instagram": "None", "facebook": "None", "youtube": "None", "website": "None", "summary": "None", "logo": "None", "latitude": 48.997370727998664, "longitude": -123.83091144135086}, "118806272RR0001": {"name": "BETHEL TABERNACLE OF PRESTON", "designationCode": "C", "categoryCode": "39", "address": "1655 QUEENSTON ROAD", "city": "CAMBRIDGE", "province": "ON", "country": "CA", "postalCode": "N3H3M1", "twitter": "None", "instagram": "None", "facebook": "None", "youtube": "None", "website": "None", "summary": "None", "logo": "None", "latitude": 43.38780175134153, "longitude": -80.34509078876465}, "118806314RR0001": {"name": "BETHEL TEMPLE", "designationCode": "C", "categoryCode": "36", "address": "269 QUARTER TOWN LINE         RR 3", "city": "TILLSONBURG", "province": "ON", "country": "CA", "postalCode": "N4G4G8", "twitter": "None", "instagram": "None", "facebook": "None", "youtube": "None", "website": "None", "summary": "None", "logo": "None", "latitude": 42.873386111149124, "longitude": -80.75171190357479}, "132200932RR0001": {"name": "BETHEL TEMPLE", "designationCode": "C", "categoryCode": "36", "address": "PO BOX 543", "city": "KELVINGTON", "province": "SK", "country": "CA", "postalCode": "S0A1W0", "twitter": "None", "instagram": "None", "facebook": "None", "youtube": "None", "website": "None", "summary": "None", "logo": "None", "latitude": 50.942659313471935, "longitude": -102.0486202158667}, "118806330RR0001": {"name": "BETHEL UNION CHURCH", "designationCode": "C", "categoryCode": "39", "address": "BOX 231", "city": "LESLIEVILLE", "province": "AB", "country": "CA", "postalCode": "T0M1H0", "twitter": "None", "instagram": "None", "facebook": "None", "youtube": "None", "website": "None", "summary": "None", "logo": "None", "latitude": 52.38491815713226, "longitude": -114.55493836738984}, "891014540RR0001": {"name": "BETHEL UNITED APOSTOLIC CHURCH", "designationCode": "C", "categoryCode": "39", "address": "4-6468 KING GEORGE BLVD.", "city": "SURREY", "province": "BC", "country": "CA", "postalCode": "V3W4Z3", "twitter": "None", "instagram": "None", "facebook": "None", "youtube": "None", "website": "None", "summary": "None", "logo": "None", "latitude": 49.12029900000002, "longitude": -122.84545852772827}, "118806348RR0001": {"name": "BETHEL UNITED BAPTIST CHURCH", "designationCode": "C", "categoryCode": "31", "address": "316 WINDMILL ROAD", "city": "DARTMOUTH", "province": "NS", "country": "CA", "postalCode": "B3A1H4", "twitter": "None", "instagram": "None", "facebook": "None", "youtube": "None", "website": "None", "summary": "None", "logo": "None", "latitude": 44.678091759939875, "longitude": -63.59252521729486}, "118806363RR0001": {"name": "BETHEL UNITED CHURCH", "designationCode": "C", "categoryCode": "44", "address": "2843 KING GEORGE HWY/         211 OAK POINT ROAD", "city": "MIRAMICHI", "province": "NB", "country": "CA", "postalCode": "E1V7K5", "twitter": "None", "instagram": "None", "facebook": "None", "youtube": "None", "website": "None", "summary": "None", "logo": "None", "latitude": 47.0482177829016, "longitude": -65.47226988904399}, "118806371RR0001": {"name": "BETHEL UNITED CHURCH", "designationCode": "C", "categoryCode": "44", "address": "PO BOX 94                     184 CARLETON STREET", "city": "FITZROY HARBOUR", "province": "ON", "country": "CA", "postalCode": "K0A1X0", "twitter": "None", "instagram": "None", "facebook": "None", "youtube": "None", "website": "None", "summary": "None", "logo": "None", "latitude": 45.22924478903442, "longitude": -76.20001539605828}, "118806389RR0001": {"name": "BETHEL UNITED CHURCH", "designationCode": "C", "categoryCode": "44", "address": "90 BETHEL RD.", "city": "OMEMEE", "province": "ON", "country": "CA", "postalCode": "K0L2W0", "twitter": "None", "instagram": "None", "facebook": "None", "youtube": "None", "website": "None", "summary": "None", "logo": "None", "latitude": 44.32720766111719, "longitude": -78.47949995599869}, "118806397RR0001": {"name": "BETHEL UNITED CHURCH", "designationCode": "C", "categoryCode": "44", "address": "68 R7 RIDEAU LAKE             RR #1", "city": "LOMBARDY", "province": "ON", "country": "CA", "postalCode": "K0G1L0", "twitter": "None", "instagram": "None", "facebook": "None", "youtube": "None", "website": "None", "summary": "None", "logo": "None", "latitude": 44.82381006607416, "longitude": -76.09247002279389}, "118806439RR0001": {"name": "BETHEL UNITED CHURCH", "designationCode": "C", "categoryCode": "44", "address": "BOX 37", "city": "MOOSOMIN", "province": "SK", "country": "CA", "postalCode": "S0G3N0", "twitter": "None", "instagram": "None", "facebook": "None", "youtube": "None", "website": "None", "summary": "None", "logo": "None", "latitude": 50.14728000000008, "longitude": -101.66300999999999}, "887697282RR0001": {"name": "BETHEL UNITED CHURCH", "designationCode": "C", "categoryCode": "44", "address": "1742 THIRD CONCESSION RD", "city": "PORT COLBORNE", "province": "ON", "country": "CA", "postalCode": "L3K5V5", "twitter": "None", "instagram": "None", "facebook": "None", "youtube": "None", "website": "None", "summary": "None", "logo": "None", "latitude": 42.928818042377266, "longitude": -79.19902788206288}, "889457198RR0001": {"name": "BETHEL UNITED CHURCH", "designationCode": "C", "categoryCode": "44", "address": "2589 HILLSIDE RD", "city": "MARION BRIDGE", "province": "NS", "country": "CA", "postalCode": "B1K1A7", "twitter": "None", "instagram": "None", "facebook": "None", "youtube": "None", "website": "None", "summary": "None", "logo": "None", "latitude": 45.981700793956556, "longitude": -60.20723846205793}, "118806454RR0001": {"name": "BETHEL UNITED CHURCH OF JESUS CHRIST APOSTOLIC OF EDMONTON", "designationCode": "C", "categoryCode": "39", "address": "9950 148 ST NW", "city": "EDMONTON", "province": "AB", "country": "CA", "postalCode": "T5N3E9", "twitter": "None", "instagram": "None", "facebook": "None", "youtube": "None", "website": "None", "summary": "None", "logo": "None", "latitude": 53.538966000000016, "longitude": -113.576307262046}, "134247667RR0001": {"name": "BETHEL UNITED REFORMED CHURCH OF AYLMER", "designationCode": "C", "categoryCode": "39", "address": "P.O. BOX 244", "city": "SPRINGFIELD", "province": "ON", "country": "CA", "postalCode": "N0L2J0", "twitter": "None", "instagram": "None", "facebook": "None", "youtube": "None", "website": "None", "summary": "None", "logo": "None", "latitude": 42.82684652200631, "longitude": -80.93122710731751}, "137406419RR0001": {"name": "BETHEL UNITED REFORMED CHURCH OF CALGARY", "designationCode": "C", "categoryCode": "39", "address": "730-101 ST S.W", "city": "CALGARY", "province": "AB", "country": "CA", "postalCode": "T3H3Z5", "twitter": "None", "instagram": "None", "facebook": "None", "youtube": "None", "website": "None", "summary": "None", "logo": "None", "latitude": 51.065775, "longitude": -114.23416823867515}, "898973276RR0001": {"name": "BETHEL UNITED REFORMED CHURCH OF WOODSTOCK", "designationCode": "C", "categoryCode": "39", "address": "862 ALICE ST", "city": "WOODSTOCK", "province": "ON", "country": "CA", "postalCode": "N4S2J6", "twitter": "None", "instagram": "None", "facebook": "None", "youtube": "None", "website": "None", "summary": "None", "logo": "None", "latitude": 43.12437871106246, "longitude": -80.73557576227714}, "826367948RR0001": {"name": "BETHELL HOSPICE FOUNDATION", "designationCode": "A", "categoryCode": "13", "address": "PO BOX 75", "city": "INGLEWOOD", "province": "ON", "country": "CA", "postalCode": "L7C3L6", "twitter": "None", "instagram": "None", "facebook": "None", "youtube": "None", "website": "None", "summary": "None", "logo": "None", "latitude": 43.79231980971143, "longitude": -79.93633027495089}, "106789910RR0001": {"name": "BETHESDA BAPTIST CHURCH", "designationCode": "C", "categoryCode": "31", "address": "67 SOVEREEN ST.,", "city": "DELHI", "province": "ON", "country": "CA", "postalCode": "N4B1L7", "twitter": "None", "instagram": "None", "facebook": "None", "youtube": "None", "website": "None", "summary": "None", "logo": "None", "latitude": 42.84946425950719, "longitude": -80.49456652192855}, "890688195RR0001": {"name": "BETHESDA CEMETERY BOARD", "designationCode": "C", "categoryCode": "59", "address": "8094 OLD SCUGOG ROAD", "city": "ENNISKILLEN", "province": "ON", "country": "CA", "postalCode": "L0B1J0", "twitter": "None", "instagram": "None", "facebook": "None", "youtube": "None", "website": "None", "summary": "None", "logo": "None", "latitude": 44.01709406369259, "longitude": -78.77159199284137}, "106789928RR0001": {"name": "BETHESDA CHRISTIAN ASSOCIATION", "designationCode": "C", "categoryCode": "49", "address": "105-2975 GLADWIN RD.", "city": "ABBOTSFORD", "province": "BC", "country": "CA", "postalCode": "V2T5T4", "twitter": "None", "instagram": "None", "facebook": "None", "youtube": "None", "website": "None", "summary": "None", "logo": "None", "latitude": 49.056269050233745, "longitude": -122.31547407677857}, "870358231RR0001": {"name": "BETHESDA CHRISTIAN FOUNDATION SOCIETY", "designationCode": "A", "categoryCode": "43", "address": "105-2975 GLADWIN ROAD", "city": "ABBOTSFORD", "province": "BC", "country": "CA", "postalCode": "V2T5T4", "twitter": "None", "instagram": "None", "facebook": "None", "youtube": "None", "website": "None", "summary": "None", "logo": "None", "latitude": 49.056269050233745, "longitude": -122.31547407677857}, "809276140RR0001": {"name": "BETHESDA CHRISTIAN MINISTRIES", "designationCode": "C", "categoryCode": "39", "address": "1053 TILTURB ST", "city": "OSHAWA", "province": "ON", "country": "CA", "postalCode": "L1H8W4", "twitter": "None", "instagram": "None", "facebook": "None", "youtube": "None", "website": "None", "summary": "None", "logo": "None", "latitude": 43.873053000000056, "longitude": -78.83908099999994}, "140951260RR0001": {"name": "BETHESDA CHRISTIAN RESIDENTIAL CARE INC.", "designationCode": "C", "categoryCode": "01", "address": "84 WAYMAR HEIGHTS BLVD", "city": "WOODBRIDGE", "province": "ON", "country": "CA", "postalCode": "L4L2P7", "twitter": "None", "instagram": "None", "facebook": "None", "youtube": "None", "website": "None", "summary": "None", "logo": "None", "latitude": 43.794392333602694, "longitude": -79.5874465441742}, "118806512RR0001": {"name": "BETHESDA CHURCH", "designationCode": "C", "categoryCode": "39", "address": "1350 GRANT AVE", "city": "WINNIPEG", "province": "MB", "country": "CA", "postalCode": "R3M2A7", "twitter": "None", "instagram": "None", "facebook": "None", "youtube": "None", "website": "None", "summary": "None", "logo": "None", "latitude": 49.85600147735032, "longitude": -97.17646210796927}, "856364302RR0001": {"name": "BETHESDA CHURCH OF GOD", "designationCode": "C", "categoryCode": "39", "address": "1011 UPPER MIDDLE ROAD EAST   SUITE 1509", "city": "OAKVILLE", "province": "ON", "country": "CA", "postalCode": "L6H5Z9", "twitter": "None", "instagram": "None", "facebook": "None", "youtube": "None", "website": "None", "summary": "None", "logo": "None", "latitude": 43.48225804806933, "longitude": -79.69387215843321}, "878217926RR0001": {"name": "BETHESDA COMMUNITY CEMETERY", "designationCode": "C", "categoryCode": "59", "address": "8329 WELLINGTON RD 8          RR#2", "city": "MOOREFIELD", "province": "ON", "country": "CA", "postalCode": "N0G2K0", "twitter": "None", "instagram": "None", "facebook": "None", "youtube": "None", "website": "None", "summary": "None", "logo": "None", "latitude": 43.77784431641651, "longitude": -80.72656519872767}, "106789951RR0001": {"name": "BETHESDA COMMUNITY SERVICES INC.", "designationCode": "C", "categoryCode": "10", "address": "3280 SCHMON PARKWAY", "city": "THOROLD", "province": "ON", "country": "CA", "postalCode": "L2V4Y6", "twitter": "None", "instagram": "None", "facebook": "None", "youtube": "None", "website": "None", "summary": "None", "logo": "None", "latitude": 43.11159854616571, "longitude": -79.24102000429916}, "118806561RR0001": {"name": "BETHESDA FELLOWSHIP", "designationCode": "C", "categoryCode": "39", "address": "12629-248 STREET", "city": "MAPLE RIDGE", "province": "BC", "country": "CA", "postalCode": "V4R1K4", "twitter": "None", "instagram": "None", "facebook": "None", "youtube": "None", "website": "None", "summary": "None", "logo": "None", "latitude": 49.23189008512449, "longitude": -122.53511144008829}, "118806587RR0001": {"name": "BETHESDA HOME FOUNDATION INC.", "designationCode": "A", "categoryCode": "13", "address": "3280 SCHMON PKY", "city": "THOROLD", "province": "ON", "country": "CA", "postalCode": "L2V4Y6", "twitter": "None", "instagram": "None", "facebook": "None", "youtube": "None", "website": "None", "summary": "None", "logo": "None", "latitude": 43.11159854616571, "longitude": -79.24102000429916}, "106790009RR0001": {"name": "BETHESDA LUTHERAN CHURCH", "designationCode": "C", "categoryCode": "32", "address": "20 UNION ST.", "city": "UNIONVILLE", "province": "ON", "country": "CA", "postalCode": "L3R2H5", "twitter": "None", "instagram": "None", "facebook": "None", "youtube": "None", "website": "None", "summary": "None", "logo": "None", "latitude": 43.862763960586314, "longitude": -79.31127948739095}, "118806611RR0001": {"name": "BETHESDA LUTHERAN CHURCH", "designationCode": "C", "categoryCode": "32", "address": "BOX 279", "city": "NEW NORWAY", "province": "AB", "country": "CA", "postalCode": "T0B3L0", "twitter": "None", "instagram": "None", "facebook": "None", "youtube": "None", "website": "None", "summary": "None", "logo": "None", "latitude": 52.86856000000006, "longitude": -112.95187999999996}, "886817113RR0001": {"name": "BETHESDA MINISTRY OF LOVE", "designationCode": "C", "categoryCode": "47", "address": "1250-1500 WEST GEORGIA ST", "city": "VANCOUVER", "province": "BC", "country": "CA", "postalCode": "V6G2Z6", "twitter": "None", "instagram": "None", "facebook": "None", "youtube": "None", "website": "None", "summary": "None", "logo": "None", "latitude": 49.29013479542975, "longitude": -123.1300069287031}, "848888749RR0001": {"name": "BETHESDA REGIONAL HEALTH CARE AUXILIARY", "designationCode": "C", "categoryCode": "19", "address": "316 HENRY ST", "city": "STEINBACH", "province": "MB", "country": "CA", "postalCode": "R5G0P9", "twitter": "None", "instagram": "None", "facebook": "None", "youtube": "None", "website": "None", "summary": "None", "logo": "None", "latitude": 49.52979556972012, "longitude": -96.67947928286685}, "867947970RR0001": {"name": "BETHESDA RENEWAL CENTRE (OTTAWA-CARLETON) INC", "designationCode": "B", "categoryCode": "49", "address": "253 LOWE ROAD                 RR#4", "city": "ASHTON", "province": "ON", "country": "CA", "postalCode": "K0A1B0", "twitter": "None", "instagram": "None", "facebook": "None", "youtube": "None", "website": "None", "summary": "None", "logo": "None", "latitude": 45.204734066998654, "longitude": -76.07083078198211}, "863975520RR0001": {"name": "BETHESDA RESIDENTIAL HOLDINGS INC.", "designationCode": "C", "categoryCode": "01", "address": "3280 SCHMON PARKWAY", "city": "THOROLD", "province": "ON", "country": "CA", "postalCode": "L2V4Y4", "twitter": "None", "instagram": "None", "facebook": "None", "youtube": "None", "website": "None", "summary": "None", "logo": "None", "latitude": 43.11159854616571, "longitude": -79.24102000429916}, "118806652RR0001": {"name": "BETHESDA UNITED CHURCH", "designationCode": "C", "categoryCode": "44", "address": "584 GARNER RD. W.", "city": "ANCASTER", "province": "ON", "country": "CA", "postalCode": "L9G3K9", "twitter": "None", "instagram": "None", "facebook": "None", "youtube": "None", "website": "None", "summary": "None", "logo": "None", "latitude": 43.19731168495031, "longitude": -80.00896783498767}, "140835802RR0001": {"name": "BETHESDA-HOUSE OF MERCY (BOWMANVILLE)", "designationCode": "C", "categoryCode": "01", "address": "P.O. BOX 82", "city": "BOWMANVILLE", "province": "ON", "country": "CA", "postalCode": "L1C3K8", "twitter": "None", "instagram": "None", "facebook": "None", "youtube": "None", "website": "None", "summary": "None", "logo": "None", "latitude": 43.91376900000006, "longitude": -78.68855149999993}, "867078016RR0001": {"name": "BETHLEHEM ASSEMBLIES DELIVERANCE CENTER", "designationCode": "C", "categoryCode": "39", "address": "2356 STRATHMORE CRESCENT", "city": "PICKERING", "province": "ON", "country": "CA", "postalCode": "L1X2H1", "twitter": "None", "instagram": "None", "facebook": "None", "youtube": "None", "website": "None", "summary": "None", "logo": "None", "latitude": 43.85363586620705, "longitude": -79.08876180073852}}