{"130703044RR0001": {"name": "HOLY EUCHARIST UKRAINIAN CATHOLIC PARISH", "designationCode": "C", "categoryCode": "38", "address": "489 WINTERTON AVE", "city": "WINNIPEG", "province": "MB", "country": "CA", "postalCode": "R2K1K5", "twitter": "None", "instagram": "None", "facebook": "None", "youtube": "None", "website": "None", "summary": "None", "logo": "None", "latitude": 49.9172418953776, "longitude": -97.09886186704377}, "129950804RR0006": {"name": "HOLY FAMILY & NOTRE DAME JOINT PARISHES", "designationCode": "C", "categoryCode": "38", "address": "4731 BURKE ROAD", "city": "PORT ALBERNI", "province": "BC", "country": "CA", "postalCode": "V9Y5P1", "twitter": "None", "instagram": "None", "facebook": "None", "youtube": "None", "website": "None", "summary": "None", "logo": "None", "latitude": 49.260916306164134, "longitude": -124.80971499192007}, "107783714RR0002": {"name": "HOLY FAMILY CATHOLIC REGIONAL DIVISION NO. 37", "designationCode": "C", "categoryCode": "20", "address": "10307-99 ST.", "city": "PEACE RIVER", "province": "AB", "country": "CA", "postalCode": "T8S1K1", "twitter": "None", "instagram": "None", "facebook": "None", "youtube": "None", "website": "None", "summary": "None", "logo": "None", "latitude": 56.22951356869983, "longitude": -117.29034578515797}, "119077543RR0001": {"name": "HOLY FAMILY CHAPEL (ROMAN CATHOLIC)", "designationCode": "C", "categoryCode": "38", "address": "P.O. BOX 17000 STN FORCES", "city": "KINGSTON", "province": "ON", "country": "CA", "postalCode": "K7K7B4", "twitter": "None", "instagram": "None", "facebook": "None", "youtube": "None", "website": "None", "summary": "None", "logo": "None", "latitude": 44.23153200000006, "longitude": -76.47933049999993}, "108094392RR0012": {"name": "HOLY FAMILY CHURCH", "designationCode": "C", "categoryCode": "38", "address": "BOX 519", "city": "FERNIE", "province": "BC", "country": "CA", "postalCode": "V0B1M0", "twitter": "None", "instagram": "None", "facebook": "None", "youtube": "None", "website": "None", "summary": "None", "logo": "None", "latitude": 49.499960000000044, "longitude": -115.06870999999995}, "118959931RR0001": {"name": "HOLY FAMILY CHURCH", "designationCode": "C", "categoryCode": "38", "address": "BOX 1780", "city": "SWAN RIVER", "province": "MB", "country": "CA", "postalCode": "R0L1Z0", "twitter": "None", "instagram": "None", "facebook": "None", "youtube": "None", "website": "None", "summary": "None", "logo": "None", "latitude": 52.11672730414978, "longitude": -101.25989472758229}, "119109817RR0080": {"name": "HOLY FAMILY CHURCH", "designationCode": "C", "categoryCode": "38", "address": "777 VALETTA STREET", "city": "LONDON", "province": "ON", "country": "CA", "postalCode": "N6H2Y9", "twitter": "None", "instagram": "None", "facebook": "None", "youtube": "None", "website": "None", "summary": "None", "logo": "None", "latitude": 42.97528135501163, "longitude": -81.30248624978364}, "119109817RR0111": {"name": "HOLY FAMILY CHURCH", "designationCode": "C", "categoryCode": "38", "address": "647 MURRAY ST", "city": "WALLACEBURG", "province": "ON", "country": "CA", "postalCode": "N8A1W1", "twitter": "None", "instagram": "None", "facebook": "None", "youtube": "None", "website": "None", "summary": "None", "logo": "None", "latitude": 42.58532680099833, "longitude": -82.38016319937704}, "119110443RR0034": {"name": "HOLY FAMILY CHURCH", "designationCode": "C", "categoryCode": "38", "address": "130 WILEY ST", "city": "KINGSTON", "province": "ON", "country": "CA", "postalCode": "K7K5B5", "twitter": "None", "instagram": "None", "facebook": "None", "youtube": "None", "website": "None", "summary": "None", "logo": "None", "latitude": 44.261378088810694, "longitude": -76.48942100879988}, "119264174RR0023": {"name": "HOLY FAMILY CHURCH", "designationCode": "C", "categoryCode": "38", "address": "2055 ROSSLYN RD", "city": "THUNDER BAY", "province": "ON", "country": "CA", "postalCode": "P7K1H7", "twitter": "None", "instagram": "None", "facebook": "None", "youtube": "None", "website": "None", "summary": "None", "logo": "None", "latitude": 48.36249250100962, "longitude": -89.35865019317329}, "846463925RR0001": {"name": "HOLY FAMILY CHURCH", "designationCode": "C", "categoryCode": "38", "address": "P.O. BOX 132", "city": "ADMIRAL", "province": "SK", "country": "CA", "postalCode": "S0N0B0", "twitter": "None", "instagram": "None", "facebook": "None", "youtube": "None", "website": "None", "summary": "None", "logo": "None", "latitude": 49.71343965208836, "longitude": -108.00453514115462}, "129950804RR0005": {"name": "HOLY FAMILY CHURCH AND MISSIONS", "designationCode": "C", "categoryCode": "38", "address": "BOX 64", "city": "UCLUELET", "province": "BC", "country": "CA", "postalCode": "V0R3A0", "twitter": "None", "instagram": "None", "facebook": "None", "youtube": "None", "website": "None", "summary": "None", "logo": "None", "latitude": 48.938210000000026, "longitude": -125.54276999999996}, "118960004RR0001": {"name": "HOLY FAMILY LUTHERAN CHURCH", "designationCode": "C", "categoryCode": "32", "address": "PO BOX 877 STN MAIN", "city": "YELLOWKNIFE", "province": "NT", "country": "CA", "postalCode": "X1A2N6", "twitter": "None", "instagram": "None", "facebook": "None", "youtube": "None", "website": "None", "summary": "None", "logo": "None", "latitude": 62.45446200000005, "longitude": -114.37092349999993}, "102385325RR0001": {"name": "HOLY FAMILY NURSING HOME", "designationCode": "C", "categoryCode": "10", "address": "165 ABERDEEN AVE", "city": "WINNIPEG", "province": "MB", "country": "CA", "postalCode": "R2W1T9", "twitter": "None", "instagram": "None", "facebook": "None", "youtube": "None", "website": "None", "summary": "None", "logo": "None", "latitude": 49.91613084877921, "longitude": -97.13067128986117}, "107020331RR0011": {"name": "HOLY FAMILY PARISH", "designationCode": "C", "categoryCode": "38", "address": "1500 HANWELL RD", "city": "FREDERICTON", "province": "NB", "country": "CA", "postalCode": "E3C1N3", "twitter": "None", "instagram": "None", "facebook": "None", "youtube": "None", "website": "None", "summary": "None", "logo": "None", "latitude": 45.94058259365813, "longitude": -66.70243435065514}, "107910192RR0017": {"name": "HOLY FAMILY PARISH", "designationCode": "C", "categoryCode": "38", "address": "89 FISHER STREET              PO BOX 190", "city": "PORT AU CHOIX", "province": "NL", "country": "CA", "postalCode": "A0K4C0", "twitter": "None", "instagram": "None", "facebook": "None", "youtube": "None", "website": "None", "summary": "None", "logo": "None", "latitude": 50.7027764408096, "longitude": -57.351813820742116}, "118849470RR0037": {"name": "HOLY FAMILY PARISH", "designationCode": "C", "categoryCode": "38", "address": "5700 NICKERSON RD", "city": "SECHELT", "province": "BC", "country": "CA", "postalCode": "V0N3A7", "twitter": "None", "instagram": "None", "facebook": "None", "youtube": "None", "website": "None", "summary": "None", "logo": "None", "latitude": 49.47907416180968, "longitude": -123.79078974294566}, "118849470RR0049": {"name": "HOLY FAMILY PARISH", "designationCode": "C", "categoryCode": "38", "address": "4851 BEATRICE ST", "city": "VANCOUVER", "province": "BC", "country": "CA", "postalCode": "V5N4J5", "twitter": "None", "instagram": "None", "facebook": "None", "youtube": "None", "website": "None", "summary": "None", "logo": "None", "latitude": 49.2410874970858, "longitude": -123.06667356719926}, "118960145RR0001": {"name": "HOLY FAMILY PARISH", "designationCode": "C", "categoryCode": "38", "address": "BOX 8", "city": "ODESSA", "province": "SK", "country": "CA", "postalCode": "S0G3S0", "twitter": "None", "instagram": "None", "facebook": "None", "youtube": "None", "website": "None", "summary": "None", "logo": "None", "latitude": 50.28125000000006, "longitude": -103.78147999999999}, "119109833RR0027": {"name": "HOLY FAMILY PARISH", "designationCode": "C", "categoryCode": "38", "address": "PO BOX 1075", "city": "AMHERST", "province": "NS", "country": "CA", "postalCode": "B4H4E2", "twitter": "None", "instagram": "None", "facebook": "None", "youtube": "None", "website": "None", "summary": "None", "logo": "None", "latitude": 45.83198400000006, "longitude": -64.20979249999993}, "119110450RR0021": {"name": "HOLY FAMILY PARISH", "designationCode": "C", "categoryCode": "38", "address": "329 HURON ST.", "city": "NEW HAMBURG", "province": "ON", "country": "CA", "postalCode": "N3A1K3", "twitter": "None", "instagram": "None", "facebook": "None", "youtube": "None", "website": "None", "summary": "None", "logo": "None", "latitude": 43.376343764705155, "longitude": -80.71474715856755}, "119110450RR0109": {"name": "HOLY FAMILY PARISH", "designationCode": "C", "categoryCode": "38", "address": "352-10 AVE.", "city": "HANOVER", "province": "ON", "country": "CA", "postalCode": "N4N2N6", "twitter": "None", "instagram": "None", "facebook": "None", "youtube": "None", "website": "None", "summary": "None", "logo": "None", "latitude": 44.149523846788654, "longitude": -81.02577611702897}, "119110450RR0112": {"name": "HOLY FAMILY PARISH", "designationCode": "C", "categoryCode": "38", "address": "1393 CANNON ST EAST", "city": "HAMILTON", "province": "ON", "country": "CA", "postalCode": "L8H1W2", "twitter": "None", "instagram": "None", "facebook": "None", "youtube": "None", "website": "None", "summary": "None", "logo": "None", "latitude": 43.24549511408613, "longitude": -79.80833787010218}, "129818522RR0001": {"name": "HOLY FAMILY PARISH", "designationCode": "C", "categoryCode": "38", "address": "1021 MCCARTHY BLVD. N.", "city": "REGINA", "province": "SK", "country": "CA", "postalCode": "S4X3P9", "twitter": "None", "instagram": "None", "facebook": "None", "youtube": "None", "website": "None", "summary": "None", "logo": "None", "latitude": 50.49585392627889, "longitude": -104.66379638278957}, "130091135RR0051": {"name": "HOLY FAMILY PARISH", "designationCode": "C", "categoryCode": "38", "address": "5 FATIMA DR", "city": "RIVERVIEW", "province": "NB", "country": "CA", "postalCode": "E1B2X8", "twitter": "None", "instagram": "None", "facebook": "None", "youtube": "None", "website": "None", "summary": "None", "logo": "None", "latitude": 46.06098423454887, "longitude": -64.80547883556459}, "893437467RR0001": {"name": "HOLY FAMILY PARISH", "designationCode": "C", "categoryCode": "38", "address": "BOX 223", "city": "GRIMSHAW", "province": "AB", "country": "CA", "postalCode": "T0H1W0", "twitter": "None", "instagram": "None", "facebook": "None", "youtube": "None", "website": "None", "summary": "None", "logo": "None", "latitude": 56.191580000000044, "longitude": -117.60929999999996}, "107910176RR0007": {"name": "HOLY FAMILY PARISH, BRIGUS SOUTH-CAPPAHAYDEN", "designationCode": "C", "categoryCode": "38", "address": "P.O. BOX 1363", "city": "ST-JOHN'S", "province": "NL", "country": "CA", "postalCode": "A1C5N5", "twitter": "None", "instagram": "None", "facebook": "None", "youtube": "None", "website": "None", "summary": "None", "logo": "None", "latitude": 47.56082100000006, "longitude": -52.71219349999993}, "106880107RR0040": {"name": "HOLY FAMILY PARISH, ESKASONI", "designationCode": "C", "categoryCode": "38", "address": "P.O. BOX 7822                 52 GABRIEL ST.", "city": "ESKASONI", "province": "NS", "country": "CA", "postalCode": "B1W1B4", "twitter": "None", "instagram": "None", "facebook": "None", "youtube": "None", "website": "None", "summary": "None", "logo": "None", "latitude": 45.94686573686184, "longitude": -60.607232854210054}, "106880107RR0083": {"name": "HOLY FAMILY PARISH, SYDNEY MINES, NOVA SCOTIA", "designationCode": "C", "categoryCode": "38", "address": "9 MACKAY ST", "city": "SYDNEY MINES", "province": "NS", "country": "CA", "postalCode": "B1V1R5", "twitter": "None", "instagram": "None", "facebook": "None", "youtube": "None", "website": "None", "summary": "None", "logo": "None", "latitude": 46.2408215229095, "longitude": -60.23689592004745}, "119109817RR0156": {"name": "HOLY FAMILY RETREAT HOUSE", "designationCode": "C", "categoryCode": "49", "address": "121 VICTORIA ST RR 1", "city": "HARROW", "province": "ON", "country": "CA", "postalCode": "N0R1G0", "twitter": "None", "instagram": "None", "facebook": "None", "youtube": "None", "website": "None", "summary": "None", "logo": "None", "latitude": 41.99008888868385, "longitude": -82.88873743317517}, "107487019RR0001": {"name": "HOLY FAMILY ROMAN CATHOLIC CHURCH", "designationCode": "C", "categoryCode": "38", "address": "BOX 309", "city": "RADVILLE", "province": "SK", "country": "CA", "postalCode": "S0C2G0", "twitter": "None", "instagram": "None", "facebook": "None", "youtube": "None", "website": "None", "summary": "None", "logo": "None", "latitude": 49.46040000000005, "longitude": -104.29811999999998}, "107909939RR0044": {"name": "HOLY FAMILY ROMAN CATHOLIC PARISH", "designationCode": "C", "categoryCode": "38", "address": "1451 STRACHAN ROAD SE", "city": "MEDICINE HAT", "province": "AB", "country": "CA", "postalCode": "T1B4V3", "twitter": "None", "instagram": "None", "facebook": "None", "youtube": "None", "website": "None", "summary": "None", "logo": "None", "latitude": 50.00244183037137, "longitude": -110.66345581124146}, "119110450RR0071": {"name": "HOLY FAMILY ROMAN CATHOLIC PARISH", "designationCode": "C", "categoryCode": "38", "address": "180 SCHWEITZER STREET", "city": "KITCHENER", "province": "ON", "country": "CA", "postalCode": "N2K2R5", "twitter": "None", "instagram": "None", "facebook": "None", "youtube": "None", "website": "None", "summary": "None", "logo": "None", "latitude": 43.48377569216368, "longitude": -80.4603174465063}, "845717347RR0001": {"name": "HOLY FAMILY ROMAN CATHOLIC SEPARATE SCHOOL DIVISION NO. 140 OF SASKATCHEWAN", "designationCode": "C", "categoryCode": "20", "address": "103 - 433 4TH ST NE", "city": "WEYBURN", "province": "SK", "country": "CA", "postalCode": "S4H0Y8", "twitter": "None", "instagram": "None", "facebook": "None", "youtube": "None", "website": "None", "summary": "None", "logo": "None", "latitude": 51.17225100000006, "longitude": -103.48992349999993}, "118960244RR0001": {"name": "HOLY FAMILY UKRAINIAN CATHOLIC PARISH", "designationCode": "C", "categoryCode": "38", "address": "1001 GRANT AVE", "city": "WINNIPEG", "province": "MB", "country": "CA", "postalCode": "R3M1Y3", "twitter": "None", "instagram": "None", "facebook": "None", "youtube": "None", "website": "None", "summary": "None", "logo": "None", "latitude": 49.86141180434523, "longitude": -97.15952962865707}, "107487092RR0001": {"name": "HOLY GHOST CHURCH", "designationCode": "C", "categoryCode": "39", "address": "49 WEST ST", "city": "SYDNEY", "province": "NS", "country": "CA", "postalCode": "B1N1R9", "twitter": "None", "instagram": "None", "facebook": "None", "youtube": "None", "website": "None", "summary": "None", "logo": "None", "latitude": 46.157985555369606, "longitude": -60.180759753274764}, "130091135RR0005": {"name": "HOLY GHOST CHURCH", "designationCode": "C", "categoryCode": "38", "address": "2 CHURCH ST", "city": "RIVERSIDE-ALBERT", "province": "NB", "country": "CA", "postalCode": "E4H3W8", "twitter": "None", "instagram": "None", "facebook": "None", "youtube": "None", "website": "None", "summary": "None", "logo": "None", "latitude": 45.75256822424844, "longitude": -64.72746563771676}, "130350077RR0001": {"name": "HOLY GHOST CHURCH", "designationCode": "C", "categoryCode": "38", "address": "342 PRITCHARD AVE", "city": "WINNIPEG", "province": "MB", "country": "CA", "postalCode": "R2W2J3", "twitter": "None", "instagram": "None", "facebook": "None", "youtube": "None", "website": "None", "summary": "None", "logo": "None", "latitude": 49.914175078510254, "longitude": -97.13759956122665}, "107487118RR0001": {"name": "HOLY GHOST UKRAINIAN CATHOLIC PARISH", "designationCode": "C", "categoryCode": "38", "address": "BOX 114", "city": "BEAUSEJOUR", "province": "MB", "country": "CA", "postalCode": "R0E0C0", "twitter": "None", "instagram": "None", "facebook": "None", "youtube": "None", "website": "None", "summary": "None", "logo": "None", "latitude": 50.061750000000075, "longitude": -96.50519999999995}, "118960327RR0001": {"name": "HOLY GHOST UKRAINIAN CATHOLIC PARISH", "designationCode": "C", "categoryCode": "38", "address": "P O BOX 158", "city": "SANDY LAKE", "province": "MB", "country": "CA", "postalCode": "R0J1X0", "twitter": "None", "instagram": "None", "facebook": "None", "youtube": "None", "website": "None", "summary": "None", "logo": "None", "latitude": 50.52604802382196, "longitude": -100.17807618143935}, "118960343RR0001": {"name": "HOLY GHOST UKRAINIAN CATHOLIC PARISH", "designationCode": "C", "categoryCode": "38", "address": "P.O. BOX 431", "city": "MONTMARTRE", "province": "SK", "country": "CA", "postalCode": "S0G3M0", "twitter": "None", "instagram": "None", "facebook": "None", "youtube": "None", "website": "None", "summary": "None", "logo": "None", "latitude": 50.23335000000003, "longitude": -103.45104999999995}, "134898816RR0001": {"name": "HOLY GHOST UKRAINIAN CATHOLIC PARISH", "designationCode": "C", "categoryCode": "38", "address": "40 ADA STREET", "city": "WINNIPEG", "province": "MB", "country": "CA", "postalCode": "R2R0L5", "twitter": "None", "instagram": "None", "facebook": "None", "youtube": "None", "website": "None", "summary": "None", "logo": "None", "latitude": 49.92385015903973, "longitude": -97.20298129283267}, "845965946RR0001": {"name": "HOLY GROUND PENTECOSTAL CHURCH INC.", "designationCode": "C", "categoryCode": "39", "address": "1350 GLENANNA RD UNIT 22", "city": "PICKERING", "province": "ON", "country": "CA", "postalCode": "L1V2V9", "twitter": "None", "instagram": "None", "facebook": "None", "youtube": "None", "website": "None", "summary": "None", "logo": "None", "latitude": 43.83940168668108, "longitude": -79.08886548707382}, "106880107RR0090": {"name": "HOLY GUARDIAN ANGEL PARISH, L'ARDOISE", "designationCode": "C", "categoryCode": "38", "address": "PO BOX 130", "city": "ST PETERS", "province": "NS", "country": "CA", "postalCode": "B0E3B0", "twitter": "None", "instagram": "None", "facebook": "None", "youtube": "None", "website": "None", "summary": "None", "logo": "None", "latitude": 45.691080000000056, "longitude": -60.747042499999935}, "119229896RR0031": {"name": "HOLY INNOCENTS ANGLICAN CHURCH", "designationCode": "C", "categoryCode": "30", "address": "297 PARADISE ROAD", "city": "PARADISE", "province": "NL", "country": "CA", "postalCode": "A1L2V5", "twitter": "None", "instagram": "None", "facebook": "None", "youtube": "None", "website": "None", "summary": "None", "logo": "None", "latitude": 47.54259952702602, "longitude": -52.885240590700576}, "128967353RR0123": {"name": "HOLY KOREAN MARTYRS PARISH", "designationCode": "C", "categoryCode": "38", "address": "706-314 CENTRAL PARK DRIVE", "city": "OTTAWA", "province": "ON", "country": "CA", "postalCode": "K2C0R2", "twitter": "None", "instagram": "None", "facebook": "None", "youtube": "None", "website": "None", "summary": "None", "logo": "None", "latitude": 45.3674805357201, "longitude": -75.73293091029433}, "892177247RR0001": {"name": "HOLY NAME CHAPEL (RC) CFB COLD LAKE", "designationCode": "C", "categoryCode": "38", "address": "PO BOX 4130", "city": "COLD LAKE", "province": "AB", "country": "CA", "postalCode": "T9M2C2", "twitter": "None", "instagram": "None", "facebook": "None", "youtube": "None", "website": "None", "summary": "None", "logo": "None", "latitude": 54.46502700000005, "longitude": -110.17379149999994}, "107876476RR0025": {"name": "HOLY NAME CHURCH", "designationCode": "C", "categoryCode": "38", "address": "146 BETH ST", "city": "NORTH BAY", "province": "ON", "country": "CA", "postalCode": "P1A1B1", "twitter": "None", "instagram": "None", "facebook": "None", "youtube": "None", "website": "None", "summary": "None", "logo": "None", "latitude": 46.29710449460431, "longitude": -79.4577939923826}, "107909939RR0013": {"name": "HOLY NAME CHURCH", "designationCode": "C", "categoryCode": "38", "address": "2223 34 TH ST S W", "city": "CALGARY", "province": "AB", "country": "CA", "postalCode": "T3E2W2", "twitter": "None", "instagram": "None", "facebook": "None", "youtube": "None", "website": "None", "summary": "None", "logo": "None", "latitude": 51.0336174970858, "longitude": -114.13696719250946}, "119110443RR0025": {"name": "HOLY NAME CHURCH", "designationCode": "C", "categoryCode": "38", "address": "950 OLD KINGSTON MILLS ROAD", "city": "KINGSTON", "province": "ON", "country": "CA", "postalCode": "K7L4V3", "twitter": "None", "instagram": "None", "facebook": "None", "youtube": "None", "website": "None", "summary": "None", "logo": "None", "latitude": 44.298284089127804, "longitude": -76.42391093923469}, "855922886RR0001": {"name": "HOLY NAME COUNCIL NO. 3305 CHARITABLE WELFARE TRUST", "designationCode": "A", "categoryCode": "03", "address": "P.O. BOX 61", "city": "ESSEX", "province": "ON", "country": "CA", "postalCode": "N8M2Y1", "twitter": "None", "instagram": "None", "facebook": "None", "youtube": "None", "website": "None", "summary": "None", "logo": "None", "latitude": 42.17281800000005, "longitude": -82.81968199999993}, "875813792RR0001": {"name": "HOLY NAME HEALTHCARE OUTREACH SOCIETY", "designationCode": "C", "categoryCode": "09", "address": "13636 GROSVENOR ROAD", "city": "SURREY", "province": "BC", "country": "CA", "postalCode": "V3R5C9", "twitter": "None", "instagram": "None", "facebook": "None", "youtube": "None", "website": "None", "summary": "None", "logo": "None"}, "897757209RR0001": {"name": "HOLY NAME LUTHERAN PARISH CHURCH", "designationCode": "C", "categoryCode": "32", "address": "PO BOX 138", "city": "SEBA BEACH", "province": "AB", "country": "CA", "postalCode": "T0E2B0", "twitter": "None", "instagram": "None", "facebook": "None", "youtube": "None", "website": "None", "summary": "None", "logo": "None", "latitude": 53.55925000000008, "longitude": -114.73865999999998}, "119109817RR0088": {"name": "HOLY NAME OF JESUS CHURCH", "designationCode": "C", "categoryCode": "38", "address": "146 TALBOT ST S", "city": "ESSEX", "province": "ON", "country": "CA", "postalCode": "N8M1B4", "twitter": "None", "instagram": "None", "facebook": "None", "youtube": "None", "website": "None", "summary": "None", "logo": "None", "latitude": 42.16994625951762, "longitude": -82.8163244088095}, "130599442RR0001": {"name": "HOLY NAME OF JESUS PARISH", "designationCode": "C", "categoryCode": "39", "address": "50 KIRKPATRICK AVENUE", "city": "KIRKLAND LAKE", "province": "ON", "country": "CA", "postalCode": "P2N2H3", "twitter": "None", "instagram": "None", "facebook": "None", "youtube": "None", "website": "None", "summary": "None", "logo": "None", "latitude": 48.14866874912909, "longitude": -80.03576983719361}, "119109817RR0054": {"name": "HOLY NAME OF MARY", "designationCode": "C", "categoryCode": "38", "address": "149 KING ST. N.               BOX 692", "city": "ST.MARYS", "province": "ON", "country": "CA", "postalCode": "N4X1B4", "twitter": "None", "instagram": "None", "facebook": "None", "youtube": "None", "website": "None", "summary": "None", "logo": "None", "latitude": 43.26398832361937, "longitude": -81.13886751220501}, "119110443RR0017": {"name": "HOLY NAME OF MARY CHURCH", "designationCode": "C", "categoryCode": "38", "address": "7288 OLD HWY 2", "city": "MARYSVILLE", "province": "ON", "country": "CA", "postalCode": "K0K2N0", "twitter": "None", "instagram": "None", "facebook": "None", "youtube": "None", "website": "None", "summary": "None", "logo": "None", "latitude": 44.22419494144746, "longitude": -77.14315303084398}, "888656790RR0001": {"name": "HOLY NAME OF MARY ROMAN CATHOLIC CHURCH", "designationCode": "C", "categoryCode": "38", "address": "BOX 518", "city": "BROADVIEW", "province": "SK", "country": "CA", "postalCode": "S0G0K0", "twitter": "None", "instagram": "None", "facebook": "None", "youtube": "None", "website": "None", "summary": "None", "logo": "None", "latitude": 50.378010000000074, "longitude": -102.58020999999997}, "128967353RR0091": {"name": "HOLY NAME OF MARY'S PARISH", "designationCode": "C", "categoryCode": "38", "address": "BOX 1029", "city": "ALMONTE", "province": "ON", "country": "CA", "postalCode": "K0A1A0", "twitter": "None", "instagram": "None", "facebook": "None", "youtube": "None", "website": "None", "summary": "None", "logo": "None", "latitude": 45.223665000000054, "longitude": -76.20363799999993}, "118849470RR0039": {"name": "HOLY NAME PARISH", "designationCode": "C", "categoryCode": "38", "address": "4925 CAMBIE ST", "city": "VANCOUVER", "province": "BC", "country": "CA", "postalCode": "V5Z2Z4", "twitter": "None", "instagram": "None", "facebook": "None", "youtube": "None", "website": "None", "summary": "None", "logo": "None", "latitude": 49.24033836885524, "longitude": -123.1184416664726}, "106880107RR0092": {"name": "HOLY NAME PARISH, WESTVILLE", "designationCode": "C", "categoryCode": "38", "address": "BOX 760", "city": "WESTVILLE", "province": "NS", "country": "CA", "postalCode": "B0K2A0", "twitter": "None", "instagram": "None", "facebook": "None", "youtube": "None", "website": "None", "summary": "None", "logo": "None", "latitude": 45.559140000000056, "longitude": -62.70123049999994}, "852982578RR0001": {"name": "HOLY NAMES HOUSE OF PEACE INC.", "designationCode": "C", "categoryCode": "47", "address": "211 EDMONTON STREET", "city": "WINNIPEG", "province": "MB", "country": "CA", "postalCode": "R3C1R4", "twitter": "None", "instagram": "None", "facebook": "None", "youtube": "None", "website": "None", "summary": "None", "logo": "None", "latitude": 49.890213387183294, "longitude": -97.14598047804279}, "126038314RR0001": {"name": "HOLY PROTECTION OF THE MOTHER OF GOD-UKRAINIAN CATHOLIC CHURCH", "designationCode": "C", "categoryCode": "38", "address": "115 YORK RD", "city": "GUELPH", "province": "ON", "country": "CA", "postalCode": "N1E3E7", "twitter": "None", "instagram": "None", "facebook": "None", "youtube": "None", "website": "None", "summary": "None", "logo": "None", "latitude": 43.54238637382445, "longitude": -80.23698461169153}, "107876476RR0043": {"name": "HOLY REDEEMER CHURCH", "designationCode": "C", "categoryCode": "38", "address": "1887 BANCROFT DR", "city": "SUDBURY", "province": "ON", "country": "CA", "postalCode": "P3B1S7", "twitter": "None", "instagram": "None", "facebook": "None", "youtube": "None", "website": "None", "summary": "None", "logo": "None", "latitude": 46.49046349435603, "longitude": -80.93731031195108}, "891164048RR0001": {"name": "HOLY REDEEMER CHURCH", "designationCode": "C", "categoryCode": "38", "address": "PO BOX 1449", "city": "ROBLIN", "province": "MB", "country": "CA", "postalCode": "R0L1P0", "twitter": "None", "instagram": "None", "facebook": "None", "youtube": "None", "website": "None", "summary": "None", "logo": "None", "latitude": 51.22816000000006, "longitude": -101.35248999999999}, "107910176RR0021": {"name": "HOLY REDEEMER PARISH", "designationCode": "C", "categoryCode": "38", "address": "PO BOX 1363", "city": "ST JOHN'S", "province": "NL", "country": "CA", "postalCode": "A1C5N5", "twitter": "None", "instagram": "None", "facebook": "None", "youtube": "None", "website": "None", "summary": "None", "logo": "None", "latitude": 47.56082100000006, "longitude": -52.71219349999993}, "128967353RR0113": {"name": "HOLY REDEEMER PARISH", "designationCode": "C", "categoryCode": "38", "address": "44 ROTHESAY DR.", "city": "KANATA", "province": "ON", "country": "CA", "postalCode": "K2L2X1", "twitter": "None", "instagram": "None", "facebook": "None", "youtube": "None", "website": "None", "summary": "None", "logo": "None", "latitude": 45.29244430307581, "longitude": -75.87179445123816}, "106880107RR0084": {"name": "HOLY REDEEMER PARISH, SYDNEY", "designationCode": "C", "categoryCode": "38", "address": "P O BOX 40 PIER POSTAL STN", "city": "SYDNEY", "province": "NS", "country": "CA", "postalCode": "B1N3B1", "twitter": "None", "instagram": "None", "facebook": "None", "youtube": "None", "website": "None", "summary": "None", "logo": "None", "latitude": 46.137372000000056, "longitude": -60.19552249999994}, "891417446RR0001": {"name": "HOLY RESSURECTION PARISH", "designationCode": "C", "categoryCode": "38", "address": "114 - 2235 BASKIN ST", "city": "PENTICTON", "province": "BC", "country": "CA", "postalCode": "V2A8A8", "twitter": "None", "instagram": "None", "facebook": "None", "youtube": "None", "website": "None", "summary": "None", "logo": "None", "latitude": 49.472117214265126, "longitude": -119.59413870373353}, "131634503RR0001": {"name": "HOLY RESURRECTION ORTHODOX CHURCH", "designationCode": "C", "categoryCode": "39", "address": "2202 LORNE AVE                ATTN MR. DAVID GRIER", "city": "SASKATOON", "province": "SK", "country": "CA", "postalCode": "S7J0R9", "twitter": "None", "instagram": "None", "facebook": "None", "youtube": "None", "website": "None", "summary": "None", "logo": "None", "latitude": 52.1034019103526, "longitude": -106.67047519112447}, "857519607RR0001": {"name": "HOLY RESURRECTION RUSSIAN ORTHODOX CHURCH", "designationCode": "C", "categoryCode": "39", "address": "75 EAST 43RD AVENUE", "city": "VANCOUVER", "province": "BC", "country": "CA", "postalCode": "V5W1S7", "twitter": "None", "instagram": "None", "facebook": "None", "youtube": "None", "website": "None", "summary": "None", "logo": "None", "latitude": 49.231002456575595, "longitude": -123.10435282944775}, "118849470RR0013": {"name": "HOLY ROSARY CATHEDRAL", "designationCode": "C", "categoryCode": "38", "address": "646 RICHARDS ST", "city": "VANCOUVER", "province": "BC", "country": "CA", "postalCode": "V6B3A3", "twitter": "None", "instagram": "None", "facebook": "None", "youtube": "None", "website": "None", "summary": "None", "logo": "None", "latitude": 49.281842704397356, "longitude": -123.11515496875197}, "130330236RR0001": {"name": "HOLY ROSARY CATHEDRAL,", "designationCode": "C", "categoryCode": "38", "address": "2104 GARNET ST", "city": "REGINA", "province": "SK", "country": "CA", "postalCode": "S4T6Y5", "twitter": "None", "instagram": "None", "facebook": "None", "youtube": "None", "website": "None", "summary": "None", "logo": "None", "latitude": 50.44543496672795, "longitude": -104.62689023176368}, "118960731RR0001": {"name": "HOLY ROSARY CHURCH", "designationCode": "C", "categoryCode": "38", "address": "510 RIVER AVE", "city": "WINNIPEG", "province": "MB", "country": "CA", "postalCode": "R3L0E1", "twitter": "None", "instagram": "None", "facebook": "None", "youtube": "None", "website": "None", "summary": "None", "logo": "None", "latitude": 49.878561104045474, "longitude": -97.14824410349722}, "106880107RR0091": {"name": "HOLY ROSARY CHURCH, SYDNEY", "designationCode": "C", "categoryCode": "38", "address": "40 ROSARY DR", "city": "SYDNEY", "province": "NS", "country": "CA", "postalCode": "B1R1M5", "twitter": "None", "instagram": "None", "facebook": "None", "youtube": "None", "website": "None", "summary": "None", "logo": "None", "latitude": 46.13578388291278, "longitude": -60.217314770096074}, "107020331RR0002": {"name": "HOLY ROSARY PARISH", "designationCode": "C", "categoryCode": "38", "address": "26 DYSART LANE", "city": "MINTO", "province": "NB", "country": "CA", "postalCode": "E4B3R5", "twitter": "None", "instagram": "None", "facebook": "None", "youtube": "None", "website": "None", "summary": "None", "logo": "None", "latitude": 46.07689200000006, "longitude": -66.07578049999994}, "107020331RR0056": {"name": "HOLY ROSARY PARISH", "designationCode": "C", "categoryCode": "38", "address": "5 ROSE STREET", "city": "ST. STEPHEN", "province": "NB", "country": "CA", "postalCode": "E3L3B1", "twitter": "None", "instagram": "None", "facebook": "None", "youtube": "None", "website": "None", "summary": "None", "logo": "None", "latitude": 45.194804214265105, "longitude": -67.28345310739235}, "107910176RR0038": {"name": "HOLY ROSARY PARISH", "designationCode": "C", "categoryCode": "38", "address": "PO BOX 1363", "city": "ST JOHN'S", "province": "NL", "country": "CA", "postalCode": "A1C5N5", "twitter": "None", "instagram": "None", "facebook": "None", "youtube": "None", "website": "None", "summary": "None", "logo": "None", "latitude": 47.56082100000006, "longitude": -52.71219349999993}, "107910192RR0006": {"name": "HOLY ROSARY PARISH", "designationCode": "C", "categoryCode": "38", "address": "P.O. BOX 39", "city": "PASADENA", "province": "NL", "country": "CA", "postalCode": "A0L1K0", "twitter": "None", "instagram": "None", "facebook": "None", "youtube": "None", "website": "None", "summary": "None", "logo": "None", "latitude": 49.005753000000055, "longitude": -57.59809099999994}, "119110450RR0031": {"name": "HOLY ROSARY PARISH", "designationCode": "C", "categoryCode": "38", "address": "175 EMMA STREET", "city": "GUELPH", "province": "ON", "country": "CA", "postalCode": "N1E1V6", "twitter": "None", "instagram": "None", "facebook": "None", "youtube": "None", "website": "None", "summary": "None", "logo": "None", "latitude": 43.56514520912538, "longitude": -80.25351049692264}, "119110450RR0063": {"name": "HOLY ROSARY PARISH", "designationCode": "C", "categoryCode": "38", "address": "287 PLAINS ROAD E", "city": "BURLINGTON", "province": "ON", "country": "CA", "postalCode": "L7T2C7", "twitter": "None", "instagram": "None", "facebook": "None", "youtube": "None", "website": "None", "summary": "None", "logo": "None", "latitude": 43.31383908996453, "longitude": -79.84344170488737}, "119110450RR0093": {"name": "HOLY ROSARY PARISH", "designationCode": "C", "categoryCode": "38", "address": "139 MARTIN STREET", "city": "MILTON", "province": "ON", "country": "CA", "postalCode": "L9T2R3", "twitter": "None", "instagram": "None", "facebook": "None", "youtube": "None", "website": "None", "summary": "None", "logo": "None", "latitude": 43.516272338103406, "longitude": -79.88662435962884}, "888507993RR0001": {"name": "HOLY ROSARY PARISH", "designationCode": "C", "categoryCode": "38", "address": "RR1", "city": "DEBOLT", "province": "AB", "country": "CA", "postalCode": "T0H1B0", "twitter": "None", "instagram": "None", "facebook": "None", "youtube": "None", "website": "None", "summary": "None", "logo": "None", "latitude": 55.21796000000006, "longitude": -118.02602999999999}, "130091135RR0028": {"name": "HOLY ROSARY- ST VINCENT PARISH", "designationCode": "C", "categoryCode": "38", "address": "63 CHARLOTTE ST", "city": "SACKVILLE", "province": "NB", "country": "CA", "postalCode": "E4L1G6", "twitter": "None", "instagram": "None", "facebook": "None", "youtube": "None", "website": "None", "summary": "None", "logo": "None", "latitude": 45.8962302129088, "longitude": -64.37898458491554}, "865649503RR0001": {"name": "HOLY SATSANG FOUNDATION", "designationCode": "A", "categoryCode": "03", "address": "7990 - 123 A STREET", "city": "SURREY", "province": "BC", "country": "CA", "postalCode": "V3W3W2", "twitter": "None", "instagram": "None", "facebook": "None", "youtube": "None", "website": "None", "summary": "None", "logo": "None", "latitude": 49.147874779906516, "longitude": -122.8804279844481}, "842477762RR0001": {"name": "HOLY SATSANG SOCIETY", "designationCode": "C", "categoryCode": "62", "address": "7990 123A ST", "city": "SURREY", "province": "BC", "country": "CA", "postalCode": "V3W3W2", "twitter": "None", "instagram": "None", "facebook": "None", "youtube": "None", "website": "None", "summary": "None", "logo": "None", "latitude": 49.147874779906516, "longitude": -122.8804279844481}, "119264174RR0006": {"name": "HOLY SAVIOUR CHURCH,", "designationCode": "C", "categoryCode": "38", "address": "17 STEVENS AVENUE             PO BOX 358", "city": "MARATHON", "province": "ON", "country": "CA", "postalCode": "P0T2E0", "twitter": "None", "instagram": "None", "facebook": "None", "youtube": "None", "website": "None", "summary": "None", "logo": "None", "latitude": 48.71763887030929, "longitude": -86.38274569539175}, "102385515RR0001": {"name": "HOLY SPIRIT ASSOCIATION FOR THE UNIFICATION OF WORLD CHRISTIANITY", "designationCode": "C", "categoryCode": "47", "address": "902 BOUL. STE CROIX", "city": "SAINT LAURENT", "province": "QC", "country": "CA", "postalCode": "H4L3Y6", "twitter": "None", "instagram": "None", "facebook": "None", "youtube": "None", "website": "None", "summary": "None", "logo": "None", "latitude": 45.51498757672123, "longitude": -73.6779955735759}, "128967353RR0051": {"name": "HOLY SPIRIT CATHOLIC PARISH", "designationCode": "C", "categoryCode": "38", "address": "1489 SHEA ROAD", "city": "STITTSVILLE", "province": "ON", "country": "CA", "postalCode": "K2S0G8", "twitter": "None", "instagram": "None", "facebook": "None", "youtube": "None", "website": "None", "summary": "None", "logo": "None", "latitude": 45.265000805758845, "longitude": -75.90829189904254}, "137674867RR0001": {"name": "HOLY SPIRIT CATHOLIC SCHOOL PARENT ADVISORY COUNCIL", "designationCode": "C", "categoryCode": "21", "address": "129 POWELL ST", "city": "COCHRANE", "province": "AB", "country": "CA", "postalCode": "T0L0W1", "twitter": "None", "instagram": "None", "facebook": "None", "youtube": "None", "website": "None", "summary": "None", "logo": "None", "latitude": 51.19012454342439, "longitude": -114.464574}, "899050496RR0001": {"name": "HOLY SPIRIT CATHOLIC SEPARATE REGIONAL DIVISION NO 4", "designationCode": "C", "categoryCode": "21", "address": "620-12 B ST N", "city": "LETHBRIDGE", "province": "AB", "country": "CA", "postalCode": "T1H2L7", "twitter": "None", "instagram": "None", "facebook": "None", "youtube": "None", "website": "None", "summary": "None", "logo": "None", "latitude": 49.707865093867504, "longitude": -112.82994979315556}, "107487761RR0001": {"name": "HOLY SPIRIT CHURCH", "designationCode": "C", "categoryCode": "38", "address": "15 ST OLGA ST", "city": "HAMILTON", "province": "ON", "country": "CA", "postalCode": "L8L6R3", "twitter": "None", "instagram": "None", "facebook": "None", "youtube": "None", "website": "None", "summary": "None", "logo": "None", "latitude": 43.255769074941, "longitude": -79.83401668990888}, "118960889RR0001": {"name": "HOLY SPIRIT GREEK CATHOLIC CHURCH OF OROLOW", "designationCode": "C", "categoryCode": "38", "address": "RR # 1", "city": "BORDEN", "province": "SK", "country": "CA", "postalCode": "S0K0N0", "twitter": "None", "instagram": "None", "facebook": "None", "youtube": "None", "website": "None", "summary": "None", "logo": "None", "latitude": 52.40489400000001, "longitude": -107.24116157377458}, "891279218RR0001": {"name": "HOLY SPIRIT HIGH SCHOOL COUNCIL", "designationCode": "C", "categoryCode": "21", "address": "2694 TOPSAIL RD", "city": "CONCEPTION BAY SOUTH", "province": "NL", "country": "CA", "postalCode": "A1W4B1", "twitter": "None", "instagram": "None", "facebook": "None", "youtube": "None", "website": "None", "summary": "None", "logo": "None", "latitude": 47.52606723594771, "longitude": -52.94556046129266}, "118960897RR0001": {"name": "HOLY SPIRIT LUTHERAN CHURCH", "designationCode": "C", "categoryCode": "32", "address": "11223 51 AVE NW", "city": "EDMONTON", "province": "AB", "country": "CA", "postalCode": "T6H0L5", "twitter": "None", "instagram": "None", "facebook": "None", "youtube": "None", "website": "None", "summary": "None", "logo": "None", "latitude": 53.488176539529256, "longitude": -113.52195386081135}, "887793032RR0001": {"name": "HOLY SPIRIT MINISTRY SOCIETY", "designationCode": "C", "categoryCode": "02", "address": "13010-111 AVE", "city": "SURREY", "province": "BC", "country": "CA", "postalCode": "V3T2R9", "twitter": "None", "instagram": "None", "facebook": "None", "youtube": "None", "website": "None", "summary": "None", "logo": "None", "latitude": 49.20464847792723, "longitude": -122.86165402553522}, "107909939RR0078": {"name": "HOLY SPIRIT PARISH", "designationCode": "C", "categoryCode": "38", "address": "10827-24 STREET SW", "city": "CALGARY", "province": "AB", "country": "CA", "postalCode": "T2W2Z2", "twitter": "None", "instagram": "None", "facebook": "None", "youtube": "None", "website": "None", "summary": "None", "logo": "None", "latitude": 50.95641641909515, "longitude": -114.1181166519706}, "107910259RR0224": {"name": "HOLY SPIRIT PARISH", "designationCode": "C", "categoryCode": "38", "address": "650 ESSA RD.", "city": "BARRIE", "province": "ON", "country": "CA", "postalCode": "L4N9E6", "twitter": "None", "instagram": "None", "facebook": "None", "youtube": "None", "website": "None", "summary": "None", "logo": "None", "latitude": 44.33233979877665, "longitude": -79.7126640360668}, "118849470RR0084": {"name": "HOLY SPIRIT PARISH", "designationCode": "C", "categoryCode": "38", "address": "244 LAWRENCE ST", "city": "NEW WESTMINSTER", "province": "BC", "country": "CA", "postalCode": "V3M5L1", "twitter": "None", "instagram": "None", "facebook": "None", "youtube": "None", "website": "None", "summary": "None", "logo": "None", "latitude": 49.187355512793815, "longitude": -122.94188329979548}, "859152035RR0001": {"name": "HOLY SPIRIT SEMINARY FOUNDATION", "designationCode": "A", "categoryCode": "43", "address": "233 SCOTIA STREET", "city": "WINNIPEG", "province": "MB", "country": "CA", "postalCode": "R2V1V7", "twitter": "None", "instagram": "None", "facebook": "None", "youtube": "None", "website": "None", "summary": "None", "logo": "None", "latitude": 49.92746675630453, "longitude": -97.11237154547321}}