{"132076365RR0001": {"name": "FABRIQUE DE LA PAROISSE SAINT-MICHEL DE ROUGEMONT", "designationCode": "C", "categoryCode": "38", "address": "945 RUE PRINCIPALE", "city": "ROUGEMONT", "province": "QC", "country": "CA", "postalCode": "J0L1M0", "twitter": "None", "instagram": "None", "facebook": "None", "youtube": "None", "website": "None", "summary": "None", "logo": "None", "latitude": 45.43626905511362, "longitude": -73.0542598934557}, "130920390RR0001": {"name": "FABRIQUE DE LA PAROISSE SAINT-NOM-DE-MARIE DE MARIEVILLE", "designationCode": "C", "categoryCode": "38", "address": "603 RUE CLAUDE DE RAMESAY", "city": "MARIEVILLE", "province": "QC", "country": "CA", "postalCode": "J3M1J7", "twitter": "None", "instagram": "None", "facebook": "None", "youtube": "None", "website": "None", "summary": "None", "logo": "None", "latitude": 45.432351219545225, "longitude": -73.15991370309929}, "132081472RR0001": {"name": "FABRIQUE DE LA PAROISSE SAINT-PHILIPPE DE PHILIPSBURG", "designationCode": "C", "categoryCode": "38", "address": "26 RUE DE L'EGLISE CP 390", "city": "BEDFORD", "province": "QC", "country": "CA", "postalCode": "J0J1A0", "twitter": "None", "instagram": "None", "facebook": "None", "youtube": "None", "website": "None", "summary": "None", "logo": "None", "latitude": 45.12206965892416, "longitude": -72.98551425088017}, "107370124RR0001": {"name": "FABRIQUE DE LA PAROISSE SAINT-PIERRE-CLAVER", "designationCode": "C", "categoryCode": "38", "address": "2000 BOULEVARD SAINT JOSEPH   EST", "city": "MONTREAL", "province": "QC", "country": "CA", "postalCode": "H2H1E4", "twitter": "None", "instagram": "None", "facebook": "None", "youtube": "None", "website": "None", "summary": "None", "logo": "None", "latitude": 45.53709590394728, "longitude": -73.57761807669257}, "118905173RR0001": {"name": "FABRIQUE DE LA PAROISSE SAINT-VINCENT-FERRIER D'ADAMSVILLE", "designationCode": "C", "categoryCode": "38", "address": "133, ADAMSVILLE               C.P. 103", "city": "BROMONT", "province": "QC", "country": "CA", "postalCode": "J2L1A5", "twitter": "None", "instagram": "None", "facebook": "None", "youtube": "None", "website": "None", "summary": "None", "logo": "None", "latitude": 45.2759310313636, "longitude": -72.78547100037443}, "131637035RR0001": {"name": "FABRIQUE DE LA PAROISSE SAINTE EUGENIE DE DOUVILLE ST-HYACINTHE", "designationCode": "C", "categoryCode": "38", "address": "4750 RUE JACQUES-CARTIER", "city": "SAINT-HYACINTHE", "province": "QC", "country": "CA", "postalCode": "J2S3Y9", "twitter": "None", "instagram": "None", "facebook": "None", "youtube": "None", "website": "None", "summary": "None", "logo": "None", "latitude": 45.6050443610998, "longitude": -72.97114654414554}, "132984907RR0001": {"name": "FABRIQUE DE LA PAROISSE SAINTE-MARGUERITE-BOURGEOYS", "designationCode": "C", "categoryCode": "38", "address": "286 ELGAR", "city": "VERDUN", "province": "QC", "country": "CA", "postalCode": "H3E1C9", "twitter": "None", "instagram": "None", "facebook": "None", "youtube": "None", "website": "None", "summary": "None", "logo": "None", "latitude": 45.4568818917136, "longitude": -73.54672916221371}, "118910306RR0001": {"name": "FABRIQUE DE LA PAROISSE SAINTE-MARTINE", "designationCode": "C", "categoryCode": "38", "address": "122 RUE ST-JOSEPH", "city": "STE MARTINE", "province": "QC", "country": "CA", "postalCode": "J0S1V0", "twitter": "None", "instagram": "None", "facebook": "None", "youtube": "None", "website": "None", "summary": "None", "logo": "None", "latitude": 45.24516865280732, "longitude": -73.80530931020225}, "889597944RR0001": {"name": "FABRIQUE DE LA PAROISSE ST ANTOINE DE LES BUISSONS", "designationCode": "C", "categoryCode": "38", "address": "265 RUE PRINCIPAL", "city": "LES BUISSONS", "province": "QC", "country": "CA", "postalCode": "G0H1H0", "twitter": "None", "instagram": "None", "facebook": "None", "youtube": "None", "website": "None", "summary": "None", "logo": "None", "latitude": 49.10643385512721, "longitude": -68.38336840957318}, "890229578RR0001": {"name": "FABRIQUE DE LA PAROISSE ST BENOIT DE LA CORNE", "designationCode": "C", "categoryCode": "38", "address": "353, ROUTE 111 OUEST", "city": "LACORNE", "province": "QC", "country": "CA", "postalCode": "J0Y1R0", "twitter": "None", "instagram": "None", "facebook": "None", "youtube": "None", "website": "None", "summary": "None", "logo": "None", "latitude": 48.77826018143355, "longitude": -79.14618123000159}, "130515653RR0001": {"name": "FABRIQUE DE LA PAROISSE ST ELZEAR", "designationCode": "C", "categoryCode": "38", "address": "672 RUE PRINCIPALE", "city": "ST-ELZEAR", "province": "QC", "country": "CA", "postalCode": "G0S2J2", "twitter": "None", "instagram": "None", "facebook": "None", "youtube": "None", "website": "None", "summary": "None", "logo": "None", "latitude": 46.417123727191274, "longitude": -71.75567464498836}, "130501794RR0001": {"name": "FABRIQUE DE LA PAROISSE ST EMILE DE GUYENNE", "designationCode": "C", "categoryCode": "38", "address": "1261 RANG 5", "city": "GUYENNE", "province": "QC", "country": "CA", "postalCode": "J0Y1L0", "twitter": "None", "instagram": "None", "facebook": "None", "youtube": "None", "website": "None", "summary": "None", "logo": "None", "latitude": 48.77805300000006, "longitude": -78.45187399999993}, "132307349RR0001": {"name": "FABRIQUE DE LA PAROISSE ST JOACHIM DE BEAUCANTON", "designationCode": "C", "categoryCode": "38", "address": "2749A BOUL. MCDUFF            C.P. 634", "city": "BEAUCANTON", "province": "QC", "country": "CA", "postalCode": "J0Z1H0", "twitter": "None", "instagram": "None", "facebook": "None", "youtube": "None", "website": "None", "summary": "None", "logo": "None", "latitude": 49.038828136671675, "longitude": -79.23691776403844}, "133227421RR0001": {"name": "FABRIQUE DE LA PAROISSE ST JUDE D'AUTHIER", "designationCode": "C", "categoryCode": "38", "address": "587 AVENUE PRINCIPALE", "city": "ABITIBI-OUEST P.2", "province": "QC", "country": "CA", "postalCode": "J0Z1C0", "twitter": "None", "instagram": "None", "facebook": "None", "youtube": "None", "website": "None", "summary": "None", "logo": "None", "latitude": 48.72981208912782, "longitude": -78.85982682373493}, "136226974RR0001": {"name": "FABRIQUE DE LA PAROISSE ST LAMBERT DE DESMELOIZES", "designationCode": "C", "categoryCode": "38", "address": "509E RTE DU 5E-AU-8E RANG", "city": "DESMELOIZES", "province": "QC", "country": "CA", "postalCode": "J0Z1V0", "twitter": "None", "instagram": "None", "facebook": "None", "youtube": "None", "website": "None", "summary": "None", "logo": "None", "latitude": 48.95207385058555, "longitude": -79.45824972520992}, "131849440RR0001": {"name": "FABRIQUE DE LA PAROISSE ST LAURENT DE GALLICHAN", "designationCode": "C", "categoryCode": "38", "address": "188 CHEMIN GALLICHAN          C.P. 66", "city": "GALLICHAN", "province": "QC", "country": "CA", "postalCode": "J0Z2B0", "twitter": "None", "instagram": "None", "facebook": "None", "youtube": "None", "website": "None", "summary": "None", "logo": "None", "latitude": 48.60258052322662, "longitude": -79.28880372300767}, "129898698RR0001": {"name": "FABRIQUE DE LA PAROISSE ST LUC DE LA MOTTE", "designationCode": "C", "categoryCode": "38", "address": "162 CHEMIN DU QUAI C.P 609", "city": "LA MOTTE", "province": "QC", "country": "CA", "postalCode": "J0Y1T0", "twitter": "None", "instagram": "None", "facebook": "None", "youtube": "None", "website": "None", "summary": "None", "logo": "None", "latitude": 48.32874000000001, "longitude": -78.10951965442342}, "132145665RR0001": {"name": "FABRIQUE DE LA PAROISSE ST MATHIAS DE CABANO", "designationCode": "C", "categoryCode": "38", "address": "829-A RUE DU CENTRE", "city": "T\u00c9MISCOUATA-SUR-LE-LAC", "province": "QC", "country": "CA", "postalCode": "G0L1E0", "twitter": "None", "instagram": "None", "facebook": "None", "youtube": "None", "website": "None", "summary": "None", "logo": "None", "latitude": 47.68276512600267, "longitude": -68.88181425535223}, "130257611RR0001": {"name": "FABRIQUE DE LA PAROISSE ST NAZAIRE DE BERRY", "designationCode": "C", "categoryCode": "38", "address": "269A ROUTE 399", "city": "BERRY", "province": "QC", "country": "CA", "postalCode": "J0Y2G0", "twitter": "None", "instagram": "None", "facebook": "None", "youtube": "None", "website": "None", "summary": "None", "logo": "None", "latitude": 48.719800791274174, "longitude": -78.25421517478796}, "131808347RR0001": {"name": "FABRIQUE DE LA PAROISSE ST NORBERT DE MONT BRUN", "designationCode": "C", "categoryCode": "38", "address": "10988 RTE D'AIGUEBELLE", "city": "ROUYN-NORANDA", "province": "QC", "country": "CA", "postalCode": "J0Z2Y0", "twitter": "None", "instagram": "None", "facebook": "None", "youtube": "None", "website": "None", "summary": "None", "logo": "None", "latitude": 48.37112546459702, "longitude": -78.71720347325268}, "129978607RR0001": {"name": "FABRIQUE DE LA PAROISSE ST PHILIPPE DE LA REINE", "designationCode": "C", "categoryCode": "38", "address": "9 3E AVENUE OUEST", "city": "LA REINE", "province": "QC", "country": "CA", "postalCode": "J0Z2L0", "twitter": "None", "instagram": "None", "facebook": "None", "youtube": "None", "website": "None", "summary": "None", "logo": "None", "latitude": 48.86786552207278, "longitude": -79.50713391618096}, "130008873RR0001": {"name": "FABRIQUE DE LA PAROISSE ST PIERRE DE WAKEFIELD", "designationCode": "C", "categoryCode": "38", "address": "30 CHEMIN DE L'EGLISE", "city": "VAL-DES-MONTS", "province": "QC", "country": "CA", "postalCode": "J8N2A1", "twitter": "None", "instagram": "None", "facebook": "None", "youtube": "None", "website": "None", "summary": "None", "logo": "None", "latitude": 45.684514864562274, "longitude": -75.72084765811609}, "118908136RR0001": {"name": "FABRIQUE DE LA PAROISSE ST-ADOLPHE", "designationCode": "C", "categoryCode": "38", "address": "1845 CHEMIN DU VILLAGE", "city": "ST-ADOLPHE D'HOWARD", "province": "QC", "country": "CA", "postalCode": "J0T2B0", "twitter": "None", "instagram": "None", "facebook": "None", "youtube": "None", "website": "None", "summary": "None", "logo": "None", "latitude": 45.969895155115914, "longitude": -74.33471851736957}, "118908144RR0001": {"name": "FABRIQUE DE LA PAROISSE ST-ALBERT LE GRAND DE DUPARQUET", "designationCode": "C", "categoryCode": "38", "address": "52 RUE PRINCIPALE C.P.456", "city": "DUPARQUET", "province": "QC", "country": "CA", "postalCode": "J0Z1W0", "twitter": "None", "instagram": "None", "facebook": "None", "youtube": "None", "website": "None", "summary": "None", "logo": "None", "latitude": 48.50381732664914, "longitude": -79.22438236568745}, "107358285RR0001": {"name": "FABRIQUE DE LA PAROISSE ST-ANTOINE-DE-GROS-MORNE", "designationCode": "C", "categoryCode": "38", "address": "5, RUE DE L'EGLISE            CP 189", "city": "GROS-MORNE", "province": "QC", "country": "CA", "postalCode": "G0E1L0", "twitter": "None", "instagram": "None", "facebook": "None", "youtube": "None", "website": "None", "summary": "None", "logo": "None", "latitude": 49.25168477240469, "longitude": -65.54053905444599}, "118908185RR0001": {"name": "FABRIQUE DE LA PAROISSE ST-AUSTIN", "designationCode": "C", "categoryCode": "38", "address": "1 CHEMIN MILLINGTON", "city": "AUSTIN CTE BROME", "province": "QC", "country": "CA", "postalCode": "J0B1B0", "twitter": "None", "instagram": "None", "facebook": "None", "youtube": "None", "website": "None", "summary": "None", "logo": "None", "latitude": 45.18418754593455, "longitude": -72.27999265947241}, "118908193RR0001": {"name": "FABRIQUE DE LA PAROISSE ST-BARNABE-DE-LANDRIENNE", "designationCode": "C", "categoryCode": "38", "address": "LANDRIENNE", "city": "LANDRIENNE", "province": "QC", "country": "CA", "postalCode": "J0Y1V0", "twitter": "None", "instagram": "None", "facebook": "None", "youtube": "None", "website": "None", "summary": "None", "logo": "None", "latitude": 48.54728000000006, "longitude": -77.95351999999997}, "107365546RR0001": {"name": "FABRIQUE DE LA PAROISSE ST-BERNARD-DE-SULLIVAN", "designationCode": "C", "categoryCode": "38", "address": "3216 CH SULLIVAN", "city": "VAL D'OR", "province": "QC", "country": "CA", "postalCode": "J9P0B8", "twitter": "None", "instagram": "None", "facebook": "None", "youtube": "None", "website": "None", "summary": "None", "logo": "None", "latitude": 48.12840893891757, "longitude": -77.83294727044279}, "130032550RR0001": {"name": "FABRIQUE DE LA PAROISSE ST-CASIMIR", "designationCode": "C", "categoryCode": "38", "address": "17, RUE MAJOR", "city": "RIPON", "province": "QC", "country": "CA", "postalCode": "J0V1V0", "twitter": "None", "instagram": "None", "facebook": "None", "youtube": "None", "website": "None", "summary": "None", "logo": "None", "latitude": 45.785394484563675, "longitude": -75.10111263918864}, "118999002RR0001": {"name": "FABRIQUE DE LA PAROISSE ST-EDMOND DE VASSAN", "designationCode": "C", "categoryCode": "38", "address": "487, ROUTE 111", "city": "VAL-D'OR", "province": "QC", "country": "CA", "postalCode": "J9P0C1", "twitter": "None", "instagram": "None", "facebook": "None", "youtube": "None", "website": "None", "summary": "None", "logo": "None", "latitude": 48.228934246641934, "longitude": -77.93155825335806}, "107366437RR0001": {"name": "FABRIQUE DE LA PAROISSE ST-EDMOND-LES-PLAINES", "designationCode": "C", "categoryCode": "38", "address": "558 PRINCIPALE", "city": "ST EDMOND LES PLAINES", "province": "QC", "country": "CA", "postalCode": "G0W2M0", "twitter": "None", "instagram": "None", "facebook": "None", "youtube": "None", "website": "None", "summary": "None", "logo": "None", "latitude": 48.90525619813629, "longitude": -72.55156344927533}, "118908417RR0001": {"name": "FABRIQUE DE LA PAROISSE ST-EPHREM D'UPTON", "designationCode": "C", "categoryCode": "38", "address": "351, MGR DESMARAIS", "city": "UPTON", "province": "QC", "country": "CA", "postalCode": "J0H2E0", "twitter": "None", "instagram": "None", "facebook": "None", "youtube": "None", "website": "None", "summary": "None", "logo": "None", "latitude": 45.65162170904314, "longitude": -72.69200132377267}, "132258880RR0001": {"name": "FABRIQUE DE LA PAROISSE ST-ISIDORE DE VAL SENNEVILLE", "designationCode": "C", "categoryCode": "38", "address": "648 RTE DES CAMPAGNARDS", "city": "VAL D'OR", "province": "QC", "country": "CA", "postalCode": "J9P0C2", "twitter": "None", "instagram": "None", "facebook": "None", "youtube": "None", "website": "None", "summary": "None", "logo": "None", "latitude": 48.18516300000002, "longitude": -77.65568028267647}, "118908615RR0001": {"name": "FABRIQUE DE LA PAROISSE ST-JACQUES LE MINEUR DE DUPUY", "designationCode": "C", "categoryCode": "38", "address": "2, 6E AVENUE EST", "city": "DUPUY", "province": "QC", "country": "CA", "postalCode": "J0Z1X0", "twitter": "None", "instagram": "None", "facebook": "None", "youtube": "None", "website": "None", "summary": "None", "logo": "None", "latitude": 48.82996446768412, "longitude": -79.35571294662186}, "107368383RR0001": {"name": "FABRIQUE DE LA PAROISSE ST-JACQUES-LE-MAJEUR-DE-BARRAUTE", "designationCode": "C", "categoryCode": "38", "address": "630, 1E RUE OUEST", "city": "BARRAUTE", "province": "QC", "country": "CA", "postalCode": "J0Y1A0", "twitter": "None", "instagram": "None", "facebook": "None", "youtube": "None", "website": "None", "summary": "None", "logo": "None", "latitude": 48.44035833527613, "longitude": -77.63731155502384}, "107360463RR0001": {"name": "FABRIQUE DE LA PAROISSE ST-JANVIER-DE-CHAZEL", "designationCode": "C", "categoryCode": "38", "address": "384 1ER-ET-10E RANG O", "city": "CHAZEL", "province": "QC", "country": "CA", "postalCode": "J0Z1N0", "twitter": "None", "instagram": "None", "facebook": "None", "youtube": "None", "website": "None", "summary": "None", "logo": "None", "latitude": 48.864345117677445, "longitude": -79.11686243382043}, "118908649RR0001": {"name": "FABRIQUE DE LA PAROISSE ST-JEAN L'EVANGELISTE DE MACAMIC", "designationCode": "C", "categoryCode": "38", "address": "6, 8E AVENUE OUEST", "city": "MACAMIC", "province": "QC", "country": "CA", "postalCode": "J0Z2S0", "twitter": "None", "instagram": "None", "facebook": "None", "youtube": "None", "website": "None", "summary": "None", "logo": "None", "latitude": 48.75704047215617, "longitude": -79.00261932361936}, "131636045RR0001": {"name": "FABRIQUE DE LA PAROISSE ST-JOSEPH DE RIVIERE-BLEUE", "designationCode": "C", "categoryCode": "38", "address": "25 RUE DE L'EGLISE", "city": "RIVIERE-BLEUE", "province": "QC", "country": "CA", "postalCode": "G0L2B0", "twitter": "None", "instagram": "None", "facebook": "None", "youtube": "None", "website": "None", "summary": "None", "logo": "None", "latitude": 47.434449279214014, "longitude": -69.04328442183646}, "107368979RR0001": {"name": "FABRIQUE DE LA PAROISSE ST-JOSEPH DE SOULANGES", "designationCode": "C", "categoryCode": "38", "address": "1980 CHEMIN STE-ANG\u00c9LIQUE", "city": "ST-LAZARE-DE-VAUDREUIL", "province": "QC", "country": "CA", "postalCode": "J7T2Y7", "twitter": "None", "instagram": "None", "facebook": "None", "youtube": "None", "website": "None", "summary": "None", "logo": "None", "latitude": 45.40037264383452, "longitude": -74.14244694437058}, "118908748RR0001": {"name": "FABRIQUE DE LA PAROISSE ST-LOUIS DE CHAMBORD", "designationCode": "C", "categoryCode": "38", "address": "1508 PRINCIPALE", "city": "CHAMBORD", "province": "QC", "country": "CA", "postalCode": "G0W1G0", "twitter": "None", "instagram": "None", "facebook": "None", "youtube": "None", "website": "None", "summary": "None", "logo": "None", "latitude": 48.429962783196075, "longitude": -72.0616780355472}, "118908763RR0001": {"name": "FABRIQUE DE LA PAROISSE ST-LUDGER DE MILOT", "designationCode": "C", "categoryCode": "38", "address": "727 RUE GAUDREAULT", "city": "SAINT-LUDGER-DE-MILOT", "province": "QC", "country": "CA", "postalCode": "G0W2B0", "twitter": "None", "instagram": "None", "facebook": "None", "youtube": "None", "website": "None", "summary": "None", "logo": "None", "latitude": 48.896138974753235, "longitude": -71.82013608526134}, "107358715RR0001": {"name": "FABRIQUE DE LA PAROISSE ST-MATHIEU D'HARRICANA OUEST", "designationCode": "C", "categoryCode": "38", "address": "228 ROUTE 109", "city": "ST-MATHIEU-D'HARRICANA", "province": "QC", "country": "CA", "postalCode": "J0Y1M0", "twitter": "None", "instagram": "None", "facebook": "None", "youtube": "None", "website": "None", "summary": "None", "logo": "None", "latitude": 48.47278175946528, "longitude": -78.13826922049016}, "107364291RR0001": {"name": "FABRIQUE DE LA PAROISSE ST-OCTAVE-DE-DOSQUET", "designationCode": "C", "categoryCode": "38", "address": "154 ST-JOSEPH NORD", "city": "SAINT-OCTAVE-DE-DOSQUET", "province": "QC", "country": "CA", "postalCode": "G0S1H0", "twitter": "None", "instagram": "None", "facebook": "None", "youtube": "None", "website": "None", "summary": "None", "logo": "None", "latitude": 46.46818411296093, "longitude": -71.53060894976628}, "107364366RR0001": {"name": "FABRIQUE DE LA PAROISSE ST-PAUL", "designationCode": "C", "categoryCode": "38", "address": "27 DE L'EGLISE N", "city": "LACOLLE", "province": "QC", "country": "CA", "postalCode": "J0J1J0", "twitter": "None", "instagram": "None", "facebook": "None", "youtube": "None", "website": "None", "summary": "None", "logo": "None", "latitude": 45.083293564804684, "longitude": -73.37307840527401}, "107360927RR0001": {"name": "FABRIQUE DE LA PAROISSE ST-PIERRE", "designationCode": "C", "categoryCode": "38", "address": "740 RUE L'ESCALE", "city": "HAVRE ST-PIERRE", "province": "QC", "country": "CA", "postalCode": "G0G1P0", "twitter": "None", "instagram": "None", "facebook": "None", "youtube": "None", "website": "None", "summary": "None", "logo": "None", "latitude": 50.23864617707313, "longitude": -63.60703435316529}, "107587255RR0001": {"name": "FABRIQUE DE LA PAROISSE ST-PIERRE DE TASCHEREAU", "designationCode": "C", "categoryCode": "38", "address": "150  AVE PRIVAT", "city": "TASCHEREAU", "province": "QC", "country": "CA", "postalCode": "J0Z3N0", "twitter": "None", "instagram": "None", "facebook": "None", "youtube": "None", "website": "None", "summary": "None", "logo": "None", "latitude": 48.66258274995655, "longitude": -78.68037356062108}, "107587966RR0001": {"name": "FABRIQUE DE LA PAROISSE ST-SIMON DE VILLEMONTEL", "designationCode": "C", "categoryCode": "38", "address": "330 RUE SAUV\u00c9", "city": "TR\u00c9CESSON", "province": "QC", "country": "CA", "postalCode": "J0Y2S0", "twitter": "None", "instagram": "None", "facebook": "None", "youtube": "None", "website": "None", "summary": "None", "logo": "None", "latitude": 48.630221580904845, "longitude": -78.36182241739306}, "132022849RR0001": {"name": "FABRIQUE DE LA PAROISSE ST-VITAL DE CLERMONT,", "designationCode": "C", "categoryCode": "38", "address": "757 CH DES 4E-ET-5E RANGS E   RR 1", "city": "SAINT-VITAL-DE-CLERMONT", "province": "QC", "country": "CA", "postalCode": "J0Z3M0", "twitter": "None", "instagram": "None", "facebook": "None", "youtube": "None", "website": "None", "summary": "None", "logo": "None", "latitude": 48.923055508799905, "longitude": -79.24987349999999}, "107366189RR0001": {"name": "FABRIQUE DE LA PAROISSE STE-ANNE-DE-ROQUEMAURE", "designationCode": "C", "categoryCode": "38", "address": "14, RAYMOND E", "city": "ROQUEMAURE", "province": "QC", "country": "CA", "postalCode": "J0Z3K0", "twitter": "None", "instagram": "None", "facebook": "None", "youtube": "None", "website": "None", "summary": "None", "logo": "None", "latitude": 48.60489246494281, "longitude": -79.40483244601536}, "118908292RR0001": {"name": "FABRIQUE DE LA PAROISSE STE-CATHERINE-DE-SIENNE", "designationCode": "C", "categoryCode": "38", "address": "355 COTE RICHELIEU", "city": "TROIS-RIVIERES", "province": "QC", "country": "CA", "postalCode": "G9A2Y9", "twitter": "None", "instagram": "None", "facebook": "None", "youtube": "None", "website": "None", "summary": "None", "logo": "None", "latitude": 46.32263799971153, "longitude": -72.56761752013954}, "107360158RR0001": {"name": "FABRIQUE DE LA PAROISSE STE-CLAIRE-DE-COLOMBOURG", "designationCode": "C", "categoryCode": "38", "address": "705, RANG 2 ET 3 OUEST", "city": "MACAMIC", "province": "QC", "country": "CA", "postalCode": "J0Z2S0", "twitter": "None", "instagram": "None", "facebook": "None", "youtube": "None", "website": "None", "summary": "None", "logo": "None", "latitude": 48.749005123460336, "longitude": -79.0517854833368}, "118908326RR0001": {"name": "FABRIQUE DE LA PAROISSE STE-FAMILLE", "designationCode": "C", "categoryCode": "38", "address": "80, RUE ROCHEFORT", "city": "TROIS-RIVIERES", "province": "QC", "country": "CA", "postalCode": "G8T7J1", "twitter": "None", "instagram": "None", "facebook": "None", "youtube": "None", "website": "None", "summary": "None", "logo": "None", "latitude": 46.36364450126943, "longitude": -72.52234198164948}, "107366759RR0001": {"name": "FABRIQUE DE LA PAROISSE STE-HELENE-DE-MANCEBOURG", "designationCode": "C", "categoryCode": "38", "address": "447- 2IEME ET 3IEME RANG", "city": "STE-HELENE-DE-MANCEBOURG", "province": "QC", "country": "CA", "postalCode": "J0Z2T0", "twitter": "None", "instagram": "None", "facebook": "None", "youtube": "None", "website": "None", "summary": "None", "logo": "None", "latitude": 48.74893151543635, "longitude": -79.297641}, "138611520RR0001": {"name": "FABRIQUE DE LA PAROISSE STE-MARGUERITE BOURGEOYS", "designationCode": "C", "categoryCode": "38", "address": "3375 RUE WINDSOR", "city": "SAINT-HUBERT", "province": "QC", "country": "CA", "postalCode": "J4T2X9", "twitter": "None", "instagram": "None", "facebook": "None", "youtube": "None", "website": "None", "summary": "None", "logo": "None", "latitude": 45.498406786860066, "longitude": -73.4707102653069}, "107360281RR0001": {"name": "FABRIQUE DE LA PAROISSE STE-MARTHE-DE-GASPE", "designationCode": "C", "categoryCode": "38", "address": "2 RUE DE LEGLISE", "city": "LA MARTRE GASPE", "province": "QC", "country": "CA", "postalCode": "G0E2H0", "twitter": "None", "instagram": "None", "facebook": "None", "youtube": "None", "website": "None", "summary": "None", "logo": "None", "latitude": 49.20577158364614, "longitude": -66.17154138481736}, "118908441RR0001": {"name": "FABRIQUE DE LA PAROISSE STE-SUZANNE", "designationCode": "C", "categoryCode": "38", "address": "9501 BOUL. GOUIN O", "city": "PIERREFONDS", "province": "QC", "country": "CA", "postalCode": "H8Y1T7", "twitter": "None", "instagram": "None", "facebook": "None", "youtube": "None", "website": "None", "summary": "None", "logo": "None", "latitude": 45.50570224372415, "longitude": -73.77579333406403}, "118908474RR0001": {"name": "FABRIQUE DE LA PAROISSE STE-THERESE D'AVILA D'AMOS", "designationCode": "C", "categoryCode": "38", "address": "11 BOUL. MGR DUDEMAINE", "city": "AMOS", "province": "QC", "country": "CA", "postalCode": "J9T1S3", "twitter": "None", "instagram": "None", "facebook": "None", "youtube": "None", "website": "None", "summary": "None", "logo": "None", "latitude": 48.5729463330831, "longitude": -78.11710724649409}, "891356446RR0001": {"name": "FABRIQUE DE NOTRE-DAME DE L'ASSOMPTION PORT-MENIER", "designationCode": "C", "categoryCode": "38", "address": "5A RUE DES OLYMPIADES         C.P 63", "city": "PORT-MENIER", "province": "QC", "country": "CA", "postalCode": "G0G2Y0", "twitter": "None", "instagram": "None", "facebook": "None", "youtube": "None", "website": "None", "summary": "None", "logo": "None", "latitude": 49.81858571426948, "longitude": -64.35227760885425}, "131924003RR0001": {"name": "FABRIQUE DE PAROISSE DE STE PHILOMENE DE FORTIERVILLE", "designationCode": "C", "categoryCode": "38", "address": "210 RUE PRINCIPALE", "city": "FORTIERVILLE", "province": "QC", "country": "CA", "postalCode": "G0S1J0", "twitter": "None", "instagram": "None", "facebook": "None", "youtube": "None", "website": "None", "summary": "None", "logo": "None", "latitude": 46.48694591866247, "longitude": -72.03109426213291}, "891727463RR0001": {"name": "FABRIQUE DE ST CHARLES GARNIER", "designationCode": "C", "categoryCode": "38", "address": "CP 9", "city": "ST-CHARLES GARNIER", "province": "QC", "country": "CA", "postalCode": "G0K1K0", "twitter": "None", "instagram": "None", "facebook": "None", "youtube": "None", "website": "None", "summary": "None", "logo": "None", "latitude": 48.33239123530861, "longitude": -68.02880088584702}, "130632417RR0001": {"name": "FABRIQUE DE ST CHRISTOPHE D'ARTHABASKA ARTHABASKA", "designationCode": "C", "categoryCode": "38", "address": "40 AVE LAURIER OUEST", "city": "VICTORIAVILLE", "province": "QC", "country": "CA", "postalCode": "G6P6P3", "twitter": "None", "instagram": "None", "facebook": "None", "youtube": "None", "website": "None", "summary": "None", "logo": "None", "latitude": 46.03934728172418, "longitude": -71.91462086156115}, "892135245RR0001": {"name": "FABRIQUE DE ST LOUIS DE BLANDFORD ARTHABASKA", "designationCode": "C", "categoryCode": "38", "address": "72 RUE PRINCIPALE CP 139", "city": "SAINT-LOUIS-DE-BLANDFORD", "province": "QC", "country": "CA", "postalCode": "G0Z1B0", "twitter": "None", "instagram": "None", "facebook": "None", "youtube": "None", "website": "None", "summary": "None", "logo": "None", "latitude": 46.24864246551972, "longitude": -72.00059417167742}, "118909597RR0002": {"name": "FABRIQUE DE ST-JEAN-DE-LA-LANDE", "designationCode": "C", "categoryCode": "38", "address": "824 RUE PRINCIPALE", "city": "SAINT-JEAN-DE-LA-LANDE", "province": "QC", "country": "CA", "postalCode": "G0L3N0", "twitter": "None", "instagram": "None", "facebook": "None", "youtube": "None", "website": "None", "summary": "None", "logo": "None", "latitude": 47.42760122231519, "longitude": -68.68168568803739}, "118909639RR0001": {"name": "FABRIQUE DE ST-LAURENT DE MATAPEDIA", "designationCode": "C", "categoryCode": "38", "address": "1, RUE DU CARILLON", "city": "MATAP\u00c9DIA", "province": "QC", "country": "CA", "postalCode": "G0J1V0", "twitter": "None", "instagram": "None", "facebook": "None", "youtube": "None", "website": "None", "summary": "None", "logo": "None", "latitude": 47.974816539557914, "longitude": -66.95314892068168}, "107369696RR0001": {"name": "FABRIQUE DE ST-NOEL,", "designationCode": "C", "categoryCode": "38", "address": "45 DE L'EGLISE", "city": "CO MATAPEDIA", "province": "QC", "country": "CA", "postalCode": "G0J3A0", "twitter": "None", "instagram": "None", "facebook": "None", "youtube": "None", "website": "None", "summary": "None", "logo": "None", "latitude": 47.97420279821717, "longitude": -66.9537969974705}, "118909829RR0001": {"name": "FABRIQUE DE ST-VIANNEY", "designationCode": "C", "categoryCode": "38", "address": "C.P. 142", "city": "SAINT-VIANNEY, COMTE DE MATAPE", "province": "QC", "country": "CA", "postalCode": "G0J3J0", "twitter": "None", "instagram": "None", "facebook": "None", "youtube": "None", "website": "None", "summary": "None", "logo": "None", "latitude": 48.61662900000006, "longitude": -67.41110149999993}, "118909415RR0001": {"name": "FABRIQUE DE STE-JEANNE D'ARC", "designationCode": "C", "categoryCode": "38", "address": "435 RUE DE L'\u00c9GLISE", "city": "SAINTE JEANNE D'ARC", "province": "QC", "country": "CA", "postalCode": "G0W1E0", "twitter": "None", "instagram": "None", "facebook": "None", "youtube": "None", "website": "None", "summary": "None", "logo": "None", "latitude": 48.8674800102718, "longitude": -72.08492413737099}, "134731553RR0001": {"name": "FABRIQUE DE STE-ROSE DE POULARIES", "designationCode": "C", "categoryCode": "38", "address": "731 BARIL EST CP9", "city": "POULARIES", "province": "QC", "country": "CA", "postalCode": "J0Z3E0", "twitter": "None", "instagram": "None", "facebook": "None", "youtube": "None", "website": "None", "summary": "None", "logo": "None", "latitude": 48.66138548417649, "longitude": -78.98422414873374}, "130381239RR0001": {"name": "FABRIQUE DES TROIS-PISTOLES,", "designationCode": "C", "categoryCode": "38", "address": "30 NOTRE-DAME EST", "city": "TROIS-PISTOLES", "province": "QC", "country": "CA", "postalCode": "G0L4K0", "twitter": "None", "instagram": "None", "facebook": "None", "youtube": "None", "website": "None", "summary": "None", "logo": "None", "latitude": 48.12561582624511, "longitude": -69.17450727003875}, "107360950RR0001": {"name": "FABRIQUE JEAN XXIII", "designationCode": "C", "categoryCode": "38", "address": "5815 RUE DE LA MONTAGNE", "city": "TROIS-RIVIERES", "province": "QC", "country": "CA", "postalCode": "G8Y3S3", "twitter": "None", "instagram": "None", "facebook": "None", "youtube": "None", "website": "None", "summary": "None", "logo": "None", "latitude": 46.33512087535364, "longitude": -72.59597637284348}, "118909894RR0001": {"name": "FABRIQUE MARIE-IMMACULEE", "designationCode": "C", "categoryCode": "38", "address": "180 PAPINEAU", "city": "SEPT-ILES", "province": "QC", "country": "CA", "postalCode": "G4R4H9", "twitter": "None", "instagram": "None", "facebook": "None", "youtube": "None", "website": "None", "summary": "None", "logo": "None", "latitude": 50.2192255100989, "longitude": -66.3912315}, "107361651RR0001": {"name": "FABRIQUE NOTRE-DAME", "designationCode": "C", "categoryCode": "38", "address": "17 CHEMIN D'EN HAUT           C.P. 177", "city": "NATASHQUAN", "province": "QC", "country": "CA", "postalCode": "G0G2E0", "twitter": "None", "instagram": "None", "facebook": "None", "youtube": "None", "website": "None", "summary": "None", "logo": "None", "latitude": 50.186670254515505, "longitude": -61.82389641127621}, "130696974RR0001": {"name": "FABRIQUE NOTRE-DAME-DE-BON-SECOURS", "designationCode": "C", "categoryCode": "38", "address": "750 1RE RUE", "city": "RICHELIEU", "province": "QC", "country": "CA", "postalCode": "J3L3W4", "twitter": "None", "instagram": "None", "facebook": "None", "youtube": "None", "website": "None", "summary": "None", "logo": "None", "latitude": 45.44545340360059, "longitude": -73.25704588946324}, "118909985RR0001": {"name": "FABRIQUE OF THE PARISH OF HOLY CROSS", "designationCode": "C", "categoryCode": "38", "address": "765 RUE PIERRE-PICHE", "city": "BOUCHERVILLE", "province": "QC", "country": "CA", "postalCode": "J4B3H8", "twitter": "None", "instagram": "None", "facebook": "None", "youtube": "None", "website": "None", "summary": "None", "logo": "None", "latitude": 45.61881483319868, "longitude": -73.44518203915389}, "118910009RR0001": {"name": "FABRIQUE OF THE PARISH OF SAINT AUGUSTINE OF CANTERBURY", "designationCode": "C", "categoryCode": "38", "address": "105 DE CHERBOURG ST.", "city": "ST BRUNO DE MONTARVILLE", "province": "QC", "country": "CA", "postalCode": "J3V2K8", "twitter": "None", "instagram": "None", "facebook": "None", "youtube": "None", "website": "None", "summary": "None", "logo": "None", "latitude": 45.52215643493552, "longitude": -73.33942370053087}, "889247243RR0001": {"name": "FABRIQUE OF THE PARISH OF ST RAPHAEL THE ARCHANGEL", "designationCode": "C", "categoryCode": "38", "address": "2001 LAJOIE AVE", "city": "MONTREAL", "province": "QC", "country": "CA", "postalCode": "H3S1V6", "twitter": "None", "instagram": "None", "facebook": "None", "youtube": "None", "website": "None", "summary": "None", "logo": "None", "latitude": 45.51196486153249, "longitude": -73.61869184185431}, "118910017RR0001": {"name": "FABRIQUE OF THE PARISH OF ST. ANTHONY OF PADUA", "designationCode": "C", "categoryCode": "38", "address": "1950 RUE SAINT-ANTOINE WEST", "city": "MONTREAL", "province": "QC", "country": "CA", "postalCode": "H3J1A5", "twitter": "None", "instagram": "None", "facebook": "None", "youtube": "None", "website": "None", "summary": "None", "logo": "None", "latitude": 45.48973199443141, "longitude": -73.57575391753728}, "118910025RR0001": {"name": "FABRIQUE OF THE PARISH OF ST. AUGUSTINE OF CANTERBURY ARCHIDIOCESE OF MONTREAL", "designationCode": "C", "categoryCode": "38", "address": "5333 NOTRE-DAME DE GRACE AVE", "city": "MONTREAL", "province": "QC", "country": "CA", "postalCode": "H4A1L2", "twitter": "None", "instagram": "None", "facebook": "None", "youtube": "None", "website": "None", "summary": "None", "logo": "None", "latitude": 45.47673389566606, "longitude": -73.61583469308637}, "108034802RR0001": {"name": "FABRIQUE OF THE PARISH OF ST. PATRICK", "designationCode": "C", "categoryCode": "38", "address": "454 RENE LEVESQUE BLVD WEST", "city": "MONTREAL", "province": "QC", "country": "CA", "postalCode": "H2Z1A7", "twitter": "None", "instagram": "None", "facebook": "None", "youtube": "None", "website": "None", "summary": "None", "logo": "None", "latitude": 45.503745299440475, "longitude": -73.56571412314673}, "890810641RR0001": {"name": "FABRIQUE RIVIERE TROIS-PISTOLES,", "designationCode": "C", "categoryCode": "38", "address": "10, DE L'EGLISE", "city": "RIVIERE TROIS-PISTOLES", "province": "QC", "country": "CA", "postalCode": "G0L2E0", "twitter": "None", "instagram": "None", "facebook": "None", "youtube": "None", "website": "None", "summary": "None", "logo": "None", "latitude": 48.09492392922272, "longitude": -69.21039328752389}, "107359937RR0001": {"name": "FABRIQUE SACRE-COEUR DE JESUS", "designationCode": "C", "categoryCode": "38", "address": "C.P. 249", "city": "SACRE-COEUR", "province": "QC", "country": "CA", "postalCode": "G0T1Y0", "twitter": "None", "instagram": "None", "facebook": "None", "youtube": "None", "website": "None", "summary": "None", "logo": "None", "latitude": 48.22977300000005, "longitude": -69.80059249999994}, "118910108RR0001": {"name": "FABRIQUE SAINT-FELIX D'OTIS,", "designationCode": "C", "categoryCode": "38", "address": "445 PRINCIPALE", "city": "ST FELIX D'OTIS", "province": "QC", "country": "CA", "postalCode": "G0V1M0", "twitter": "None", "instagram": "None", "facebook": "None", "youtube": "None", "website": "None", "summary": "None", "logo": "None", "latitude": 48.27342636992931, "longitude": -70.62591060661295}, "118910124RR0001": {"name": "FABRIQUE SAINT-PHILEAS DE VILLEROY", "designationCode": "C", "categoryCode": "38", "address": "385, ROUTE 265", "city": "VILLEROY", "province": "QC", "country": "CA", "postalCode": "G0S3K0", "twitter": "None", "instagram": "None", "facebook": "None", "youtube": "None", "website": "None", "summary": "None", "logo": "None", "latitude": 46.387109943389625, "longitude": -71.87401298791055}, "130516602RR0001": {"name": "FABRIQUE ST AUGUSTIN", "designationCode": "C", "categoryCode": "38", "address": "47 DE L'EGLISE", "city": "CHUTE-AUX-OUTARDES", "province": "QC", "country": "CA", "postalCode": "G0H1C0", "twitter": "None", "instagram": "None", "facebook": "None", "youtube": "None", "website": "None", "summary": "None", "logo": "None", "latitude": 49.123192862052115, "longitude": -68.39199874450354}, "891197345RR0001": {"name": "FABRIQUE ST MARC DU LAC LONG", "designationCode": "C", "categoryCode": "38", "address": "CP 39 15 RUE-DE-L'EGLISE", "city": "SAINT-MARC DU LAC LONG", "province": "QC", "country": "CA", "postalCode": "G0L1T0", "twitter": "None", "instagram": "None", "facebook": "None", "youtube": "None", "website": "None", "summary": "None", "logo": "None", "latitude": 47.38759537367757, "longitude": -68.89371340319575}, "130121908RR0001": {"name": "FABRIQUE ST PAUL", "designationCode": "C", "categoryCode": "38", "address": "8 RUE DE L'EGLISE", "city": "LONGUE RIVE", "province": "QC", "country": "CA", "postalCode": "G0T1Z0", "twitter": "None", "instagram": "None", "facebook": "None", "youtube": "None", "website": "None", "summary": "None", "logo": "None", "latitude": 48.566671376074794, "longitude": -69.23532211809683}, "118910157RR0001": {"name": "FABRIQUE ST-AUGUSTIN", "designationCode": "C", "categoryCode": "38", "address": "CASE POSTALE 9", "city": "ST AUGUSTIN D'ALMAS", "province": "QC", "country": "CA", "postalCode": "G0W1K0", "twitter": "None", "instagram": "None", "facebook": "None", "youtube": "None", "website": "None", "summary": "None", "logo": "None", "latitude": 48.806214000000054, "longitude": -71.94236299999993}, "118910165RR0001": {"name": "FABRIQUE ST-CHARLES-DES-GRONDINES", "designationCode": "C", "categoryCode": "38", "address": "490 CH DE ROY                 C.P. 56", "city": "GRONDINES", "province": "QC", "country": "CA", "postalCode": "G0A1W0", "twitter": "None", "instagram": "None", "facebook": "None", "youtube": "None", "website": "None", "summary": "None", "logo": "None", "latitude": 46.591663198482074, "longitude": -72.04091957259496}, "118910181RR0001": {"name": "FABRIQUE ST-DONAT", "designationCode": "C", "categoryCode": "38", "address": "168 AVENUE MONT-COMI          C.P. 99", "city": "ST-DONAT", "province": "QC", "country": "CA", "postalCode": "G0K1L0", "twitter": "None", "instagram": "None", "facebook": "None", "youtube": "None", "website": "None", "summary": "None", "logo": "None", "latitude": 48.4968158370938, "longitude": -68.2483010491372}, "118910371RR0001": {"name": "FABRIQUE ST-GERMAIN DE RIMOUSKI", "designationCode": "C", "categoryCode": "38", "address": "11 RUE SAINT-GERMAIN OUEST", "city": "RIMOUSKI", "province": "QC", "country": "CA", "postalCode": "G5L4B4", "twitter": "None", "instagram": "None", "facebook": "None", "youtube": "None", "website": "None", "summary": "None", "logo": "None", "latitude": 48.45105199170803, "longitude": -68.52828389345439}, "107368680RR0001": {"name": "FABRIQUE ST-JEAN-EUDES-DE-RAGUENEAU", "designationCode": "C", "categoryCode": "38", "address": "8, RUE DE L'EGLISE", "city": "RAGUENEAU", "province": "QC", "country": "CA", "postalCode": "G0H1S0", "twitter": "None", "instagram": "None", "facebook": "None", "youtube": "None", "website": "None", "summary": "None", "logo": "None", "latitude": 49.07568700582837, "longitude": -68.46645110822907}, "107369258RR0001": {"name": "FABRIQUE ST-LOUIS-DE-FRANCE DE NORMETAL", "designationCode": "C", "categoryCode": "38", "address": "47 AV. DR BIGU\u00c9", "city": "NORM\u00c9TAL", "province": "QC", "country": "CA", "postalCode": "J0Z3A0", "twitter": "None", "instagram": "None", "facebook": "None", "youtube": "None", "website": "None", "summary": "None", "logo": "None", "latitude": 48.99424200000006, "longitude": -79.36730449999993}, "107369324RR0001": {"name": "FABRIQUE ST-LUC-DE-FORESTVILLE", "designationCode": "C", "categoryCode": "38", "address": "1,10E RUE", "city": "FORESTVILLE", "province": "QC", "country": "CA", "postalCode": "G0T1E0", "twitter": "None", "instagram": "None", "facebook": "None", "youtube": "None", "website": "None", "summary": "None", "logo": "None", "latitude": 48.7395968076921, "longitude": -69.08171148617885}, "890514649RR0001": {"name": "FABRIQUE STE ELISABETH DE PROULX", "designationCode": "C", "categoryCode": "38", "address": "1260 PRINCIPALE", "city": "SAINT-ELISABETH-DE-PROULX", "province": "QC", "country": "CA", "postalCode": "G8L8A5", "twitter": "None", "instagram": "None", "facebook": "None", "youtube": "None", "website": "None", "summary": "None", "logo": "None", "latitude": 48.965078986669816, "longitude": -72.06741939909985}, "107360349RR0001": {"name": "FABRIQUE STE THERESE DE L'ENFANT-JESUS DE GASPE", "designationCode": "C", "categoryCode": "38", "address": "78, DU VILLAGE, CP 69", "city": "STE-THERESE DE GASPE", "province": "QC", "country": "CA", "postalCode": "G0C3B0", "twitter": "None", "instagram": "None", "facebook": "None", "youtube": "None", "website": "None", "summary": "None", "logo": "None", "latitude": 48.40990133054428, "longitude": -64.41416139396397}, "118910207RR0001": {"name": "FABRIQUE STE-ANNE", "designationCode": "C", "categoryCode": "38", "address": "B.P. 164", "city": "ILETS-CARIBOU", "province": "QC", "country": "CA", "postalCode": "G0H1A0", "twitter": "None", "instagram": "None", "facebook": "None", "youtube": "None", "website": "None", "summary": "None", "logo": "None", "latitude": 49.452540000000056, "longitude": -67.25390299999994}, "107360786RR0001": {"name": "FABRIQUE STE-CROIX DE TADOUSSAC", "designationCode": "C", "categoryCode": "38", "address": "179 DE L'\u00c9GLISE               C.P.219", "city": "TADOUSSAC", "province": "QC", "country": "CA", "postalCode": "G0T2A0", "twitter": "None", "instagram": "None", "facebook": "None", "youtube": "None", "website": "None", "summary": "None", "logo": "None", "latitude": 48.14312968439608, "longitude": -69.71424509777087}, "118910322RR0001": {"name": "FABRIQUE STE-THERESE-DE-COLOMBIER", "designationCode": "C", "categoryCode": "38", "address": "564 RUE PRINCIPALE", "city": "COLOMBIER", "province": "QC", "country": "CA", "postalCode": "G0H1P0", "twitter": "None", "instagram": "None", "facebook": "None", "youtube": "None", "website": "None", "summary": "None", "logo": "None", "latitude": 48.87256556125747, "longitude": -68.84717951305058}, "131757437RR0001": {"name": "FABRIQUE-ST GABRIEL DE GUERIN", "designationCode": "C", "categoryCode": "38", "address": "926, RUE PRINCIPALE NORD", "city": "GU\u00c9RIN", "province": "QC", "country": "CA", "postalCode": "J0Z2E0", "twitter": "None", "instagram": "None", "facebook": "None", "youtube": "None", "website": "None", "summary": "None", "logo": "None", "latitude": 47.659741742714516, "longitude": -79.31430277390524}, "896579737RR0001": {"name": "FACE THE WORLD FOUNDATION", "designationCode": "A", "categoryCode": "03", "address": "400-1681 CHESTNUT STREET", "city": "VANCOUVER", "province": "BC", "country": "CA", "postalCode": "V6J4M6", "twitter": "None", "instagram": "None", "facebook": "None", "youtube": "None", "website": "None", "summary": "None", "logo": "None", "latitude": 49.270914953372966, "longitude": -123.14648602334218}}