{"118878479RR0001": {"name": "CPSP-CENTRE DE PLACEMENT SPECIALISE DU PORTAGE", "designationCode": "C", "categoryCode": "59", "address": "59 RUE MARENGERE", "city": "GATINEAU", "province": "QC", "country": "CA", "postalCode": "J8T3T7", "twitter": "None", "instagram": "None", "facebook": "None", "youtube": "None", "website": "None", "summary": "None", "logo": "None", "latitude": 45.462502739107855, "longitude": -75.70319264677738}, "118878917RR0001": {"name": "CR\u00c9ATIONS ETC", "designationCode": "C", "categoryCode": "22", "address": "7378 RUE LAJEUNESSE #311", "city": "MONTR\u00c9AL", "province": "QC", "country": "CA", "postalCode": "H2R2H8", "twitter": "None", "instagram": "None", "facebook": "None", "youtube": "None", "website": "None", "summary": "None", "logo": "None", "latitude": 45.5405610824054, "longitude": -73.61735839399262}, "119236966RR0001": {"name": "CRABTREE FOUNDATION / FONDATION CRABTREE", "designationCode": "B", "categoryCode": "13", "address": "603-130 ALBERT ST.            VARETTE BUILDING", "city": "OTTAWA", "province": "ON", "country": "CA", "postalCode": "K1P5G4", "twitter": "None", "instagram": "None", "facebook": "None", "youtube": "None", "website": "None", "summary": "None", "logo": "None", "latitude": 45.421260000000075, "longitude": -75.69715999999994}, "859915597RR0001": {"name": "CRACKMAN FOR KIDS FOUNDATION", "designationCode": "B", "categoryCode": "09", "address": "1475 SUNSET PL", "city": "GIBSONS", "province": "BC", "country": "CA", "postalCode": "V0N1V5", "twitter": "None", "instagram": "None", "facebook": "None", "youtube": "None", "website": "None", "summary": "None", "logo": "None", "latitude": 49.400547266491714, "longitude": -123.55102232184599}, "106990955RR0001": {"name": "CRAFT COUNCIL OF BRITISH COLUMBIA", "designationCode": "C", "categoryCode": "22", "address": "1386 CARTWRIGHT ST", "city": "VANCOUVER", "province": "BC", "country": "CA", "postalCode": "V6H3R8", "twitter": "None", "instagram": "None", "facebook": "None", "youtube": "None", "website": "None", "summary": "None", "logo": "None", "latitude": 49.269787371638124, "longitude": -123.13433737647495}, "119247054RR0001": {"name": "CRAFT COUNCIL OF NEWFOUNDLAND AND LABRADOR, INC.", "designationCode": "C", "categoryCode": "22", "address": "DEVON HOUSE 59 DUCKWORTH ST", "city": "ST JOHN'S", "province": "NL", "country": "CA", "postalCode": "A1C1E6", "twitter": "None", "instagram": "None", "facebook": "None", "youtube": "None", "website": "None", "summary": "None", "logo": "None", "latitude": 47.57086788591389, "longitude": -52.699705455306194}, "892904566RR0001": {"name": "CRAIG FOUNDATION", "designationCode": "B", "categoryCode": "25", "address": "SUITE 1100 COGSWELL TOWERS    2000 BARRINGTON ST", "city": "HALIFAX", "province": "NS", "country": "CA", "postalCode": "B3J3K1", "twitter": "None", "instagram": "None", "facebook": "None", "youtube": "None", "website": "None", "summary": "None", "logo": "None", "latitude": 44.650150961805274, "longitude": -63.57561955750014}, "106991078RR0001": {"name": "CRAIGWIEL GARDENS", "designationCode": "C", "categoryCode": "10", "address": "221 MAIN ST                   RR 1", "city": "AILSA CRAIG", "province": "ON", "country": "CA", "postalCode": "N0M1A0", "twitter": "None", "instagram": "None", "facebook": "None", "youtube": "None", "website": "None", "summary": "None", "logo": "None", "latitude": 43.14629078462721, "longitude": -81.52974162774342}, "106991219RR0001": {"name": "CRAIGWOOD YOUTH SERVICES", "designationCode": "C", "categoryCode": "09", "address": "520 HAMILTON ROAD", "city": "LONDON", "province": "ON", "country": "CA", "postalCode": "N5Z1S4", "twitter": "None", "instagram": "None", "facebook": "None", "youtube": "None", "website": "None", "summary": "None", "logo": "None", "latitude": 42.980464402186925, "longitude": -81.21591860199666}, "118878594RR0001": {"name": "CRAIK & DISTRICT REGIONAL PARK AUTHORITY", "designationCode": "C", "categoryCode": "56", "address": "BOX 364", "city": "CRAIK", "province": "SK", "country": "CA", "postalCode": "S0G0V0", "twitter": "None", "instagram": "None", "facebook": "None", "youtube": "None", "website": "None", "summary": "None", "logo": "None", "latitude": 51.047450000000026, "longitude": -105.82258999999999}, "118878578RR0001": {"name": "CRAIK AND DISTRICT DONOR'S CHOICE APPEAL", "designationCode": "A", "categoryCode": "05", "address": "PO BOX 39", "city": "CRAIK", "province": "SK", "country": "CA", "postalCode": "S0G0V0", "twitter": "None", "instagram": "None", "facebook": "None", "youtube": "None", "website": "None", "summary": "None", "logo": "None", "latitude": 51.047450000000026, "longitude": -105.82258999999999}, "138786116RR0001": {"name": "CRAIK AND DISTRICT HEALTH CENTRE FOUNDATION INC", "designationCode": "C", "categoryCode": "01", "address": "BOX 208", "city": "CRAIK", "province": "SK", "country": "CA", "postalCode": "S0G0V0", "twitter": "None", "instagram": "None", "facebook": "None", "youtube": "None", "website": "None", "summary": "None", "logo": "None", "latitude": 51.047450000000026, "longitude": -105.82258999999999}, "118878610RR0001": {"name": "CRAIK UNITED CHURCH", "designationCode": "C", "categoryCode": "44", "address": "PO BOX 311", "city": "CRAIK", "province": "SK", "country": "CA", "postalCode": "S0G0V0", "twitter": "None", "instagram": "None", "facebook": "None", "youtube": "None", "website": "None", "summary": "None", "logo": "None", "latitude": 51.047450000000026, "longitude": -105.82258999999999}, "890767940RR0001": {"name": "CRAKE FOUNDATION INC", "designationCode": "B", "categoryCode": "23", "address": "PO BOX 6304 STN MAIN", "city": "SACKVILLE", "province": "NB", "country": "CA", "postalCode": "E4L1G6", "twitter": "None", "instagram": "None", "facebook": "None", "youtube": "None", "website": "None", "summary": "None", "logo": "None", "latitude": 45.926131695268, "longitude": -64.3573668135333}, "119276079RR0002": {"name": "CRANBERRY COMMUNITY HALL ASSOCIATION", "designationCode": "C", "categoryCode": "39", "address": "6828 CRANBERRY ST", "city": "POWELL RIVER", "province": "BC", "country": "CA", "postalCode": "V8A3Z5", "twitter": "None", "instagram": "None", "facebook": "None", "youtube": "None", "website": "None", "summary": "None", "logo": "None", "latitude": 49.872298990796075, "longitude": -124.52767567482276}, "119288918RR1185": {"name": "CRANBERRY PARK CONGREGATION OF JEHOVAH'S WITNESSES", "designationCode": "C", "categoryCode": "61", "address": "RR #1 1130 RIDGELINE", "city": "EDEN", "province": "ON", "country": "CA", "postalCode": "N0J1H0", "twitter": "None", "instagram": "None", "facebook": "None", "youtube": "None", "website": "None", "summary": "None", "logo": "None", "latitude": 42.79478791969604, "longitude": -80.75853800101113}, "898843404RR0001": {"name": "CRANBERRY PORTAGE CHILD/FAMILY RESOURCE CENTRE INCORPORATED", "designationCode": "C", "categoryCode": "09", "address": "109 SECOND AVE SE", "city": "CRANBERRY PORTAGE", "province": "MB", "country": "CA", "postalCode": "R0B0H0", "twitter": "None", "instagram": "None", "facebook": "None", "youtube": "None", "website": "None", "summary": "None", "logo": "None", "latitude": 54.58734123769016, "longitude": -101.37895826812877}, "861503670RR0001": {"name": "CRANBERRY PORTAGE HERITAGE MUSEUM CORP", "designationCode": "C", "categoryCode": "50", "address": "BOX 310                       105 RAILWAY AVE N.W.", "city": "CRANBERRY PORTAGE", "province": "MB", "country": "CA", "postalCode": "R0B0H0", "twitter": "None", "instagram": "None", "facebook": "None", "youtube": "None", "website": "None", "summary": "None", "logo": "None", "latitude": 54.586793086737465, "longitude": -101.38231683877993}, "121992671RR0001": {"name": "CRANBROOK & DISTRICT SEARCH AND RESCUE SOCIETY", "designationCode": "C", "categoryCode": "59", "address": "824 1ST ST S", "city": "CRANBROOK", "province": "BC", "country": "CA", "postalCode": "V1C7H5", "twitter": "None", "instagram": "None", "facebook": "None", "youtube": "None", "website": "None", "summary": "None", "logo": "None", "latitude": 49.510383971287006, "longitude": -115.76950898769873}, "118878669RR0001": {"name": "CRANBROOK ALLIANCE CHURCH", "designationCode": "C", "categoryCode": "39", "address": "1200 KOOTENAY ST N", "city": "CRANBROOK", "province": "BC", "country": "CA", "postalCode": "V1C5X1", "twitter": "None", "instagram": "None", "facebook": "None", "youtube": "None", "website": "None", "summary": "None", "logo": "None", "latitude": 49.521636, "longitude": -115.74573598694325}, "895312296RR0001": {"name": "CRANBROOK AND DISTRICT ARTS COUNCIL", "designationCode": "C", "categoryCode": "22", "address": "1013 BAKER ST", "city": "CRANBROOK", "province": "BC", "country": "CA", "postalCode": "V1C1A6", "twitter": "None", "instagram": "None", "facebook": "None", "youtube": "None", "website": "None", "summary": "None", "logo": "None", "latitude": 49.51210749567216, "longitude": -115.76675071870851}, "888751609RR0001": {"name": "CRANBROOK AND DISTRICT COMMUNITY FOUNDATION", "designationCode": "A", "categoryCode": "03", "address": "POST OFFICE BOX 242", "city": "CRANBROOK", "province": "BC", "country": "CA", "postalCode": "V1C4H8", "twitter": "None", "instagram": "None", "facebook": "None", "youtube": "None", "website": "None", "summary": "None", "logo": "None", "latitude": 49.513515000000055, "longitude": -115.76875399999994}, "132879370RR0001": {"name": "CRANBROOK BOYS' AND GIRLS' CLUB", "designationCode": "C", "categoryCode": "09", "address": "1404-2ND ST NORTH", "city": "CRANBROOK", "province": "BC", "country": "CA", "postalCode": "V1C3L2", "twitter": "None", "instagram": "None", "facebook": "None", "youtube": "None", "website": "None", "summary": "None", "logo": "None", "latitude": 49.51399297775954, "longitude": -115.76194425}, "894853449RR0001": {"name": "CRANBROOK CHRISTIAN SCHOOL SOCIETY", "designationCode": "C", "categoryCode": "20", "address": "1200 KOOTENAY STREET N", "city": "CRANBROOK", "province": "BC", "country": "CA", "postalCode": "V1C5X1", "twitter": "None", "instagram": "None", "facebook": "None", "youtube": "None", "website": "None", "summary": "None", "logo": "None", "latitude": 49.521636, "longitude": -115.74573598694325}, "886487198RR0001": {"name": "CRANBROOK COMMUNITY THEATRE SOCIETY", "designationCode": "C", "categoryCode": "22", "address": "BOX 345", "city": "CRANBROOK", "province": "BC", "country": "CA", "postalCode": "V1C4H8", "twitter": "None", "instagram": "None", "facebook": "None", "youtube": "None", "website": "None", "summary": "None", "logo": "None", "latitude": 49.513515000000055, "longitude": -115.76875399999994}, "106991425RR0001": {"name": "CRANBROOK FELLOWSHIP BAPTIST CHURCH", "designationCode": "C", "categoryCode": "31", "address": "2000 5TH ST. N.", "city": "CRANBROOK", "province": "BC", "country": "CA", "postalCode": "V1C4Y1", "twitter": "None", "instagram": "None", "facebook": "None", "youtube": "None", "website": "None", "summary": "None", "logo": "None", "latitude": 49.51649339311553, "longitude": -115.75273099361905}, "118878735RR0001": {"name": "CRANBROOK FOOD BANK SOCIETY", "designationCode": "C", "categoryCode": "01", "address": "104-8TH AVE S", "city": "CRANBROOK", "province": "BC", "country": "CA", "postalCode": "V1C2K5", "twitter": "None", "instagram": "None", "facebook": "None", "youtube": "None", "website": "None", "summary": "None", "logo": "None", "latitude": 49.50991758090484, "longitude": -115.77029870687886}, "118878727RR0001": {"name": "CRANBROOK HEALTH CARE AUXILIARY", "designationCode": "C", "categoryCode": "19", "address": "30 8TH AVE S", "city": "CRANBROOK", "province": "BC", "country": "CA", "postalCode": "V1C1K3", "twitter": "None", "instagram": "None", "facebook": "None", "youtube": "None", "website": "None", "summary": "None", "logo": "None", "latitude": 49.51096183236194, "longitude": -115.77029870687886}, "106991532RR0001": {"name": "CRANBROOK PASTORAL CHARGE", "designationCode": "C", "categoryCode": "44", "address": "2-12TH AVE S", "city": "CRANBROOK", "province": "BC", "country": "CA", "postalCode": "V1C2R7", "twitter": "None", "instagram": "None", "facebook": "None", "youtube": "None", "website": "None", "summary": "None", "logo": "None", "latitude": 49.51182600000001, "longitude": -115.76475769245214}, "860807056RR0001": {"name": "CRANBROOK PUBLIC LIBRARY", "designationCode": "C", "categoryCode": "50", "address": "1212 2ND ST N", "city": "CRANBROOK", "province": "BC", "country": "CA", "postalCode": "V1C4T6", "twitter": "None", "instagram": "None", "facebook": "None", "youtube": "None", "website": "None", "summary": "None", "logo": "None", "latitude": 49.51400123747481, "longitude": -115.76396379634913}, "118818491RR0076": {"name": "CRANBROOK SEVENTH-DAY ADVENTIST CHURCH", "designationCode": "C", "categoryCode": "41", "address": "PO 1000", "city": "ABBOTSFORD", "province": "BC", "country": "CA", "postalCode": "V2S4P5", "twitter": "None", "instagram": "None", "facebook": "None", "youtube": "None", "website": "None", "summary": "None", "logo": "None", "latitude": 49.03851300000005, "longitude": -122.29441549999993}, "129298956RR0001": {"name": "CRANBROOK SOCIETY FOR COMMUNITY LIVING", "designationCode": "C", "categoryCode": "11", "address": "22-14TH AVE S", "city": "CRANBROOK", "province": "BC", "country": "CA", "postalCode": "V1C2W8", "twitter": "None", "instagram": "None", "facebook": "None", "youtube": "None", "website": "None", "summary": "None", "logo": "None", "latitude": 49.51168139621959, "longitude": -115.7619697973314}, "118878784RR0001": {"name": "CRANDELL CEMETERY", "designationCode": "C", "categoryCode": "59", "address": "BOX 361", "city": "BIRCH RIVER", "province": "MB", "country": "CA", "postalCode": "R0L0E0", "twitter": "None", "instagram": "None", "facebook": "None", "youtube": "None", "website": "None", "summary": "None", "logo": "None", "latitude": 51.99323480715113, "longitude": -100.14777643531698}, "857332902RR0001": {"name": "CRANE LAKE DISCOVERY CAMP", "designationCode": "C", "categoryCode": "49", "address": "P.O. BOX 354", "city": "ELMIRA", "province": "ON", "country": "CA", "postalCode": "N3B2Z7", "twitter": "None", "instagram": "None", "facebook": "None", "youtube": "None", "website": "None", "summary": "None", "logo": "None", "latitude": 43.59864300000005, "longitude": -80.55873349999993}, "118878792RR0001": {"name": "CRANE VALLEY AND DISTRICTS RECREATION CENTRE INC.", "designationCode": "C", "categoryCode": "56", "address": "LOTS 1-6, BLOCK 7             BOX 53", "city": "CRANE VALLEY", "province": "SK", "country": "CA", "postalCode": "S0H1B0", "twitter": "None", "instagram": "None", "facebook": "None", "youtube": "None", "website": "None", "summary": "None", "logo": "None", "latitude": 49.757082000000054, "longitude": -105.52837399999993}, "816646871RR0001": {"name": "CRAPAUD COMMUNITY HALL LIMITED", "designationCode": "C", "categoryCode": "56", "address": "CRAPAUD COMMUNITY HALL        PO BOX 160", "city": "CRAPAUD", "province": "PE", "country": "CA", "postalCode": "C0A1J0", "twitter": "None", "instagram": "None", "facebook": "None", "youtube": "None", "website": "None", "summary": "None", "logo": "None", "latitude": 46.23952000000003, "longitude": -63.49867999999998}, "872110242RR0001": {"name": "CRAPAUD PEOPLES CEMETERY COMPANY", "designationCode": "C", "categoryCode": "59", "address": "228 SHORE RD.", "city": "CRAPAUD", "province": "PE", "country": "CA", "postalCode": "C0A1J0", "twitter": "None", "instagram": "None", "facebook": "None", "youtube": "None", "website": "None", "summary": "None", "logo": "None", "latitude": 46.20563637740742, "longitude": -63.47022918217459}, "118878818RR0001": {"name": "CRAPAUD VOLUNTEER FIRE DEPARTMENT", "designationCode": "A", "categoryCode": "59", "address": "PO BOX 33", "city": "CRAPAUD", "province": "PE", "country": "CA", "postalCode": "C0A1J0", "twitter": "None", "instagram": "None", "facebook": "None", "youtube": "None", "website": "None", "summary": "None", "logo": "None", "latitude": 46.23952000000003, "longitude": -63.49867999999998}, "887884062RR0001": {"name": "CRAWFORD MACLEOD FOUNDATION", "designationCode": "B", "categoryCode": "03", "address": "2 SCHOOLHOUSE PVT", "city": "OTTAWA", "province": "ON", "country": "CA", "postalCode": "K1M2J5", "twitter": "None", "instagram": "None", "facebook": "None", "youtube": "None", "website": "None", "summary": "None", "logo": "None", "latitude": 45.44041051485942, "longitude": -75.67717402553522}, "140991035RR0001": {"name": "CRAWFORD PLAINS SCHOOL PARENTS AND TEACHERS TOGETHER (P.A.T.T.) ASSOCIATION", "designationCode": "C", "categoryCode": "21", "address": "4210 12 AVE", "city": "EDMONTON", "province": "AB", "country": "CA", "postalCode": "T6L5V6", "twitter": "None", "instagram": "None", "facebook": "None", "youtube": "None", "website": "None", "summary": "None", "logo": "None", "latitude": 53.440307466673566, "longitude": -113.40558980682671}, "813372018RR0001": {"name": "CRCC - Copper Ridge Conference Centre", "designationCode": "C", "categoryCode": "49", "address": "400-630, SHERBROOKE STREET    WEST", "city": "MONTREAL", "province": "QC", "country": "CA", "postalCode": "H3A1E4", "twitter": "None", "instagram": "None", "facebook": "None", "youtube": "None", "website": "None", "summary": "None", "logo": "None", "latitude": 45.50531513237934, "longitude": -73.5731159379366}, "829386499RR0001": {"name": "CRCNA Classis Ministry Association of South-East British Columbia", "designationCode": "C", "categoryCode": "39", "address": "45515 KNIGHT RD", "city": "CHILLIWACK", "province": "BC", "country": "CA", "postalCode": "V2R5L2", "twitter": "None", "instagram": "None", "facebook": "None", "youtube": "None", "website": "None", "summary": "None", "logo": "None", "latitude": 49.1393571534998, "longitude": -121.96512397305115}, "874932403RR0001": {"name": "CREAMERY SQUARE ASSOCIATION", "designationCode": "C", "categoryCode": "52", "address": "39 CREAMERY ROAD              P. O. BOX 402", "city": "TATAMAGOUCHE", "province": "NS", "country": "CA", "postalCode": "B0K1V0", "twitter": "None", "instagram": "None", "facebook": "None", "youtube": "None", "website": "None", "summary": "None", "logo": "None", "latitude": 45.71017561477152, "longitude": -63.28661396949813}, "821901352RR0001": {"name": "CREATE CHANGE FOUNDATION", "designationCode": "C", "categoryCode": "21", "address": "1622 SALT STREET              PO BOX 98984 RPO OLYMPIC", "city": "VANCOUVER", "province": "BC", "country": "CA", "postalCode": "V5Y0J9", "twitter": "None", "instagram": "None", "facebook": "None", "youtube": "None", "website": "None", "summary": "None", "logo": "None", "latitude": 49.27119107216228, "longitude": -123.10600802830518}, "898783758RR0001": {"name": "CREATESCAPE WATERLOO REGION", "designationCode": "C", "categoryCode": "22", "address": "94 WINDRUSH TRAIL", "city": "KITCHENER", "province": "ON", "country": "CA", "postalCode": "N2P2B3", "twitter": "None", "instagram": "None", "facebook": "None", "youtube": "None", "website": "None", "summary": "None", "logo": "None", "latitude": 43.38353083902705, "longitude": -80.42016620578234}, "129476248RR0001": {"name": "CREATING TOGETHER", "designationCode": "C", "categoryCode": "22", "address": "1499 QUEENS ST. WEST          BOX #103", "city": "TORONTO", "province": "ON", "country": "CA", "postalCode": "M6R1A3", "twitter": "None", "instagram": "None", "facebook": "None", "youtube": "None", "website": "None", "summary": "None", "logo": "None", "latitude": 43.639808732702555, "longitude": -79.44043785039533}, "886641489RR0001": {"name": "CREATION SCIENCE ASSOCIATION OF ALBERTA", "designationCode": "C", "categoryCode": "21", "address": "5328 CALGARY TRAIL SOUTH      SUITE 1136", "city": "EDMONTON", "province": "AB", "country": "CA", "postalCode": "T6H4J8", "twitter": "None", "instagram": "None", "facebook": "None", "youtube": "None", "website": "None", "summary": "None", "logo": "None", "latitude": 53.49123769080735, "longitude": -113.49539595798925}, "118878883RR0001": {"name": "CREATION SCIENCE ASSOCIATION OF BRITISH COLUMBIA", "designationCode": "C", "categoryCode": "49", "address": "PO BOX 39577 RPO WHITE ROCK", "city": "SURREY", "province": "BC", "country": "CA", "postalCode": "V4A0A9", "twitter": "None", "instagram": "None", "facebook": "None", "youtube": "None", "website": "None", "summary": "None", "logo": "None", "latitude": 49.043630016734454, "longitude": -122.79103008165461}, "130098395RR0001": {"name": "CREATION SCIENCE ASSOCIATION OF QUEBEC-L'ASSOCIATION DE SCIENCE CREATIONISTE DU QUEBEC", "designationCode": "C", "categoryCode": "21", "address": "C.P. 63 SUCC. YOUVILLE", "city": "MONTREAL", "province": "QC", "country": "CA", "postalCode": "H2P2V2", "twitter": "None", "instagram": "None", "facebook": "None", "youtube": "None", "website": "None", "summary": "None", "logo": "None", "latitude": 45.547420000000045, "longitude": -73.64387999999997}, "118878909RR0001": {"name": "CREATION SCIENCE OF SASKATCHEWAN INC.", "designationCode": "C", "categoryCode": "21", "address": "BOX 26", "city": "KENASTON", "province": "SK", "country": "CA", "postalCode": "S0G2N0", "twitter": "None", "instagram": "None", "facebook": "None", "youtube": "None", "website": "None", "summary": "None", "logo": "None", "latitude": 51.50007000000005, "longitude": -106.28451999999999}, "872254800RR0001": {"name": "CREATION TRUTH MINISTRIES INC.", "designationCode": "C", "categoryCode": "49", "address": "BOX 25147                     DEER PARK P.O.", "city": "RED DEER", "province": "AB", "country": "CA", "postalCode": "T4R2M2", "twitter": "None", "instagram": "None", "facebook": "None", "youtube": "None", "website": "None", "summary": "None", "logo": "None", "latitude": 52.26852300000006, "longitude": -113.80901299999994}, "889249488RR0001": {"name": "CREATIVE AND NATURAL OUTDOOR EXPERIENCE INC", "designationCode": "C", "categoryCode": "56", "address": "26 PENHURST AVENUE", "city": "TORONTO", "province": "ON", "country": "CA", "postalCode": "M8Y3A7", "twitter": "None", "instagram": "None", "facebook": "None", "youtube": "None", "website": "None", "summary": "None", "logo": "None", "latitude": 43.625258654452104, "longitude": -79.49997471844871}, "891149999RR0001": {"name": "CREATIVE BEGINNINGS CHILDCARE CENTRE", "designationCode": "C", "categoryCode": "01", "address": "1140 SNYDER'S RD W", "city": "BADEN", "province": "ON", "country": "CA", "postalCode": "N3A0A8", "twitter": "None", "instagram": "None", "facebook": "None", "youtube": "None", "website": "None", "summary": "None", "logo": "None", "latitude": 43.401641621651954, "longitude": -80.68374719858019}, "130918881RR0001": {"name": "CREATIVE CENTRE SOCIETY FOR MENTAL WELLNESS", "designationCode": "C", "categoryCode": "11", "address": "PO BOX 8000 PMB #146", "city": "ABBOTSFORD", "province": "BC", "country": "CA", "postalCode": "V2S6H1", "twitter": "None", "instagram": "None", "facebook": "None", "youtube": "None", "website": "None", "summary": "None", "logo": "None", "latitude": 49.03851300000005, "longitude": -122.29441549999993}, "856079330RR0001": {"name": "CREATIVE CITY NETWORK OF CANADA - RESEAU DES VILLES CREATIVES DU CANADA", "designationCode": "C", "categoryCode": "22", "address": "415-402 PENDER ST W", "city": "VANCOUVER", "province": "BC", "country": "CA", "postalCode": "V6B1T6", "twitter": "None", "instagram": "None", "facebook": "None", "youtube": "None", "website": "None", "summary": "None", "logo": "None", "latitude": 49.28286862057832, "longitude": -123.11214030532616}, "132207010RR0001": {"name": "CREATIVE DANCE ASSOCIATION", "designationCode": "C", "categoryCode": "22", "address": "305 CARDIFF WAY", "city": "PORT MOODY", "province": "BC", "country": "CA", "postalCode": "V3H3W4", "twitter": "None", "instagram": "None", "facebook": "None", "youtube": "None", "website": "None", "summary": "None", "logo": "None", "latitude": 49.282484771302954, "longitude": -122.87048778779754}, "868766171RR0001": {"name": "CREATIVE PROBLEM SOLVING SOCIETY (CPSS)", "designationCode": "C", "categoryCode": "29", "address": "135 NORTH HOWARD AVENUE", "city": "BURNABY", "province": "BC", "country": "CA", "postalCode": "V5B1J6", "twitter": "None", "instagram": "None", "facebook": "None", "youtube": "None", "website": "None", "summary": "None", "logo": "None", "latitude": 49.285729037192, "longitude": -122.98355398338023}, "118878958RR0001": {"name": "CREATIVE RETIREMENT MANITOBA, INC.", "designationCode": "C", "categoryCode": "21", "address": "270 SHERBROOK ST", "city": "WINNIPEG", "province": "MB", "country": "CA", "postalCode": "R3C2B9", "twitter": "None", "instagram": "None", "facebook": "None", "youtube": "None", "website": "None", "summary": "None", "logo": "None", "latitude": 49.886940635581965, "longitude": -97.15924553055555}, "106992092RR0001": {"name": "CREDIT COUNSELLING OF REGIONAL NIAGARA", "designationCode": "C", "categoryCode": "59", "address": "264 WELLAND AVE", "city": "ST CATHARINES", "province": "ON", "country": "CA", "postalCode": "L2R2P8", "twitter": "None", "instagram": "None", "facebook": "None", "youtube": "None", "website": "None", "summary": "None", "logo": "None", "latitude": 43.16818740267788, "longitude": -79.23342049122877}, "131160442RR0001": {"name": "CREDIT COUNSELLING SERVICE OF SAULT STE MARIE & DISTRICT", "designationCode": "C", "categoryCode": "09", "address": "298 QUEEN STREET EAST SUITE 2", "city": "SAULT STE MARIE", "province": "ON", "country": "CA", "postalCode": "P6A1Y7", "twitter": "None", "instagram": "None", "facebook": "None", "youtube": "None", "website": "None", "summary": "None", "logo": "None", "latitude": 46.51374796892487, "longitude": -84.33588098791054}, "891652463RR0001": {"name": "CREDIT COUNSELLING SERVICES OF ALBERTA LTD", "designationCode": "C", "categoryCode": "59", "address": "SUITE 150                     1200 59 AVE. SE", "city": "CALGARY", "province": "AB", "country": "CA", "postalCode": "T2H2M4", "twitter": "None", "instagram": "None", "facebook": "None", "youtube": "None", "website": "None", "summary": "None", "logo": "None", "latitude": 50.99962143006421, "longitude": -114.0371551152057}, "118879022RR0001": {"name": "CREDIT COUNSELLING SERVICES OF COCHRANE DISTRICT", "designationCode": "C", "categoryCode": "59", "address": "60 WILSON AVE.                SUITE 310", "city": "TIMMINS", "province": "ON", "country": "CA", "postalCode": "P4N2S7", "twitter": "None", "instagram": "None", "facebook": "None", "youtube": "None", "website": "None", "summary": "None", "logo": "None", "latitude": 48.475481167756556, "longitude": -81.33688003133084}, "899671184RR0001": {"name": "CREDIT COUNSELLING SERVICES OF NEWFOUNDLAND AND LABRADOR INC.", "designationCode": "C", "categoryCode": "09", "address": "22 QUEENS RD", "city": "ST JOHN'S", "province": "NL", "country": "CA", "postalCode": "A1C2A5", "twitter": "None", "instagram": "None", "facebook": "None", "youtube": "None", "website": "None", "summary": "None", "logo": "None", "latitude": 47.568395210110175, "longitude": -52.707967400657715}, "118878974RR0001": {"name": "CREDIT COUNSELLING SERVICES OF SOUTHWESTERN ONTARIO INCORPORATED", "designationCode": "C", "categoryCode": "09", "address": "1770 LANGLOIS AVE", "city": "WINDSOR", "province": "ON", "country": "CA", "postalCode": "N8X4M5", "twitter": "None", "instagram": "None", "facebook": "None", "youtube": "None", "website": "None", "summary": "None", "logo": "None", "latitude": 42.30005804330884, "longitude": -83.01023548164949}, "894690890RR0001": {"name": "CREDIT COUNSELLING SOCIETY OF BRITISH COLUMBIA", "designationCode": "C", "categoryCode": "99", "address": "UNIT 440                      88 SIXTH STREET", "city": "NEW WESTMINSTER", "province": "BC", "country": "CA", "postalCode": "V3L5B3", "twitter": "None", "instagram": "None", "facebook": "None", "youtube": "None", "website": "None", "summary": "None", "logo": "None", "latitude": 49.20501434476454, "longitude": -122.9102574960147}, "862780186RR0001": {"name": "CREDIT ENTRAIDE TEMISCOUATA", "designationCode": "C", "categoryCode": "09", "address": "3 RUE DE L'HOTEL-DE-VILLE     APP 309", "city": "TEMISCOUATA-SUR-LE-LAC", "province": "QC", "country": "CA", "postalCode": "G0L1X0", "twitter": "None", "instagram": "None", "facebook": "None", "youtube": "None", "website": "None", "summary": "None", "logo": "None", "latitude": 47.610317862311895, "longitude": -68.79114947374363}, "118879030RR0001": {"name": "CREDIT UNION FOUNDATION OF BRITISH COLUMBIA", "designationCode": "A", "categoryCode": "23", "address": "1441 CREEKSIDE DRIVE", "city": "VANCOUVER", "province": "BC", "country": "CA", "postalCode": "V6J4S7", "twitter": "None", "instagram": "None", "facebook": "None", "youtube": "None", "website": "None", "summary": "None", "logo": "None", "latitude": 49.273200219545245, "longitude": -123.1406734420333}, "118879048RR0001": {"name": "CREDIT VALLEY CONSERVATION FOUNDATION", "designationCode": "C", "categoryCode": "50", "address": "1255 OLD DERRY ROAD WEST", "city": "MEADOWVALE", "province": "ON", "country": "CA", "postalCode": "L5N6R4", "twitter": "None", "instagram": "None", "facebook": "None", "youtube": "None", "website": "None", "summary": "None", "logo": "None", "latitude": 43.61956010239093, "longitude": -79.73617260066737}, "862272424RR0001": {"name": "CREDIT VALLEY COUNCIL NO. 8661 CHARITABLE WELFARE TRUST", "designationCode": "A", "categoryCode": "65", "address": "5440 DURIE ROAD", "city": "MISSISSAUGA", "province": "ON", "country": "CA", "postalCode": "L5M2J5", "twitter": "None", "instagram": "None", "facebook": "None", "youtube": "None", "website": "None", "summary": "None", "logo": "None", "latitude": 43.58129700940641, "longitude": -79.70216528939888}, "119288918RR1352": {"name": "CREDITVIEW CONGREGATION OF JEHOVAH'S WITNESSES, BRAMPTON, ONTARIO", "designationCode": "C", "categoryCode": "61", "address": "24 LOCOMOTIVE CRES", "city": "BRAMPTON", "province": "ON", "country": "CA", "postalCode": "L7A0T7", "twitter": "None", "instagram": "None", "facebook": "None", "youtube": "None", "website": "None", "summary": "None", "logo": "None", "latitude": 43.675817407698204, "longitude": -79.8344278842691}, "858950074RR0001": {"name": "CREDO CHRISTIAN HIGH SCHOOL FOUNDATION", "designationCode": "C", "categoryCode": "21", "address": "21846 52ND AVENUE", "city": "LANGLEY", "province": "BC", "country": "CA", "postalCode": "V2Y2M7", "twitter": "None", "instagram": "None", "facebook": "None", "youtube": "None", "website": "None", "summary": "None", "logo": "None", "latitude": 49.09668020649465, "longitude": -122.61790785343815}, "118879063RR0001": {"name": "CREE GOSPEL CHAPEL", "designationCode": "C", "categoryCode": "39", "address": "PO BOX 135", "city": "MOOSE FACTORY", "province": "ON", "country": "CA", "postalCode": "P0L1W0", "twitter": "None", "instagram": "None", "facebook": "None", "youtube": "None", "website": "None", "summary": "None", "logo": "None", "latitude": 51.26000000000005, "longitude": -80.59705999999994}, "888833068RR0001": {"name": "CREEK HILL CEMETERY COMPANY", "designationCode": "C", "categoryCode": "59", "address": "34 PINETREE CRESCENT", "city": "HAMMONDS PLAIN", "province": "NS", "country": "CA", "postalCode": "B3Z1K4", "twitter": "None", "instagram": "None", "facebook": "None", "youtube": "None", "website": "None", "summary": "None", "logo": "None", "latitude": 44.72557005271524, "longitude": -63.81806251967818}, "118879089RR0001": {"name": "CREEK UNITED CHURCH", "designationCode": "C", "categoryCode": "44", "address": "4 GABOURY ROAD", "city": "FOSTER", "province": "QC", "country": "CA", "postalCode": "J0E1R0", "twitter": "None", "instagram": "None", "facebook": "None", "youtube": "None", "website": "None", "summary": "None", "logo": "None", "latitude": 45.27546189035729, "longitude": -72.51273696615489}, "828639013RR0001": {"name": "CREEKSIDE CHURCH", "designationCode": "C", "categoryCode": "31", "address": "660 CONSERVATION DRIVE", "city": "WATERLOO", "province": "ON", "country": "CA", "postalCode": "N2J3Z4", "twitter": "None", "instagram": "None", "facebook": "None", "youtube": "None", "website": "None", "summary": "None", "logo": "None", "latitude": 43.483821306648366, "longitude": -80.59937996411786}, "118818491RR0067": {"name": "CREEKSIDE COMMUNITY SEVENTH-DAY ADVENTIST CHURCH", "designationCode": "C", "categoryCode": "41", "address": "PO 1000", "city": "ABBOTSFORD", "province": "BC", "country": "CA", "postalCode": "V2S4P5", "twitter": "None", "instagram": "None", "facebook": "None", "youtube": "None", "website": "None", "summary": "None", "logo": "None", "latitude": 49.03851300000005, "longitude": -122.29441549999993}, "130654635RR0001": {"name": "CREEKVIEW TINY TOTS SOCIETY", "designationCode": "C", "categoryCode": "01", "address": "1483 LAMEY'S MILL RD", "city": "VANCOUVER", "province": "BC", "country": "CA", "postalCode": "V6H3Y7", "twitter": "None", "instagram": "None", "facebook": "None", "youtube": "None", "website": "None", "summary": "None", "logo": "None", "latitude": 49.26921653012287, "longitude": -123.13751574808155}, "118879121RR0001": {"name": "CREELMAN COMMUNITY RINK", "designationCode": "C", "categoryCode": "56", "address": "BOX 5", "city": "CREELMAN", "province": "SK", "country": "CA", "postalCode": "S0G0X0", "twitter": "None", "instagram": "None", "facebook": "None", "youtube": "None", "website": "None", "summary": "None", "logo": "None", "latitude": 49.87620103473389, "longitude": -103.43597826179274}, "118879147RR0001": {"name": "CREELMAN SCHOOL DAILY AWARD FUND", "designationCode": "C", "categoryCode": "21", "address": "BOX 101", "city": "CREELMAN", "province": "SK", "country": "CA", "postalCode": "S0G0X0", "twitter": "None", "instagram": "None", "facebook": "None", "youtube": "None", "website": "None", "summary": "None", "logo": "None", "latitude": 49.87620103473389, "longitude": -103.43597826179274}, "118879154RR0001": {"name": "CREEMORE PASTORAL CHARGE", "designationCode": "C", "categoryCode": "44", "address": "3473 CONCESSION 5 SOUTH       RR 1", "city": "CREEMORE", "province": "ON", "country": "CA", "postalCode": "L0M1G0", "twitter": "None", "instagram": "None", "facebook": "None", "youtube": "None", "website": "None", "summary": "None", "logo": "None", "latitude": 44.299534912176114, "longitude": -80.12062277534747}, "131521304RR0001": {"name": "CREEMORE UNION CEMETERY", "designationCode": "C", "categoryCode": "59", "address": "3499 CONC. 5 S,               RR#1", "city": "CREEMORE", "province": "ON", "country": "CA", "postalCode": "L0M1G0", "twitter": "None", "instagram": "None", "facebook": "None", "youtube": "None", "website": "None", "summary": "None", "logo": "None", "latitude": 44.371823732925755, "longitude": -79.99118796361583}, "847416104RR0001": {"name": "CREFLO DOLLAR MINISTRIES CANADA", "designationCode": "C", "categoryCode": "49", "address": "107-250 CONSUMERS RD", "city": "TORONTO", "province": "ON", "country": "CA", "postalCode": "M2J4V6", "twitter": "None", "instagram": "None", "facebook": "None", "youtube": "None", "website": "None", "summary": "None", "logo": "None", "latitude": 43.77169564169881, "longitude": -79.33155892527024}, "101200319RR0001": {"name": "CREIGHTON ALCOHOL & DRUG ABUSE COUNCIL INC.", "designationCode": "C", "categoryCode": "59", "address": "430 MAIN STREET, BOX 760", "city": "CREIGHTON", "province": "SK", "country": "CA", "postalCode": "S0P0A0", "twitter": "None", "instagram": "None", "facebook": "None", "youtube": "None", "website": "None", "summary": "None", "logo": "None", "latitude": 54.75688805606212, "longitude": -101.89957931989711}, "831023478RR0001": {"name": "CREIGHTON COMMUNITY DAYCARE INC.", "designationCode": "C", "categoryCode": "01", "address": "P.O. BOX 419", "city": "CREIGHTON", "province": "SK", "country": "CA", "postalCode": "S0P0A0", "twitter": "None", "instagram": "None", "facebook": "None", "youtube": "None", "website": "None", "summary": "None", "logo": "None", "latitude": 54.7497736480238, "longitude": -101.90547825987106}, "861124972RR0001": {"name": "CREIGHTON SCHOOL DIVISION STUDENT SCHOLARSHIP FOUNDATION INC.", "designationCode": "C", "categoryCode": "23", "address": "PO BOX 158", "city": "CREIGHTON", "province": "SK", "country": "CA", "postalCode": "S0P0A0", "twitter": "None", "instagram": "None", "facebook": "None", "youtube": "None", "website": "None", "summary": "None", "logo": "None", "latitude": 54.7497736480238, "longitude": -101.90547825987106}, "889788840RR0001": {"name": "CREIGHTON-LIVELY PASTORAL CHARGE,", "designationCode": "C", "categoryCode": "44", "address": "217 6TH AVENUE", "city": "LIVELY", "province": "ON", "country": "CA", "postalCode": "P3Y1M4", "twitter": "None", "instagram": "None", "facebook": "None", "youtube": "None", "website": "None", "summary": "None", "logo": "None", "latitude": 46.436674095991265, "longitude": -81.14419680535546}, "880917513RR0001": {"name": "CREIGHTONVILLE CEMETERY", "designationCode": "C", "categoryCode": "59", "address": "787 WATERFORD ROAD", "city": "WATERFORD", "province": "NB", "country": "CA", "postalCode": "E4E5B6", "twitter": "None", "instagram": "None", "facebook": "None", "youtube": "None", "website": "None", "summary": "None", "logo": "None", "latitude": 45.6840416347739, "longitude": -65.38917593946583}, "106992498RR0001": {"name": "CREMONA CONGREGATIONAL CHURCH", "designationCode": "C", "categoryCode": "39", "address": "BOX 186", "city": "CREMONA", "province": "AB", "country": "CA", "postalCode": "T0M0R0", "twitter": "None", "instagram": "None", "facebook": "None", "youtube": "None", "website": "None", "summary": "None", "logo": "None", "latitude": 51.55010000000004, "longitude": -114.48530999999997}, "818182545RR0001": {"name": "CREMONA COUNTRY EVANGELICAL MISSIONARY CHURCH FELLOWSHIP", "designationCode": "C", "categoryCode": "39", "address": "BOX 163", "city": "CREMONA", "province": "AB", "country": "CA", "postalCode": "T0M0R0", "twitter": "None", "instagram": "None", "facebook": "None", "youtube": "None", "website": "None", "summary": "None", "logo": "None"}, "897918785RR0001": {"name": "CREMONA FIRE & RESCUE ASSOCIATION", "designationCode": "C", "categoryCode": "59", "address": "BOX 59", "city": "CREMONA", "province": "AB", "country": "CA", "postalCode": "T0M0R0", "twitter": "None", "instagram": "None", "facebook": "None", "youtube": "None", "website": "None", "summary": "None", "logo": "None", "latitude": 51.55010000000004, "longitude": -114.48530999999997}, "890098247RR0001": {"name": "CREMONA UNITED CHURCH", "designationCode": "C", "categoryCode": "44", "address": "PO BOX 368", "city": "CREMONA", "province": "AB", "country": "CA", "postalCode": "T0M0R0", "twitter": "None", "instagram": "None", "facebook": "None", "youtube": "None", "website": "None", "summary": "None", "logo": "None", "latitude": 51.55010000000004, "longitude": -114.48530999999997}, "846158327RR0001": {"name": "CRESCENT HEIGHTS BAPTIST CHURCH SOCIETY", "designationCode": "C", "categoryCode": "31", "address": "1212 - 1 STREET NW", "city": "CALGARY", "province": "AB", "country": "CA", "postalCode": "T2M2S3", "twitter": "None", "instagram": "None", "facebook": "None", "youtube": "None", "website": "None", "summary": "None", "logo": "None", "latitude": 51.06276941909516, "longitude": -114.06491977531887}, "106992605RR0001": {"name": "CRESCENT HEIGHTS CHURCH OF CHRIST", "designationCode": "C", "categoryCode": "39", "address": "655 STEWART DR N.W.", "city": "MEDICINE HAT", "province": "AB", "country": "CA", "postalCode": "T1A7C2", "twitter": "None", "instagram": "None", "facebook": "None", "youtube": "None", "website": "None", "summary": "None", "logo": "None", "latitude": 50.04851396808813, "longitude": -110.70245488398065}, "118879246RR0001": {"name": "CRESCENT HEIGHTS FOUNDATION", "designationCode": "C", "categoryCode": "09", "address": "400-40 AVE NW", "city": "CALGARY", "province": "AB", "country": "CA", "postalCode": "T2K6B6", "twitter": "None", "instagram": "None", "facebook": "None", "youtube": "None", "website": "None", "summary": "None", "logo": "None", "latitude": 51.087885914796, "longitude": -114.07049050626107}, "118879253RR0001": {"name": "CRESCENT HOUSING SOCIETY", "designationCode": "C", "categoryCode": "09", "address": "12850 26 AVE", "city": "SURREY", "province": "BC", "country": "CA", "postalCode": "V4P1S1", "twitter": "None", "instagram": "None", "facebook": "None", "youtube": "None", "website": "None", "summary": "None", "logo": "None", "latitude": 49.049323880147384, "longitude": -122.86665002469991}, "118879261RR0001": {"name": "CRESCENT PARK CONGREGATION OF JEHOVAH'S WITNESSES, MOOSE JAW SASKATCHEWAN", "designationCode": "C", "categoryCode": "61", "address": "BOX 427", "city": "MOOSE JAW", "province": "SK", "country": "CA", "postalCode": "S6H4P1", "twitter": "None", "instagram": "None", "facebook": "None", "youtube": "None", "website": "None", "summary": "None", "logo": "None", "latitude": 50.39688300000006, "longitude": -105.53701399999993}, "890423593RR0001": {"name": "CRESCENT PARK FOUNDATION INC", "designationCode": "A", "categoryCode": "53", "address": "350 LANGDON CRESCENT", "city": "MOOSE JAW", "province": "SK", "country": "CA", "postalCode": "S6H0X4", "twitter": "None", "instagram": "None", "facebook": "None", "youtube": "None", "website": "None", "summary": "None", "logo": "None", "latitude": 50.39306588270357, "longitude": -105.53302628884478}, "892128471RR0001": {"name": "CRESCENT SCHOOL FOUNDATION", "designationCode": "A", "categoryCode": "23", "address": "2365 BAYVIEW AVE", "city": "WILLOWDALE", "province": "ON", "country": "CA", "postalCode": "M2L1A2", "twitter": "None", "instagram": "None", "facebook": "None", "youtube": "None", "website": "None", "summary": "None", "logo": "None", "latitude": 43.73295555620634, "longitude": -79.38119503725117}, "118879295RR0001": {"name": "CRESCENT TOWN COMMUNITY CHURCH", "designationCode": "C", "categoryCode": "39", "address": "PO BOX 93509                  RPO SHOPPERS WORLD", "city": "TORONTO", "province": "ON", "country": "CA", "postalCode": "M4C5R4", "twitter": "None", "instagram": "None", "facebook": "None", "youtube": "None", "website": "None", "summary": "None", "logo": "None", "latitude": 43.68981300000006, "longitude": -79.31036149999993}, "106992720RR0001": {"name": "CRESCENT VALLEY GOSPEL CENTRE", "designationCode": "C", "categoryCode": "39", "address": "PO BOX 2601", "city": "SAINT JOHN", "province": "NB", "country": "CA", "postalCode": "E2L4S8", "twitter": "None", "instagram": "None", "facebook": "None", "youtube": "None", "website": "None", "summary": "None", "logo": "None", "latitude": 45.27342600000006, "longitude": -66.06407149999993}}