{"815451745RR0001": {"name": "The Buddha Gaya Wisdom Society", "designationCode": "C", "categoryCode": "35", "address": "1720 36 STREET SE", "city": "CALGARY", "province": "AB", "country": "CA", "postalCode": "T2A1C8", "twitter": "None", "instagram": "None", "facebook": "None", "youtube": "None", "website": "None", "summary": "None", "logo": "None", "latitude": 51.03887298335157, "longitude": -113.98149824158935}, "742594898RR0001": {"name": "The Budman Family Foundation", "designationCode": "B", "categoryCode": "03", "address": "107 - 3365 HARVESTER RD", "city": "BURLINGTON", "province": "ON", "country": "CA", "postalCode": "L7N3N2", "twitter": "None", "instagram": "None", "facebook": "None", "youtube": "None", "website": "None", "summary": "None", "logo": "None", "latitude": 43.35919513964999, "longitude": -79.78984545328603}, "829001536RR0001": {"name": "The Bulwark Foundation", "designationCode": "B", "categoryCode": "03", "address": "2192 QUEEN STREET EAST        SUITE 108", "city": "TORONTO", "province": "ON", "country": "CA", "postalCode": "M4E1E6", "twitter": "None", "instagram": "None", "facebook": "None", "youtube": "None", "website": "None", "summary": "None", "logo": "None", "latitude": 43.672143205118516, "longitude": -79.29016971080266}, "130913320RR0001": {"name": "The Burford Agricultural Society", "designationCode": "C", "categoryCode": "56", "address": "6 PARK STREET                 POST OFFICE BOX 133", "city": "BURFORD", "province": "ON", "country": "CA", "postalCode": "N0E1A0", "twitter": "None", "instagram": "None", "facebook": "None", "youtube": "None", "website": "None", "summary": "None", "logo": "None", "latitude": 42.66378195754172, "longitude": -80.40173249021805}, "106818610RR0001": {"name": "The Burin Peninsula Health Care Foundation Inc.", "designationCode": "A", "categoryCode": "13", "address": "P.O. BOX 340", "city": "BURIN", "province": "NL", "country": "CA", "postalCode": "A0E1E0", "twitter": "None", "instagram": "None", "facebook": "None", "youtube": "None", "website": "None", "summary": "None", "logo": "None", "latitude": 47.05044000000004, "longitude": -55.163099999999986}, "794327718RR0001": {"name": "The Buzz and Vicki Green Family Foundation", "designationCode": "B", "categoryCode": "03", "address": "31 BROMLEY CRES", "city": "ETOBICOKE", "province": "ON", "country": "CA", "postalCode": "M9A3X1", "twitter": "None", "instagram": "None", "facebook": "None", "youtube": "None", "website": "None", "summary": "None", "logo": "None", "latitude": 43.66205725396725, "longitude": -79.52964893225247}, "813875556RR0001": {"name": "The Byler Foundation", "designationCode": "B", "categoryCode": "05", "address": "216 LOCHEND DRIVE", "city": "COCHRANE", "province": "AB", "country": "CA", "postalCode": "T4C2H2", "twitter": "None", "instagram": "None", "facebook": "None", "youtube": "None", "website": "None", "summary": "None", "logo": "None", "latitude": 51.180455824904264, "longitude": -114.32158725386158}, "883431272RR0001": {"name": "The BLG Foundation", "designationCode": "B", "categoryCode": "03", "address": "3400 - 22 ADELAIDE ST W", "city": "TORONTO", "province": "ON", "country": "CA", "postalCode": "M5H4E3", "twitter": "None", "instagram": "None", "facebook": "None", "youtube": "None", "website": "None", "summary": "None", "logo": "None", "latitude": 43.6500561684748, "longitude": -79.38026958604074}, "853225712RR0001": {"name": "The BOMA Calgary Foundation", "designationCode": "C", "categoryCode": "21", "address": "225 - 550 11 AVE SW", "city": "CALGARY", "province": "AB", "country": "CA", "postalCode": "T2R1M7", "twitter": "None", "instagram": "None", "facebook": "None", "youtube": "None", "website": "None", "summary": "None", "logo": "None"}, "845637099RR0001": {"name": "The BSD Foundation", "designationCode": "B", "categoryCode": "03", "address": "155 WELLINGTON ST WEST 40TH FL", "city": "TORONTO", "province": "ON", "country": "CA", "postalCode": "M5V3J7", "twitter": "None", "instagram": "None", "facebook": "None", "youtube": "None", "website": "None", "summary": "None", "logo": "None", "latitude": 43.64596585316531, "longitude": -79.38574575644876}, "831433990RR0001": {"name": "The C & J Jakubovic Family Charitable Trust", "designationCode": "B", "categoryCode": "03", "address": "310 WILSON AVE", "city": "TORONTO", "province": "ON", "country": "CA", "postalCode": "M3H1S8", "twitter": "None", "instagram": "None", "facebook": "None", "youtube": "None", "website": "None", "summary": "None", "logo": "None", "latitude": 43.737052157943204, "longitude": -79.43576003886541}, "846549632RR0001": {"name": "The C.J. Skateboard Foundation", "designationCode": "B", "categoryCode": "09", "address": "134 PARK LAWN ROAD", "city": "TORONTO", "province": "ON", "country": "CA", "postalCode": "M8Y3H9", "twitter": "None", "instagram": "None", "facebook": "None", "youtube": "None", "website": "None", "summary": "None", "logo": "None", "latitude": 43.62743869911725, "longitude": -79.48824832517724}, "816665152RR0001": {"name": "The Cabbagetown / Regent Park Museum Incorporated", "designationCode": "C", "categoryCode": "50", "address": "156 WINCHESTER STREET", "city": "TORONTO", "province": "ON", "country": "CA", "postalCode": "M4X1B6", "twitter": "None", "instagram": "None", "facebook": "None", "youtube": "None", "website": "None", "summary": "None", "logo": "None", "latitude": 43.66701324565737, "longitude": -79.36346844491884}, "811089614RR0001": {"name": "The Cader Family Foundation", "designationCode": "B", "categoryCode": "03", "address": "1700-22 ST. CLAIR AVENUE EAST", "city": "TORONTO", "province": "ON", "country": "CA", "postalCode": "M4T2S3", "twitter": "None", "instagram": "None", "facebook": "None", "youtube": "None", "website": "None", "summary": "None", "logo": "None", "latitude": 43.690058011175346, "longitude": -79.38485244552025}, "826003816RR0001": {"name": "The Caer Family Foundation", "designationCode": "B", "categoryCode": "05", "address": "460 - 745 THURLOW ST", "city": "VANCOUVER", "province": "BC", "country": "CA", "postalCode": "V6E0C5", "twitter": "None", "instagram": "None", "facebook": "None", "youtube": "None", "website": "None", "summary": "None", "logo": "None", "latitude": 49.285181832553974, "longitude": -123.1240751383693}, "133088591RR0001": {"name": "The Calgary Allied Arts Foundation", "designationCode": "C", "categoryCode": "22", "address": "212-223 12 AVENUE             BOX 26", "city": "CALGARY", "province": "AB", "country": "CA", "postalCode": "T2R0G9", "twitter": "None", "instagram": "None", "facebook": "None", "youtube": "None", "website": "None", "summary": "None", "logo": "None", "latitude": 51.04147448845882, "longitude": -114.0671642216227}, "126698018RR0002": {"name": "The Calgary Chinese Elderly Citizens' Association", "designationCode": "C", "categoryCode": "56", "address": "111 RIVERFRONT AVE SW", "city": "CALGARY", "province": "AB", "country": "CA", "postalCode": "T3A4E4", "twitter": "None", "instagram": "None", "facebook": "None", "youtube": "None", "website": "None", "summary": "None", "logo": "None", "latitude": 51.05212541284046, "longitude": -114.06308465087191}, "108074410RR0001": {"name": "The Calgary Chinese Gospel of Grace Church", "designationCode": "C", "categoryCode": "39", "address": "401-9A ST. NE", "city": "CALGARY", "province": "AB", "country": "CA", "postalCode": "T2E4L1", "twitter": "None", "instagram": "None", "facebook": "None", "youtube": "None", "website": "None", "summary": "None", "logo": "None", "latitude": 51.05479424562873, "longitude": -114.0390741519706}, "828621920RR0001": {"name": "The Calgary Eye Way Society", "designationCode": "B", "categoryCode": "09", "address": "3751 - 21 ST NE", "city": "CALGARY", "province": "AB", "country": "CA", "postalCode": "T2E6T5", "twitter": "None", "instagram": "None", "facebook": "None", "youtube": "None", "website": "None", "summary": "None", "logo": "None", "latitude": 51.086124167638076, "longitude": -114.00836571746775}, "829202399RR0001": {"name": "The Calgary Fetal Alcohol Network: An Alberta Story", "designationCode": "C", "categoryCode": "11", "address": "141 - 200 RIVERCREST DR SE", "city": "CALGARY", "province": "AB", "country": "CA", "postalCode": "T2C2X5", "twitter": "None", "instagram": "None", "facebook": "None", "youtube": "None", "website": "None", "summary": "None", "logo": "None", "latitude": 50.97834900000001, "longitude": -114.01279685856099}, "782117691RR0001": {"name": "The Calgary Heritage Authority", "designationCode": "C", "categoryCode": "52", "address": "PO BOX 75065 RPO CAMBRIAN", "city": "CALGARY", "province": "AB", "country": "CA", "postalCode": "T2K6J8", "twitter": "None", "instagram": "None", "facebook": "None", "youtube": "None", "website": "None", "summary": "None", "logo": "None", "latitude": 51.08109775084339, "longitude": -114.08952153420422}, "119218469RR0001": {"name": "The Canadian Academic Accounting Association / L'Association canadienne des professeurs de comptabilit\u00e9", "designationCode": "C", "categoryCode": "21", "address": "1800 - 80 BLOOR ST W", "city": "TORONTO", "province": "ON", "country": "CA", "postalCode": "M5S2V1", "twitter": "None", "instagram": "None", "facebook": "None", "youtube": "None", "website": "None", "summary": "None", "logo": "None", "latitude": 43.667372648743196, "longitude": -79.40049643191246}, "893028787RR0001": {"name": "The Canadian Academy of Wilderness Artists \"Hall of Fames\" Art Foundation", "designationCode": "C", "categoryCode": "50", "address": "47 - 205 GLADSTONE AVE.", "city": "OTTAWA", "province": "ON", "country": "CA", "postalCode": "K2P0Y5", "twitter": "None", "instagram": "None", "facebook": "None", "youtube": "None", "website": "None", "summary": "None", "logo": "None", "latitude": 45.414346399676795, "longitude": -75.6884014514397}, "891634974RR0001": {"name": "The Canadian Association for Community Living Foundation - Fondation de l'Association canadienne pour l'int\u00e9gration communautaire", "designationCode": "A", "categoryCode": "03", "address": "20-850 KING STREET WEST", "city": "OSHAWA", "province": "ON", "country": "CA", "postalCode": "L1J8N5", "twitter": "None", "instagram": "None", "facebook": "None", "youtube": "None", "website": "None", "summary": "None", "logo": "None", "latitude": 43.89067417020556, "longitude": -78.89447954374151}, "106842586RR0001": {"name": "The Canadian Association for Spiritual Care/Association Canadienne des Soins Spirituels", "designationCode": "C", "categoryCode": "29", "address": "1267 DORVAL DRIVE             UNIT 27", "city": "OAKVILLE", "province": "ON", "country": "CA", "postalCode": "L6M3Z4", "twitter": "None", "instagram": "None", "facebook": "None", "youtube": "None", "website": "None", "summary": "None", "logo": "None", "latitude": 43.44955665113387, "longitude": -79.71028923062508}, "108074980RR0001": {"name": "The Canadian Association of Elizabeth Fry Societies / l'Association canadienne des Soci\u00e9t\u00e9s Elizabeth Fry", "designationCode": "C", "categoryCode": "59", "address": "701 - 151 SLATER ST", "city": "OTTAWA", "province": "ON", "country": "CA", "postalCode": "K1P5H3", "twitter": "None", "instagram": "None", "facebook": "None", "youtube": "None", "website": "None", "summary": "None", "logo": "None", "latitude": 45.42039844353388, "longitude": -75.69735141147775}, "845877067RR0001": {"name": "The Canadian Association of Korean Schools", "designationCode": "C", "categoryCode": "20", "address": "18 GRAYDON HALL DR            SUITE 602", "city": "TORONTO", "province": "ON", "country": "CA", "postalCode": "M3A2Z9", "twitter": "None", "instagram": "None", "facebook": "None", "youtube": "None", "website": "None", "summary": "None", "logo": "None", "latitude": 43.76312447710993, "longitude": -79.34511988196851}, "875439861RR0001": {"name": "The Canadian Association of Science Centres / L'Association Canadienne des centres de sciences", "designationCode": "C", "categoryCode": "59", "address": "100 RAMSEY LAKE RD", "city": "SUDBURY", "province": "ON", "country": "CA", "postalCode": "P3E5S9", "twitter": "None", "instagram": "None", "facebook": "None", "youtube": "None", "website": "None", "summary": "None", "logo": "None", "latitude": 46.46956644887969, "longitude": -80.99619362295537}, "876872128RR0001": {"name": "The Canadian Aviation Heritage Centre - Centre canadien du partimoine a\u00e9ronautique", "designationCode": "C", "categoryCode": "21", "address": "21-111 LAKESHORE RD", "city": "SAINT-ANNE-DE-BELLEVUE", "province": "QC", "country": "CA", "postalCode": "H9X3V9", "twitter": "None", "instagram": "None", "facebook": "None", "youtube": "None", "website": "None", "summary": "None", "logo": "None", "latitude": 45.406623642604785, "longitude": -73.94053939348807}, "119218626RR0001": {"name": "The Canadian Band Association (Ontario) Inc.", "designationCode": "C", "categoryCode": "22", "address": "3 VIANNEY AVE.", "city": "TORONTO", "province": "ON", "country": "CA", "postalCode": "M1L4V5", "twitter": "None", "instagram": "None", "facebook": "None", "youtube": "None", "website": "None", "summary": "None", "logo": "None", "latitude": 43.70899780930823, "longitude": -79.28488504065443}, "119218642RR0001": {"name": "The Canadian Bar Law for the Future Fund-Le Fonds du Barreau canadien pour le Droit de demain", "designationCode": "A", "categoryCode": "23", "address": "865 CARLING AVENUE            SUITE 500", "city": "OTTAWA", "province": "ON", "country": "CA", "postalCode": "K1S5S8", "twitter": "None", "instagram": "None", "facebook": "None", "youtube": "None", "website": "None", "summary": "None", "logo": "None", "latitude": 45.39637326983628, "longitude": -75.71068406486201}, "839337912RR0001": {"name": "The Canadian Bray Fellowship of the College of St. George", "designationCode": "C", "categoryCode": "52", "address": "15 STANLEY AVENUE", "city": "TORONTO", "province": "ON", "country": "CA", "postalCode": "M6J1A4", "twitter": "None", "instagram": "None", "facebook": "None", "youtube": "None", "website": "None", "summary": "None", "logo": "None", "latitude": 43.643279955306205, "longitude": -79.40893316680135}, "119218709RR0001": {"name": "The Canadian Celiac Association - Prince Edward Island Chapter", "designationCode": "C", "categoryCode": "11", "address": "P.O. BOX 1921", "city": "CHARLOTTETOWN", "province": "PE", "country": "CA", "postalCode": "C1A7N5", "twitter": "None", "instagram": "None", "facebook": "None", "youtube": "None", "website": "None", "summary": "None", "logo": "None", "latitude": 46.23659700000006, "longitude": -63.12815449999994}, "838781573RR0001": {"name": "The Canadian Centre for Refugee and Immigrant Health Care", "designationCode": "C", "categoryCode": "11", "address": "4158 SHEPPARD AVE E", "city": "SCARBOROUGH", "province": "ON", "country": "CA", "postalCode": "M1S1T3", "twitter": "None", "instagram": "None", "facebook": "None", "youtube": "None", "website": "None", "summary": "None", "logo": "None", "latitude": 43.78488719848206, "longitude": -79.28084840787108}, "768821498RR0001": {"name": "The Canadian Centre to End Human Trafficking / Le Centre Canadien Pour Mettre fin \u00e0 la Traite des Personnes", "designationCode": "C", "categoryCode": "09", "address": "P.O BOX 22161", "city": "TORONTO", "province": "ON", "country": "CA", "postalCode": "M4H1N9", "twitter": "None", "instagram": "None", "facebook": "None", "youtube": "None", "website": "None", "summary": "None", "logo": "None", "latitude": 43.698381000000055, "longitude": -79.35880399999994}, "834970493RR0001": {"name": "The Canadian Charity Foundation", "designationCode": "A", "categoryCode": "03", "address": "69 ARTHUR STREET SOUTH", "city": "ELMIRA", "province": "ON", "country": "CA", "postalCode": "N3B2M8", "twitter": "None", "instagram": "None", "facebook": "None", "youtube": "None", "website": "None", "summary": "None", "logo": "None", "latitude": 43.59786528420569, "longitude": -80.55926700929082}, "857911911RR0001": {"name": "The Canadian Child Life Institute", "designationCode": "B", "categoryCode": "09", "address": "1066 MASTERS GREEN", "city": "OAKVILLE", "province": "ON", "country": "CA", "postalCode": "L6M2P1", "twitter": "None", "instagram": "None", "facebook": "None", "youtube": "None", "website": "None", "summary": "None", "logo": "None", "latitude": 43.450257194846735, "longitude": -79.72628045227644}, "866300379RR0001": {"name": "The Canadian Climate Forum / Le forum canadien du climat", "designationCode": "A", "categoryCode": "23", "address": "45 FENTIMAN AVE", "city": "OTTAWA", "province": "ON", "country": "CA", "postalCode": "K1S0T5", "twitter": "None", "instagram": "None", "facebook": "None", "youtube": "None", "website": "None", "summary": "None", "logo": "None", "latitude": 45.396530443533855, "longitude": -75.67473441147776}, "868801341RR0001": {"name": "The Canadian Community Economic Development Network / Le r\u00e9seau canadien de d\u00e9veloppement \u00e9conomique communautaire", "designationCode": "C", "categoryCode": "59", "address": "59 RUE MONFETTE               CP 119E", "city": "VICTORIAVILLE", "province": "QC", "country": "CA", "postalCode": "G6P1J8", "twitter": "None", "instagram": "None", "facebook": "None", "youtube": "None", "website": "None", "summary": "None", "logo": "None", "latitude": 46.06164779188039, "longitude": -71.9668892342031}, "800551087RR0001": {"name": "The Canadian Friends of Yedidim / Les Amis Canadiens de Yedidim", "designationCode": "C", "categoryCode": "21", "address": "200-2000 AVE MCGILL COLLEGE", "city": "MONTREAL", "province": "QC", "country": "CA", "postalCode": "H3A3H3", "twitter": "None", "instagram": "None", "facebook": "None", "youtube": "None", "website": "None", "summary": "None", "logo": "None", "latitude": 45.502789414749586, "longitude": -73.5731644067988}, "118833110RR0001": {"name": "The Canadian Historical Association-La soci\u00e9t\u00e9 historique du Canada", "designationCode": "C", "categoryCode": "52", "address": "1912 - 130 ALBERT ST", "city": "OTTAWA", "province": "ON", "country": "CA", "postalCode": "K1P5G4", "twitter": "None", "instagram": "None", "facebook": "None", "youtube": "None", "website": "None", "summary": "None", "logo": "None", "latitude": 45.42076882295, "longitude": -75.69835894262502}, "813278272RR0001": {"name": "The Canadian Institute for the Study of Global Anti-Semitis m and Policy / L'Institut Canadien pour l '\u00e9tude de l'antis\u00e9mitisme et de la Politique", "designationCode": "C", "categoryCode": "21", "address": "900-1980 SHERBROOKE STREET W", "city": "MONTREAL", "province": "QC", "country": "CA", "postalCode": "H3H1E8", "twitter": "None", "instagram": "None", "facebook": "None", "youtube": "None", "website": "None", "summary": "None", "logo": "None", "latitude": 45.49389047625378, "longitude": -73.58406907475934}, "805819117RR0001": {"name": "The Canadian Institute for Obsessive Compulsive Disorders", "designationCode": "C", "categoryCode": "11", "address": "518 - 5775 BOUL CAVENDISH", "city": "COTE SAINT-LUC", "province": "QC", "country": "CA", "postalCode": "H4W3L9", "twitter": "None", "instagram": "None", "facebook": "None", "youtube": "None", "website": "None", "summary": "None", "logo": "None", "latitude": 45.47672647685937, "longitude": -73.66291995986516}, "807855218RR0001": {"name": "The Canadian International Learning Foundation", "designationCode": "C", "categoryCode": "20", "address": "PO BOX 6021", "city": "PICTON", "province": "ON", "country": "CA", "postalCode": "K0K2T0", "twitter": "None", "instagram": "None", "facebook": "None", "youtube": "None", "website": "None", "summary": "None", "logo": "None", "latitude": 44.19536494728186, "longitude": -77.59328555317504}, "132489212RR0001": {"name": "The Canadian Journalism Foundation/La fondation pour le journalisme canadien", "designationCode": "C", "categoryCode": "21", "address": "595 BAY STREET, SUITE 401", "city": "TORONTO", "province": "ON", "country": "CA", "postalCode": "M5G2C2", "twitter": "None", "instagram": "None", "facebook": "None", "youtube": "None", "website": "None", "summary": "None", "logo": "None", "latitude": 43.656511779877846, "longitude": -79.38342730362406}, "873121446RR0001": {"name": "The Canadian Learning Trust", "designationCode": "C", "categoryCode": "21", "address": "16 HEARTWOOD LANE", "city": "STONY PLAIN", "province": "AB", "country": "CA", "postalCode": "T7Z1M1", "twitter": "None", "instagram": "None", "facebook": "None", "youtube": "None", "website": "None", "summary": "None", "logo": "None", "latitude": 53.51380223091353, "longitude": -113.99068782907237}, "814815536RR0001": {"name": "The Canadian Maple Tree Foundation", "designationCode": "A", "categoryCode": "03", "address": "112 FOREST HILL RD", "city": "TORONTO", "province": "ON", "country": "CA", "postalCode": "M4V2L7", "twitter": "None", "instagram": "None", "facebook": "None", "youtube": "None", "website": "None", "summary": "None", "logo": "None"}, "806009320RR0001": {"name": "The Canadian Math Challangers Society", "designationCode": "C", "categoryCode": "21", "address": "6297 BRANTFORD AVE", "city": "BURNABY", "province": "BC", "country": "CA", "postalCode": "V5E2R8", "twitter": "None", "instagram": "None", "facebook": "None", "youtube": "None", "website": "None", "summary": "None", "logo": "None", "latitude": 49.227153996154726, "longitude": -122.9678327636578}, "130113525RR0001": {"name": "The Canadian Mental Health Association Ottawa Branch", "designationCode": "C", "categoryCode": "11", "address": "1355 BANK STREET              SUITE 301", "city": "OTTAWA", "province": "ON", "country": "CA", "postalCode": "K1H8K7", "twitter": "None", "instagram": "None", "facebook": "None", "youtube": "None", "website": "None", "summary": "None", "logo": "None", "latitude": 45.38764789289611, "longitude": -75.67571356725752}, "106864242RR0001": {"name": "The Canadian Mission Board of the Church of God in Canada", "designationCode": "C", "categoryCode": "39", "address": "54 GLENASHTON DRIVE", "city": "OAKVILLE", "province": "ON", "country": "CA", "postalCode": "L6H6G2", "twitter": "None", "instagram": "None", "facebook": "None", "youtube": "None", "website": "None", "summary": "None", "logo": "None", "latitude": 43.47687287870053, "longitude": -79.72244046517395}, "833371156RR0001": {"name": "The Canadian Multicultural LEAD Organization for Mentoring and Training", "designationCode": "C", "categoryCode": "20", "address": "2102 PARKER DR", "city": "MISSISSAUGA", "province": "ON", "country": "CA", "postalCode": "L5B1W2", "twitter": "None", "instagram": "None", "facebook": "None", "youtube": "None", "website": "None", "summary": "None", "logo": "None", "latitude": 43.565182933089204, "longitude": -79.60844078602335}, "119219459RR0003": {"name": "The Canadian National Institute for the Blind L'Institut national Canadien pour les aveugles", "designationCode": "C", "categoryCode": "01", "address": "1929 BAYVIEW AVENUE", "city": "TORONTO", "province": "ON", "country": "CA", "postalCode": "M4G3E8", "twitter": "None", "instagram": "None", "facebook": "None", "youtube": "None", "website": "None", "summary": "None", "logo": "None", "latitude": 43.71726697391652, "longitude": -79.37817360248759}, "119219640RR0001": {"name": "The Canadian Phytopathological Society Inc./ La Societe Canadienne de Phytopathologie Inc.", "designationCode": "C", "categoryCode": "21", "address": "200 - 1690 POWICK RD", "city": "KELOWNA", "province": "BC", "country": "CA", "postalCode": "V1X7G5", "twitter": "None", "instagram": "None", "facebook": "None", "youtube": "None", "website": "None", "summary": "None", "logo": "None", "latitude": 49.89023154602189, "longitude": -119.42481599393109}, "855231700RR0001": {"name": "The Canadian Roma Foundation", "designationCode": "C", "categoryCode": "09", "address": "459 49TH AVE W", "city": "VANCOUVER", "province": "BC", "country": "CA", "postalCode": "V5Y2Z9", "twitter": "None", "instagram": "None", "facebook": "None", "youtube": "None", "website": "None", "summary": "None", "logo": "None", "latitude": 49.22610651875454, "longitude": -123.11543298695825}, "877569871RR0001": {"name": "The Canadian Rowing Foundation - La Fondation canadienne d'aviron", "designationCode": "A", "categoryCode": "53", "address": "1975 RENFREW RD", "city": "SHAWNIGAN LAKE", "province": "BC", "country": "CA", "postalCode": "V0R2W1", "twitter": "None", "instagram": "None", "facebook": "None", "youtube": "None", "website": "None", "summary": "None", "logo": "None", "latitude": 48.65166498936578, "longitude": -123.63971533787839}, "811711845RR0001": {"name": "The Canadian Society for Male Survivors of Sexual Abuse", "designationCode": "B", "categoryCode": "09", "address": "5 RIDINGVIEW CRES", "city": "STITTSVILLE", "province": "ON", "country": "CA", "postalCode": "K2S1W3", "twitter": "None", "instagram": "None", "facebook": "None", "youtube": "None", "website": "None", "summary": "None", "logo": "None", "latitude": 45.23206338250875, "longitude": -75.91517090919875}, "129030409RR0001": {"name": "The Canadian Society for Mucopolysaccharide & Related Diseases inc.", "designationCode": "C", "categoryCode": "11", "address": "218 - 2055 COMMERCIAL DR", "city": "VANCOUVER", "province": "BC", "country": "CA", "postalCode": "V5N0C7", "twitter": "None", "instagram": "None", "facebook": "None", "youtube": "None", "website": "None", "summary": "None", "logo": "None", "latitude": 49.266292930391586, "longitude": -123.06976349254973}, "859921611RR0001": {"name": "The Canadian Society for Senior Engineers/La Soci\u00e9t\u00e9 canadienne des ing\u00e9nieurs a\u00een\u00e9s", "designationCode": "C", "categoryCode": "21", "address": "464 BRIAR AVE", "city": "OTTAWA", "province": "ON", "country": "CA", "postalCode": "K1H5H6", "twitter": "None", "instagram": "None", "facebook": "None", "youtube": "None", "website": "None", "summary": "None", "logo": "None", "latitude": 45.39587850678068, "longitude": -75.65174118872989}, "137683959RR0001": {"name": "The Canadian Space Society - La Soci\u00e9t\u00e9 canadienne de l'espace", "designationCode": "C", "categoryCode": "29", "address": "PO BOX 70009 RIMROCK PLAZA    PO 1115 LODESTAR ROAD, BLDG E", "city": "TORONTO", "province": "ON", "country": "CA", "postalCode": "M3J0H3", "twitter": "None", "instagram": "None", "facebook": "None", "youtube": "None", "website": "None", "summary": "None", "logo": "None", "latitude": 43.75911835665642, "longitude": -79.46676973711729}, "828169128RR0001": {"name": "The Canadian Stem Cell Foundation / La fondation canadienne de cellules souches", "designationCode": "C", "categoryCode": "11", "address": "6 GURDWARA RD                 STE 101", "city": "OTTAWA", "province": "ON", "country": "CA", "postalCode": "K2E8A3", "twitter": "None", "instagram": "None", "facebook": "None", "youtube": "None", "website": "None", "summary": "None", "logo": "None", "latitude": 45.33559445403678, "longitude": -75.70260470653216}, "802219865RR0001": {"name": "The Canadian Transverse Myelitis Association/Association Canadienne My\u00e9lite Transverse", "designationCode": "C", "categoryCode": "11", "address": "263 MALCOLM CIRCLE", "city": "DORVAL", "province": "QC", "country": "CA", "postalCode": "H9S1T6", "twitter": "None", "instagram": "None", "facebook": "None", "youtube": "None", "website": "None", "summary": "None", "logo": "None", "latitude": 45.44345904137558, "longitude": -73.76499469954993}, "119220135RR0001": {"name": "The Canadian Writers' Foundation, Inc.", "designationCode": "C", "categoryCode": "21", "address": "P.O. BOX 13281, KANATA STATION", "city": "OTTAWA", "province": "ON", "country": "CA", "postalCode": "K2K1X4", "twitter": "None", "instagram": "None", "facebook": "None", "youtube": "None", "website": "None", "summary": "None", "logo": "None", "latitude": 45.31961656713944, "longitude": -75.91875426026893}, "118836048RR0001": {"name": "The Canadian-Scandinavian Foundation", "designationCode": "C", "categoryCode": "21", "address": "1438 RUE FULLUM", "city": "MONTREAL", "province": "QC", "country": "CA", "postalCode": "H2K3M1", "twitter": "None", "instagram": "None", "facebook": "None", "youtube": "None", "website": "None", "summary": "None", "logo": "None", "latitude": 45.527526891742276, "longitude": -73.54895464322803}, "804830552RR0001": {"name": "The Canadian/Chinese Cultural Interchange", "designationCode": "C", "categoryCode": "22", "address": "212 JAMES STREET", "city": "OTTAWA", "province": "ON", "country": "CA", "postalCode": "K1R5M7", "twitter": "None", "instagram": "None", "facebook": "None", "youtube": "None", "website": "None", "summary": "None", "logo": "None", "latitude": 45.41038361474995, "longitude": -75.70192913959268}, "829084771RR0001": {"name": "The Canadore College Foundation", "designationCode": "A", "categoryCode": "03", "address": "100 COLLEGE DRIVE             POST OFFICE BOX 5001", "city": "NORTH BAY", "province": "ON", "country": "CA", "postalCode": "P1B8K9", "twitter": "None", "instagram": "None", "facebook": "None", "youtube": "None", "website": "None", "summary": "None", "logo": "None", "latitude": 46.344540420039074, "longitude": -79.48723873451354}, "118837525RR0001": {"name": "The Canwood and District Donor's Choice", "designationCode": "A", "categoryCode": "05", "address": "BOX 423", "city": "DEBDEN", "province": "SK", "country": "CA", "postalCode": "S0J0S0", "twitter": "None", "instagram": "None", "facebook": "None", "youtube": "None", "website": "None", "summary": "None", "logo": "None", "latitude": 53.516800000000046, "longitude": -106.88443999999998}, "832518211RR0001": {"name": "The CanAssist African Relief Trust", "designationCode": "C", "categoryCode": "05", "address": "106 GORE ST", "city": "KINGSTON", "province": "ON", "country": "CA", "postalCode": "K7L2L7", "twitter": "None", "instagram": "None", "facebook": "None", "youtube": "None", "website": "None", "summary": "None", "logo": "None", "latitude": 44.22731592838598, "longitude": -76.48642565765475}, "804625317RR0001": {"name": "The Capital Gateway Beautification Foundation", "designationCode": "C", "categoryCode": "53", "address": "181 CALLAGHAN DRIVE SW", "city": "EDMONTON", "province": "AB", "country": "CA", "postalCode": "T6W0G6", "twitter": "None", "instagram": "None", "facebook": "None", "youtube": "None", "website": "None", "summary": "None", "logo": "None", "latitude": 53.40989147013696, "longitude": -113.52351365635667}, "118837947RR0001": {"name": "The Captain Melville Greenshields Memorial Fund", "designationCode": "C", "categoryCode": "21", "address": "1814 SHERBROOKE ST W", "city": "MONTREAL", "province": "QC", "country": "CA", "postalCode": "H3H1E4", "twitter": "None", "instagram": "None", "facebook": "None", "youtube": "None", "website": "None", "summary": "None", "logo": "None", "latitude": 45.49540635247283, "longitude": -73.58273879736299}, "810722801RR0001": {"name": "The Carbonear Heritage Society Inc.", "designationCode": "C", "categoryCode": "50", "address": "182 WATER ST", "city": "CARBONEAR", "province": "NL", "country": "CA", "postalCode": "A1Y1B6", "twitter": "None", "instagram": "None", "facebook": "None", "youtube": "None", "website": "None", "summary": "None", "logo": "None", "latitude": 47.73889742477385, "longitude": -53.22361850814479}, "801058751RR0001": {"name": "The Cardinal Foundation", "designationCode": "B", "categoryCode": "03", "address": "400-1780 WELLINGTON AVE", "city": "WINNIPEG", "province": "MB", "country": "CA", "postalCode": "R3H1B3", "twitter": "None", "instagram": "None", "facebook": "None", "youtube": "None", "website": "None", "summary": "None", "logo": "None", "latitude": 49.9014105239487, "longitude": -97.2078539403312}, "798185484RR0001": {"name": "The Care Free Foundation", "designationCode": "B", "categoryCode": "09", "address": "1505 COVERDALE ROAD", "city": "UPPER COVERDALE", "province": "NB", "country": "CA", "postalCode": "E1J1X4", "twitter": "None", "instagram": "None", "facebook": "None", "youtube": "None", "website": "None", "summary": "None", "logo": "None", "latitude": 45.999303000000054, "longitude": -64.82895649999993}, "848975280RR0001": {"name": "The Caribbean Scholarship Foundation", "designationCode": "C", "categoryCode": "21", "address": "9 FRANCA CRESCENT", "city": "REXDALE", "province": "ON", "country": "CA", "postalCode": "M9V4S1", "twitter": "None", "instagram": "None", "facebook": "None", "youtube": "None", "website": "None", "summary": "None", "logo": "None", "latitude": 43.757013730221054, "longitude": -79.5933476422184}, "728267899RR0001": {"name": "The Carl Whitten Family Foundation", "designationCode": "B", "categoryCode": "05", "address": "2825 LLOYDTOWN-AURORA RD", "city": "KING CITY", "province": "ON", "country": "CA", "postalCode": "L7B1A3", "twitter": "None", "instagram": "None", "facebook": "None", "youtube": "None", "website": "None", "summary": "None", "logo": "None", "latitude": 43.99712715247449, "longitude": -79.56574243526391}, "837514223RR0001": {"name": "The Carleton North Community Foundation", "designationCode": "A", "categoryCode": "03", "address": "8 MCCAIN STREET", "city": "FLORENCEVILLE-BRISTOL", "province": "NB", "country": "CA", "postalCode": "E7L3H6", "twitter": "None", "instagram": "None", "facebook": "None", "youtube": "None", "website": "None", "summary": "None", "logo": "None", "latitude": 46.43971057617299, "longitude": -67.61943417499566}, "797140316RR0001": {"name": "The Carol Rak and Michael Harris Foundation", "designationCode": "B", "categoryCode": "05", "address": "720 BATHURST ST", "city": "TORONTO", "province": "ON", "country": "CA", "postalCode": "M5S2R4", "twitter": "None", "instagram": "None", "facebook": "None", "youtube": "None", "website": "None", "summary": "None", "logo": "None", "latitude": 43.66323143574358, "longitude": -79.41047606191914}, "892464561RR0001": {"name": "The Carol Sharyn Tanenbaum Family Foundation", "designationCode": "B", "categoryCode": "03", "address": "68 YORKVILLE AVE. SUITE 803", "city": "TORONTO", "province": "ON", "country": "CA", "postalCode": "M5R3V7", "twitter": "None", "instagram": "None", "facebook": "None", "youtube": "None", "website": "None", "summary": "None", "logo": "None", "latitude": 43.671320139621336, "longitude": -79.39044715543304}, "749619094RR0001": {"name": "The Carol Shields Prize Foundation", "designationCode": "C", "categoryCode": "22", "address": "6 PRITCHARD AVENUE", "city": "TORONTO", "province": "ON", "country": "CA", "postalCode": "M6N1T1", "twitter": "None", "instagram": "None", "facebook": "None", "youtube": "None", "website": "None", "summary": "None", "logo": "None", "latitude": 43.67087314683471, "longitude": -79.48697673925207}, "823416227RR0001": {"name": "The Carrera Foundation", "designationCode": "B", "categoryCode": "03", "address": "396 11TH AVE SW SUITE 1140", "city": "CALGARY", "province": "AB", "country": "CA", "postalCode": "T2R0C5", "twitter": "None", "instagram": "None", "facebook": "None", "youtube": "None", "website": "None", "summary": "None", "logo": "None", "latitude": 51.04263748600596, "longitude": -114.0711220269202}, "783338494RR0001": {"name": "The Carroll Family Foundation", "designationCode": "B", "categoryCode": "13", "address": "26 HAMPTON PARK CRES", "city": "TORONTO", "province": "ON", "country": "CA", "postalCode": "M4W3X7", "twitter": "None", "instagram": "None", "facebook": "None", "youtube": "None", "website": "None", "summary": "None", "logo": "None", "latitude": 43.692873192884825, "longitude": -79.36311650181767}, "818270522RR0001": {"name": "The Carter Family Foundation", "designationCode": "B", "categoryCode": "03", "address": "94 KENDAL AVENUE", "city": "TORONTO", "province": "ON", "country": "CA", "postalCode": "M5R1L9", "twitter": "None", "instagram": "None", "facebook": "None", "youtube": "None", "website": "None", "summary": "None", "logo": "None", "latitude": 43.673227564804684, "longitude": -79.4090653364013}, "808052682RR0001": {"name": "The Casey Foundation for Autism Support Inc.", "designationCode": "C", "categoryCode": "11", "address": "14 CHALMERS ST", "city": "REGINA", "province": "SK", "country": "CA", "postalCode": "S4R7A8", "twitter": "None", "instagram": "None", "facebook": "None", "youtube": "None", "website": "None", "summary": "None", "logo": "None", "latitude": 50.49491876741303, "longitude": -104.60455534029644}, "874839806RR0001": {"name": "The Cast Projects", "designationCode": "C", "categoryCode": "57", "address": "PO BOX 347", "city": "WARKWORTH", "province": "ON", "country": "CA", "postalCode": "K0K3K0", "twitter": "None", "instagram": "None", "facebook": "None", "youtube": "None", "website": "None", "summary": "None", "logo": "None", "latitude": 44.20071000000007, "longitude": -77.88983999999994}, "119238210RR0006": {"name": "The Cathedral Church of St. Andrew / St. Andrew's Cathedral", "designationCode": "C", "categoryCode": "30", "address": "200 WEST 4TH AVENUE", "city": "PRINCE RUPERT", "province": "BC", "country": "CA", "postalCode": "V8J1P3", "twitter": "None", "instagram": "None", "facebook": "None", "youtube": "None", "website": "None", "summary": "None", "logo": "None", "latitude": 54.31387588954922, "longitude": -130.32074741176623}, "810974063RR0001": {"name": "The Cathedral Hill Foundation", "designationCode": "A", "categoryCode": "03", "address": "439 QUEEN STREET", "city": "OTTAWA", "province": "ON", "country": "CA", "postalCode": "K1R5A6", "twitter": "None", "instagram": "None", "facebook": "None", "youtube": "None", "website": "None", "summary": "None", "logo": "None", "latitude": 45.41756134860632, "longitude": -75.70783456800733}, "129546560RR0001": {"name": "The Catholic Centre for Immigrants, Ottawa Centre catholique pour immigrants - Ottawa", "designationCode": "C", "categoryCode": "09", "address": "219 ARGYLE AVE                SUITE 500", "city": "OTTAWA", "province": "ON", "country": "CA", "postalCode": "K2P2H4", "twitter": "None", "instagram": "None", "facebook": "None", "youtube": "None", "website": "None", "summary": "None", "logo": "None", "latitude": 45.41124338914519, "longitude": -75.6907610064053}, "130375124RR0001": {"name": "The Catholic Community Foundation of Waterloo Region", "designationCode": "A", "categoryCode": "25", "address": "PO BOX 95", "city": "KITCHENER", "province": "ON", "country": "CA", "postalCode": "N2G3W9", "twitter": "None", "instagram": "None", "facebook": "None", "youtube": "None", "website": "None", "summary": "None", "logo": "None", "latitude": 43.45123200000006, "longitude": -80.49304249999993}, "803811199RR0001": {"name": "The Catholic Parish of Corpus Christi", "designationCode": "C", "categoryCode": "38", "address": "2707 34 ST NW", "city": "EDMONTON", "province": "AB", "country": "CA", "postalCode": "T6T1P5", "twitter": "None", "instagram": "None", "facebook": "None", "youtube": "None", "website": "None", "summary": "None", "logo": "None", "latitude": 53.45789493668825, "longitude": -113.39403624432695}, "806695458RR0001": {"name": "The Catholic Parish of Saint Thomas More", "designationCode": "C", "categoryCode": "38", "address": "66 BIRCHDALE AVE", "city": "WINNIPEG", "province": "MB", "country": "CA", "postalCode": "R2H1R9", "twitter": "None", "instagram": "None", "facebook": "None", "youtube": "None", "website": "None", "summary": "None", "logo": "None", "latitude": 49.873642208436735, "longitude": -97.13015854645415}, "129030706RR0001": {"name": "The Catholic Parish of St. Michael-Leduc", "designationCode": "C", "categoryCode": "38", "address": "5105 45A ST", "city": "LEDUC", "province": "AB", "country": "CA", "postalCode": "T9E5X1", "twitter": "None", "instagram": "None", "facebook": "None", "youtube": "None", "website": "None", "summary": "None", "logo": "None", "latitude": 53.26619842131686, "longitude": -113.54300933657512}, "805344124RR0001": {"name": "The Catholic Parish of St. Thomas More (POCSP), Toronto", "designationCode": "C", "categoryCode": "38", "address": "263 RONCESVALLES AVE", "city": "TORONTO", "province": "ON", "country": "CA", "postalCode": "M6R2L9", "twitter": "None", "instagram": "None", "facebook": "None", "youtube": "None", "website": "None", "summary": "None", "logo": "None", "latitude": 43.64679308687745, "longitude": -79.4491905772695}, "842120685RR0001": {"name": "The Catholic Register", "designationCode": "C", "categoryCode": "47", "address": "SUITE 401 - 1155 YONGE STREET", "city": "TORONTO", "province": "ON", "country": "CA", "postalCode": "M4T1W2", "twitter": "None", "instagram": "None", "facebook": "None", "youtube": "None", "website": "None", "summary": "None", "logo": "None", "latitude": 43.68216966639731, "longitude": -79.3916210252181}, "828807867RR0001": {"name": "The Cawston Community Hall Society", "designationCode": "C", "categoryCode": "56", "address": "2119 MAIN STREET", "city": "CAWSTON", "province": "BC", "country": "CA", "postalCode": "V0X1C1", "twitter": "None", "instagram": "None", "facebook": "None", "youtube": "None", "website": "None", "summary": "None", "logo": "None", "latitude": 49.17965454783914, "longitude": -119.75976196289399}, "818821258RR0001": {"name": "The Cedarhurst Foundation", "designationCode": "B", "categoryCode": "05", "address": "200-1199 HASTINGS STREET WEST", "city": "VANCOUVER", "province": "BC", "country": "CA", "postalCode": "V6E3T5", "twitter": "None", "instagram": "None", "facebook": "None", "youtube": "None", "website": "None", "summary": "None", "logo": "None", "latitude": 49.2885475599033, "longitude": -123.12186413260838}, "105202501RR0001": {"name": "The Cedars Cancer Foundation at the McGill University HealthCentre / La Fondation du cancer des c\u00e8dres au centre universitaire de sant\u00e9 McGill", "designationCode": "A", "categoryCode": "13", "address": "1310 GREENE AVENUE #520", "city": "WESTMOUNT", "province": "QC", "country": "CA", "postalCode": "H3Z2B2", "twitter": "None", "instagram": "None", "facebook": "None", "youtube": "None", "website": "None", "summary": "None", "logo": "None", "latitude": 45.48707077127952, "longitude": -73.59001220249277}, "779726892RR0001": {"name": "The Cedric Literary Awards", "designationCode": "C", "categoryCode": "21", "address": "101 - 1022 PANDORA AVE", "city": "VICTORIA", "province": "BC", "country": "CA", "postalCode": "V8V3P5", "twitter": "None", "instagram": "None", "facebook": "None", "youtube": "None", "website": "None", "summary": "None", "logo": "None", "latitude": 48.42728346047074, "longitude": -123.35466813765944}, "837561133RR0001": {"name": "The Central Alberta Crime Prevention Centre", "designationCode": "C", "categoryCode": "59", "address": "3 - 5015 48TH ST", "city": "RED DEER", "province": "AB", "country": "CA", "postalCode": "T4N1S9", "twitter": "None", "instagram": "None", "facebook": "None", "youtube": "None", "website": "None", "summary": "None", "logo": "None", "latitude": 52.267099506780674, "longitude": -113.81539058381902}, "855705166RR0001": {"name": "The Centre for Education and Theatre in Montreal Inc.", "designationCode": "C", "categoryCode": "22", "address": "528 RUE PIERRE-TETREAULT", "city": "MONTREAL", "province": "QC", "country": "CA", "postalCode": "H1L4Y5", "twitter": "None", "instagram": "None", "facebook": "None", "youtube": "None", "website": "None", "summary": "None", "logo": "None", "latitude": 45.59873204244345, "longitude": -73.51293784292218}, "821189149RR0001": {"name": "The Centre for Local Research into Public Space", "designationCode": "C", "categoryCode": "29", "address": "242 HAVELOCK STREET", "city": "TORONTO", "province": "ON", "country": "CA", "postalCode": "M6H3B9", "twitter": "None", "instagram": "None", "facebook": "None", "youtube": "None", "website": "None", "summary": "None", "logo": "None", "latitude": 43.659278319175975, "longitude": -79.43199448141834}, "845368760RR0001": {"name": "The Centre for Mindfulness Studies", "designationCode": "C", "categoryCode": "11", "address": "C2-180 SUDBURY STREET", "city": "TORONTO", "province": "ON", "country": "CA", "postalCode": "M6J0A8", "twitter": "None", "instagram": "None", "facebook": "None", "youtube": "None", "website": "None", "summary": "None", "logo": "None", "latitude": 43.641608833775585, "longitude": -79.42527304480937}}