{"118809672RR0001": {"name": "OWEN SOUND MUSEUMS", "designationCode": "C", "categoryCode": "50", "address": "948 THIRD AVE. W.", "city": "OWEN SOUND", "province": "ON", "country": "CA", "postalCode": "N4K4P6", "twitter": "None", "instagram": "None", "facebook": "None", "youtube": "None", "website": "None", "summary": "None", "logo": "None", "latitude": 44.56618935553122, "longitude": -80.94759710843063}, "890965247RR0001": {"name": "OWEN SOUND NORTH GREY UNION PUBLIC LIBRARY", "designationCode": "C", "categoryCode": "50", "address": "824 1ST AVE WEST", "city": "OWEN SOUND", "province": "ON", "country": "CA", "postalCode": "N4K4K4", "twitter": "None", "instagram": "None", "facebook": "None", "youtube": "None", "website": "None", "summary": "None", "logo": "None", "latitude": 44.5640563760748, "longitude": -80.94484043355054}, "124052507RR0001": {"name": "OWEN SOUND REGIONAL HOSPITAL FOUNDATION", "designationCode": "A", "categoryCode": "13", "address": "PO BOX 1001                   1800 8TH STREET EAST", "city": "OWEN SOUND", "province": "ON", "country": "CA", "postalCode": "N4K6H6", "twitter": "None", "instagram": "None", "facebook": "None", "youtube": "None", "website": "None", "summary": "None", "logo": "None", "latitude": 44.56749430175947, "longitude": -80.91243194240572}, "107797383RR0051": {"name": "OWEN SOUND SEVENTH-DAY ADVENTIST CHURCH", "designationCode": "C", "categoryCode": "41", "address": "122442 GREY ROAD 5", "city": "OWEN SOUND", "province": "ON", "country": "CA", "postalCode": "N4K5N5", "twitter": "None", "instagram": "None", "facebook": "None", "youtube": "None", "website": "None", "summary": "None", "logo": "None", "latitude": 44.557638000000054, "longitude": -80.98977049999993}, "119075026RR0001": {"name": "OWL (ORPHANED WILDLIFE) REHABILITATION SOCIETY", "designationCode": "C", "categoryCode": "54", "address": "3800 72ND STREET", "city": "DELTA", "province": "BC", "country": "CA", "postalCode": "V4K3N2", "twitter": "None", "instagram": "None", "facebook": "None", "youtube": "None", "website": "None", "summary": "None", "logo": "None", "latitude": 49.07081741901003, "longitude": -123.02414671254695}, "137747705RR0001": {"name": "OWL CHILD CARE SERVICES OF ONTARIO", "designationCode": "C", "categoryCode": "01", "address": "2-10 WASHBURN DRIVE", "city": "KITCHENER", "province": "ON", "country": "CA", "postalCode": "N2R1S2", "twitter": "None", "instagram": "None", "facebook": "None", "youtube": "None", "website": "None", "summary": "None", "logo": "None", "latitude": 43.4014502240173, "longitude": -80.4865077700674}, "119075042RR0001": {"name": "OXBOW CEMETERY MAINTENANCE SOCIETY INC.", "designationCode": "C", "categoryCode": "59", "address": "PO BOX 149", "city": "OXBOW", "province": "SK", "country": "CA", "postalCode": "S0C2B0", "twitter": "None", "instagram": "None", "facebook": "None", "youtube": "None", "website": "None", "summary": "None", "logo": "None", "latitude": 49.23346331645773, "longitude": -102.17827573496838}, "856412382RR0001": {"name": "OXBOW GOSPEL TRUST", "designationCode": "C", "categoryCode": "39", "address": "BOX 811, 101 PROSPECT AVE", "city": "OXBOW", "province": "SK", "country": "CA", "postalCode": "S0C2B0", "twitter": "None", "instagram": "None", "facebook": "None", "youtube": "None", "website": "None", "summary": "None", "logo": "None", "latitude": 49.23055502191893, "longitude": -102.17867956239247}, "119075067RR0001": {"name": "OXBOW HEALTH CARE AUXILIARY", "designationCode": "C", "categoryCode": "19", "address": "917 TUPPER ST.                P.O. BOX 268", "city": "OXBOW", "province": "SK", "country": "CA", "postalCode": "S0C2B0", "twitter": "None", "instagram": "None", "facebook": "None", "youtube": "None", "website": "None", "summary": "None", "logo": "None", "latitude": 49.23369147411909, "longitude": -102.17467713603187}, "133865436RR0001": {"name": "OXBOW-GLEN EWEN PASTORAL CHARGE,", "designationCode": "C", "categoryCode": "44", "address": "BOX 204", "city": "OXBOW", "province": "SK", "country": "CA", "postalCode": "S0C2B0", "twitter": "None", "instagram": "None", "facebook": "None", "youtube": "None", "website": "None", "summary": "None", "logo": "None", "latitude": 49.23346331645773, "longitude": -102.17827573496838}, "119279586RR0001": {"name": "OXDRIFT VOLUNTEER FIRE TEAM", "designationCode": "C", "categoryCode": "59", "address": "PO BOX 235", "city": "DRYDEN", "province": "ON", "country": "CA", "postalCode": "P8N2Y8", "twitter": "None", "instagram": "None", "facebook": "None", "youtube": "None", "website": "None", "summary": "None", "logo": "None", "latitude": 49.782039000000054, "longitude": -92.83759099999993}, "129716866RR0001": {"name": "OXFAM CANADA", "designationCode": "C", "categoryCode": "03", "address": "39 MCARTHUR AVE.", "city": "OTTAWA", "province": "ON", "country": "CA", "postalCode": "K1L8L7", "twitter": "None", "instagram": "None", "facebook": "None", "youtube": "None", "website": "None", "summary": "None", "logo": "None", "latitude": 45.4309004787926, "longitude": -75.66676355551384}, "119075091RR0001": {"name": "OXFAM-QUEBEC", "designationCode": "C", "categoryCode": "03", "address": "2330 NOTRE-DAME OUEST", "city": "MONTREAL", "province": "QC", "country": "CA", "postalCode": "H3J1N4", "twitter": "None", "instagram": "None", "facebook": "None", "youtube": "None", "website": "None", "summary": "None", "logo": "None", "latitude": 45.483977704397354, "longitude": -73.57343716054028}, "861684728RR0001": {"name": "OXFORD AND AREA FOOD BANK ASSOCIATION", "designationCode": "C", "categoryCode": "09", "address": "PO BOX 337", "city": "OXFORD", "province": "NS", "country": "CA", "postalCode": "B0M1P0", "twitter": "None", "instagram": "None", "facebook": "None", "youtube": "None", "website": "None", "summary": "None", "logo": "None", "latitude": 45.73593000000005, "longitude": -63.86782999999997}, "107809485RR0001": {"name": "OXFORD ASSEMBLY", "designationCode": "C", "categoryCode": "36", "address": "PO BOX 1176", "city": "VIRDEN", "province": "MB", "country": "CA", "postalCode": "R0M2C0", "twitter": "None", "instagram": "None", "facebook": "None", "youtube": "None", "website": "None", "summary": "None", "logo": "None", "latitude": 49.85688000000005, "longitude": -100.92262999999997}, "824826358RR0001": {"name": "OXFORD BAPTIST CHURCH", "designationCode": "C", "categoryCode": "31", "address": "278 HUNTER STREET", "city": "WOODSTOCK", "province": "ON", "country": "CA", "postalCode": "N4S4E7", "twitter": "None", "instagram": "None", "facebook": "None", "youtube": "None", "website": "None", "summary": "None", "logo": "None", "latitude": 43.1306426488835, "longitude": -80.76555657493223}, "119075125RR0001": {"name": "OXFORD CENTRE UNITED CHURCH", "designationCode": "C", "categoryCode": "44", "address": "505418 OLD STAGE ROAD         RR 4", "city": "WOODSTOCK", "province": "ON", "country": "CA", "postalCode": "N4S7V8", "twitter": "None", "instagram": "None", "facebook": "None", "youtube": "None", "website": "None", "summary": "None", "logo": "None", "latitude": 43.10599200000006, "longitude": -80.74762549999993}, "129894028RR0001": {"name": "OXFORD COMMUNITY CHILD CARE INC", "designationCode": "C", "categoryCode": "01", "address": "21 MARKET ST E", "city": "WOODSTOCK", "province": "ON", "country": "CA", "postalCode": "N4S1H6", "twitter": "None", "instagram": "None", "facebook": "None", "youtube": "None", "website": "None", "summary": "None", "logo": "None", "latitude": 43.129161823578876, "longitude": -80.75719747647351}, "894818103RR0001": {"name": "OXFORD COMMUNITY FOUNDATION", "designationCode": "A", "categoryCode": "03", "address": "212 BYSHAM PARK DR", "city": "WOODSTOCK", "province": "ON", "country": "CA", "postalCode": "N4T1R2", "twitter": "None", "instagram": "None", "facebook": "None", "youtube": "None", "website": "None", "summary": "None", "logo": "None", "latitude": 43.14020434116182, "longitude": -80.72254459368678}, "888216041RR0001": {"name": "OXFORD COUNTY LIBRARY BOARD", "designationCode": "C", "categoryCode": "50", "address": "P.O. BOX 1614,                21 REEVE STREET", "city": "WOODSTOCK", "province": "ON", "country": "CA", "postalCode": "N4S7Y3", "twitter": "None", "instagram": "None", "facebook": "None", "youtube": "None", "website": "None", "summary": "None", "logo": "None", "latitude": 43.129560384124886, "longitude": -80.75600087509385}, "131621906RR0001": {"name": "OXFORD COUNTY RIGHT TO LIFE", "designationCode": "C", "categoryCode": "09", "address": "PO BOX 1545", "city": "WOODSTOCK", "province": "ON", "country": "CA", "postalCode": "N4S0A7", "twitter": "None", "instagram": "None", "facebook": "None", "youtube": "None", "website": "None", "summary": "None", "logo": "None", "latitude": 43.13010300000006, "longitude": -80.75657149999994}, "862164928RR0001": {"name": "OXFORD COUNTY 4-H ASSOCIATION", "designationCode": "C", "categoryCode": "29", "address": "3 FRONT STREET RR #1", "city": "WOODSTOCK", "province": "ON", "country": "CA", "postalCode": "N4S7V6", "twitter": "None", "instagram": "None", "facebook": "None", "youtube": "None", "website": "None", "summary": "None", "logo": "None", "latitude": 43.11480300000005, "longitude": -80.76126049999993}, "892239047RR0001": {"name": "OXFORD HISTORICAL SOCIETY", "designationCode": "C", "categoryCode": "50", "address": "PO BOX 20091", "city": "WOODSTOCK", "province": "ON", "country": "CA", "postalCode": "N4S8X8", "twitter": "None", "instagram": "None", "facebook": "None", "youtube": "None", "website": "None", "summary": "None", "logo": "None", "latitude": 43.13010300000006, "longitude": -80.75657149999994}, "891759748RR0001": {"name": "OXFORD HOUSE FOUNDATION OF CANADA", "designationCode": "C", "categoryCode": "03", "address": "1B - 4321 23B ST NE", "city": "CALGARY", "province": "AB", "country": "CA", "postalCode": "T2E7V9", "twitter": "None", "instagram": "None", "facebook": "None", "youtube": "None", "website": "None", "summary": "None", "logo": "None", "latitude": 51.0908291987132, "longitude": -114.00256544673651}, "119288918RR0542": {"name": "OXFORD PARK CONGREGATION OF JEHOVAH'S WITNESSES, LONDON, ONTARIO", "designationCode": "C", "categoryCode": "61", "address": "905 MEDWAY PARK DR.", "city": "LONDON", "province": "ON", "country": "CA", "postalCode": "N6G5C7", "twitter": "None", "instagram": "None", "facebook": "None", "youtube": "None", "website": "None", "summary": "None", "logo": "None", "latitude": 43.020408650207884, "longitude": -81.31664309582015}, "119075182RR0001": {"name": "OXFORD PINE GROVE CEMETERY COMPANY , CUMBERLAND COUNTY", "designationCode": "C", "categoryCode": "59", "address": "SECRETARY-TREASURER           P.O. BOX 31", "city": "OXFORD", "province": "NS", "country": "CA", "postalCode": "B0M1P0", "twitter": "None", "instagram": "None", "facebook": "None", "youtube": "None", "website": "None", "summary": "None", "logo": "None", "latitude": 45.71312100000006, "longitude": -63.87830449999993}, "119075190RR0001": {"name": "OXFORD PIONEER HERITAGE CLUB", "designationCode": "C", "categoryCode": "09", "address": "P.O. BOX 156", "city": "OXFORD", "province": "NS", "country": "CA", "postalCode": "B0M1P0", "twitter": "None", "instagram": "None", "facebook": "None", "youtube": "None", "website": "None", "summary": "None", "logo": "None", "latitude": 45.73593000000005, "longitude": -63.86782999999997}, "141097188RR0001": {"name": "OXFORD PRESBYTERY UNITED CHURCH OF CANADA", "designationCode": "C", "categoryCode": "44", "address": "PO BOX 142", "city": "DRUMBO", "province": "ON", "country": "CA", "postalCode": "N0J1G0", "twitter": "None", "instagram": "None", "facebook": "None", "youtube": "None", "website": "None", "summary": "None", "logo": "None", "latitude": 43.24736994027491, "longitude": -80.4868542314867}, "825538143RR0001": {"name": "OXFORD REFORMED CHRISTIAN SCHOOL SOCIETY", "designationCode": "C", "categoryCode": "20", "address": "333182 PLANK LINE             PO BOX 87", "city": "MT ELGIN", "province": "ON", "country": "CA", "postalCode": "N0J1N0", "twitter": "None", "instagram": "None", "facebook": "None", "youtube": "None", "website": "None", "summary": "None", "logo": "None", "latitude": 42.953883244243734, "longitude": -80.78878715722205}, "139538110RR0001": {"name": "OXFORD SELF HELP NETWORK", "designationCode": "C", "categoryCode": "11", "address": "522 PEEL STREET", "city": "WOODSTOCK", "province": "ON", "country": "CA", "postalCode": "N4S1K3", "twitter": "None", "instagram": "None", "facebook": "None", "youtube": "None", "website": "None", "summary": "None", "logo": "None", "latitude": 43.1294617621329, "longitude": -80.75475820399333}, "107809782RR0001": {"name": "OXFORD UNITED BAPTIST CHURCH", "designationCode": "C", "categoryCode": "31", "address": "1131 COVE RD", "city": "OXFORD", "province": "NS", "country": "CA", "postalCode": "B0M1P0", "twitter": "None", "instagram": "None", "facebook": "None", "youtube": "None", "website": "None", "summary": "None", "logo": "None", "latitude": 45.75077549321933, "longitude": -63.88175782791853}, "871595963RR0001": {"name": "OXFORD WINDS COMMUNITY CONCERT BAND", "designationCode": "C", "categoryCode": "22", "address": "1114 PEARSON DR", "city": "WOODSTOCK", "province": "ON", "country": "CA", "postalCode": "N4S8V2", "twitter": "None", "instagram": "None", "facebook": "None", "youtube": "None", "website": "None", "summary": "None", "logo": "None", "latitude": 43.14057688758733, "longitude": -80.72740252204412}, "129960738RR0001": {"name": "OXFORD-ELGIN CHILD & YOUTH CENTRE", "designationCode": "C", "categoryCode": "09", "address": "912 DUNDAS STREET", "city": "WOODSTOCK", "province": "ON", "country": "CA", "postalCode": "N4S1H1", "twitter": "None", "instagram": "None", "facebook": "None", "youtube": "None", "website": "None", "summary": "None", "logo": "None", "latitude": 43.13326266662845, "longitude": -80.73458008935896}, "119075224RR0001": {"name": "OXFORD-THOMSON PASTORAL CHARGE", "designationCode": "C", "categoryCode": "44", "address": "602 MT. PLEASANT RD", "city": "OXFORD", "province": "NS", "country": "CA", "postalCode": "B0M1P0", "twitter": "None", "instagram": "None", "facebook": "None", "youtube": "None", "website": "None", "summary": "None", "logo": "None", "latitude": 45.77385471244745, "longitude": -63.85215099065184}, "104035936RR0001": {"name": "OXY-JEUNES INC.", "designationCode": "C", "categoryCode": "22", "address": "2020, DE LA VISITATION", "city": "MONTREAL", "province": "QC", "country": "CA", "postalCode": "H2L3C7", "twitter": "None", "instagram": "None", "facebook": "None", "youtube": "None", "website": "None", "summary": "None", "logo": "None", "latitude": 45.52237184067182, "longitude": -73.56214227811749}, "119075265RR0001": {"name": "OYAMA COMMUNITY CLUB", "designationCode": "C", "categoryCode": "56", "address": "15710 OYAMA RD", "city": "OYAMA", "province": "BC", "country": "CA", "postalCode": "V4V2E1", "twitter": "None", "instagram": "None", "facebook": "None", "youtube": "None", "website": "None", "summary": "None", "logo": "None", "latitude": 50.10910446047075, "longitude": -119.37460191465175}, "866008204RR0001": {"name": "OYATE TIPI CUMINI YAPE INC.", "designationCode": "C", "categoryCode": "09", "address": "606 SELKIRK AVENUE", "city": "WINNIPEG", "province": "MB", "country": "CA", "postalCode": "R2W2N1", "twitter": "None", "instagram": "None", "facebook": "None", "youtube": "None", "website": "None", "summary": "None", "logo": "None", "latitude": 49.9169730607653, "longitude": -97.1491696228287}, "874497027RR0001": {"name": "OYEN & DISTRICT FOOD BANK ASSOCIATION", "designationCode": "C", "categoryCode": "09", "address": "BOX 253", "city": "OYEN", "province": "AB", "country": "CA", "postalCode": "T0J2J0", "twitter": "None", "instagram": "None", "facebook": "None", "youtube": "None", "website": "None", "summary": "None", "logo": "None", "latitude": 51.366820000000075, "longitude": -110.46831999999995}, "887756260RR0001": {"name": "OYEN AND DISTRICT HEALTH CARE FOUNDATION", "designationCode": "C", "categoryCode": "15", "address": "312 - 3RD STREET EAST         BOX 150", "city": "OYEN", "province": "AB", "country": "CA", "postalCode": "T0J2J0", "twitter": "None", "instagram": "None", "facebook": "None", "youtube": "None", "website": "None", "summary": "None", "logo": "None", "latitude": 51.352329079799205, "longitude": -110.47726839609379}, "129963740RR0001": {"name": "OYEN EVANGELICAL MISSIONARY CHURCH", "designationCode": "C", "categoryCode": "39", "address": "BOX 423", "city": "OYEN", "province": "AB", "country": "CA", "postalCode": "T0J2J0", "twitter": "None", "instagram": "None", "facebook": "None", "youtube": "None", "website": "None", "summary": "None", "logo": "None", "latitude": 51.366820000000075, "longitude": -110.46831999999995}, "119075307RR0001": {"name": "OYEN UNITED CHURCH", "designationCode": "C", "categoryCode": "44", "address": "PO BOX 392", "city": "OYEN", "province": "AB", "country": "CA", "postalCode": "T0J2J0", "twitter": "None", "instagram": "None", "facebook": "None", "youtube": "None", "website": "None", "summary": "None", "logo": "None", "latitude": 51.366820000000075, "longitude": -110.46831999999995}, "119288918RR0797": {"name": "OYSTER BAY CONGREGATION OF JEHOVAH'S WITNESSES", "designationCode": "C", "categoryCode": "61", "address": "3962 LEEMING RD", "city": "CAMPBELL RIVER", "province": "BC", "country": "CA", "postalCode": "V9H1H2", "twitter": "None", "instagram": "None", "facebook": "None", "youtube": "None", "website": "None", "summary": "None", "logo": "None", "latitude": 49.92122125533921, "longitude": -125.19342653927545}, "119075315RR0001": {"name": "OYSTER RIVER ENHANCEMENT SOCIETY", "designationCode": "C", "categoryCode": "59", "address": "2700 MACAULAY RD.BOX 93", "city": "BLACK CREEK", "province": "BC", "country": "CA", "postalCode": "V9J1K8", "twitter": "None", "instagram": "None", "facebook": "None", "youtube": "None", "website": "None", "summary": "None", "logo": "None", "latitude": 49.86014094832413, "longitude": -125.155432868606}, "868332800RR0001": {"name": "OZER ISRAEL", "designationCode": "C", "categoryCode": "09", "address": "4698 CARLTON AVENUE", "city": "MONTREAL", "province": "QC", "country": "CA", "postalCode": "H3W1G4", "twitter": "None", "instagram": "None", "facebook": "None", "youtube": "None", "website": "None", "summary": "None", "logo": "None", "latitude": 45.49625235247282, "longitude": -73.63866832289821}, "126891662RR0001": {"name": "P A L S - PROJECT ADULT LITERACY SOCIETY", "designationCode": "C", "categoryCode": "20", "address": "41-9912 106 ST", "city": "EDMONTON", "province": "AB", "country": "CA", "postalCode": "T5K1C5", "twitter": "None", "instagram": "None", "facebook": "None", "youtube": "None", "website": "None", "summary": "None", "logo": "None", "latitude": 53.537733, "longitude": -113.50299724372412}, "869471953RR0002": {"name": "P A L S S (PARENT ADVOCATES LINKING SPECIAL SERVICES)", "designationCode": "C", "categoryCode": "09", "address": "19 WESTPARK WAY", "city": "FORT SASKATCHEWAN", "province": "AB", "country": "CA", "postalCode": "T8L3W8", "twitter": "None", "instagram": "None", "facebook": "None", "youtube": "None", "website": "None", "summary": "None", "logo": "None", "latitude": 53.68875193308921, "longitude": -113.25021364596931}, "131696445RR0001": {"name": "P E I LUNG ASSOCIATION LTD", "designationCode": "C", "categoryCode": "11", "address": "81 PRINCE ST", "city": "CHARLOTTETOWN", "province": "PE", "country": "CA", "postalCode": "C1A4R3", "twitter": "None", "instagram": "None", "facebook": "None", "youtube": "None", "website": "None", "summary": "None", "logo": "None", "latitude": 46.23527784901036, "longitude": -63.123739081885795}, "890546575RR0001": {"name": "P E I PEOPLE FIRST", "designationCode": "C", "categoryCode": "11", "address": "81 PRINCE STREET", "city": "CHARLOTTETOWN", "province": "PE", "country": "CA", "postalCode": "C1A4R3", "twitter": "None", "instagram": "None", "facebook": "None", "youtube": "None", "website": "None", "summary": "None", "logo": "None", "latitude": 46.23527784901036, "longitude": -63.123739081885795}, "130590334RR0001": {"name": "P R Y D E LEARNING CENTRES INC", "designationCode": "C", "categoryCode": "01", "address": "1000 DRYDEN BLVD", "city": "WHITBY", "province": "ON", "country": "CA", "postalCode": "L1R2A2", "twitter": "None", "instagram": "None", "facebook": "None", "youtube": "None", "website": "None", "summary": "None", "logo": "None", "latitude": 43.910426417738826, "longitude": -78.93800003142093}, "804358778RR0001": {"name": "P. & S. Ministries Society", "designationCode": "C", "categoryCode": "47", "address": "1250-1500 GEORGIA W ST        PO BOX 62", "city": "VANCOUVER", "province": "BC", "country": "CA", "postalCode": "V6G2Z6", "twitter": "None", "instagram": "None", "facebook": "None", "youtube": "None", "website": "None", "summary": "None", "logo": "None", "latitude": 49.29013479542975, "longitude": -123.1300069287031}, "119076123RR0001": {"name": "P. AND L. ODETTE CHARITABLE FOUNDATION", "designationCode": "B", "categoryCode": "03", "address": "609-1 ST CLAIR AVE E", "city": "TORONTO", "province": "ON", "country": "CA", "postalCode": "M4T2V7", "twitter": "None", "instagram": "None", "facebook": "None", "youtube": "None", "website": "None", "summary": "None", "logo": "None", "latitude": 43.690058011175346, "longitude": -79.38485244552025}, "860720903RR0001": {"name": "P. R. COMMUNITY AND STUDENT ASSOCIATION (SADLEIR HOUSE FACILITY)", "designationCode": "C", "categoryCode": "21", "address": "751 GEORGE ST N", "city": "PETERBOROUGH", "province": "ON", "country": "CA", "postalCode": "K9H3T2", "twitter": "None", "instagram": "None", "facebook": "None", "youtube": "None", "website": "None", "summary": "None", "logo": "None", "latitude": 44.31715857897161, "longitude": -78.31994082809143}, "118977289RR0001": {"name": "P.A. & J.M. GAGLARDI SENIOR CITIZENS SOCIETY", "designationCode": "C", "categoryCode": "59", "address": "174 ST. PAUL ST", "city": "KAMLOOPS", "province": "BC", "country": "CA", "postalCode": "V2C2H9", "twitter": "None", "instagram": "None", "facebook": "None", "youtube": "None", "website": "None", "summary": "None", "logo": "None", "latitude": 50.67425234722134, "longitude": -120.33743803926946}, "121387500RR0001": {"name": "P.A.C.E.(Providing Assistance, Couselling, and Education on Sexual Assault and Sexual Abuse", "designationCode": "C", "categoryCode": "09", "address": "10031 103 AVE", "city": "GRANDE PRAIRIE", "province": "AB", "country": "CA", "postalCode": "T8V1B9", "twitter": "None", "instagram": "None", "facebook": "None", "youtube": "None", "website": "None", "summary": "None", "logo": "None", "latitude": 55.17345248124544, "longitude": -118.797444}, "858623580RR0001": {"name": "P.A.C.S.-Pierre's Alley Cat Society", "designationCode": "C", "categoryCode": "54", "address": "PO BOX 51081", "city": "HALIFAX", "province": "NS", "country": "CA", "postalCode": "B3M3E5", "twitter": "None", "instagram": "None", "facebook": "None", "youtube": "None", "website": "None", "summary": "None", "logo": "None", "latitude": 44.68061400000006, "longitude": -63.66949099999994}, "119075687RR0001": {"name": "P.A.D. - PARENT ACTION ON DRUGS", "designationCode": "C", "categoryCode": "59", "address": "131-7 HAWKSDALE RD", "city": "TORONTO", "province": "ON", "country": "CA", "postalCode": "M3K1W3", "twitter": "None", "instagram": "None", "facebook": "None", "youtube": "None", "website": "None", "summary": "None", "logo": "None", "latitude": 43.730341511801, "longitude": -79.47987865970354}, "865639710RR0001": {"name": "P.A.F. RETABLISSEMENT FINANCIER", "designationCode": "C", "categoryCode": "57", "address": "10502, BOUL. ST-LAURENT       M GILLES GALIPEAULT", "city": "MONTREAL", "province": "QC", "country": "CA", "postalCode": "H3L2P4", "twitter": "None", "instagram": "None", "facebook": "None", "youtube": "None", "website": "None", "summary": "None", "logo": "None", "latitude": 45.54945113347583, "longitude": -73.66813231308778}, "804982445RR0001": {"name": "P.A.I.D. Family Foundation", "designationCode": "B", "categoryCode": "03", "address": "400 - 1788 WEST 5 TH AVENUE", "city": "VANCOUVER", "province": "BC", "country": "CA", "postalCode": "V6J1P2", "twitter": "None", "instagram": "None", "facebook": "None", "youtube": "None", "website": "None", "summary": "None", "logo": "None", "latitude": 49.2671245100989, "longitude": -123.14515274715794}, "123785859RR0001": {"name": "P.A.I.S. TORONTO", "designationCode": "C", "categoryCode": "22", "address": "401 RICHMOND ST, SUITE 350", "city": "TORONTO", "province": "ON", "country": "CA", "postalCode": "M5V3A8", "twitter": "None", "instagram": "None", "facebook": "None", "youtube": "None", "website": "None", "summary": "None", "logo": "None", "latitude": 43.64802194030256, "longitude": -79.39487429779568}, "119086676RR0001": {"name": "P.A.T.H. EMPLOYMENT SERVICES", "designationCode": "C", "categoryCode": "59", "address": "100-31 KING STREET E", "city": "HAMILTON", "province": "ON", "country": "CA", "postalCode": "L8N1A1", "twitter": "None", "instagram": "None", "facebook": "None", "youtube": "None", "website": "None", "summary": "None", "logo": "None", "latitude": 43.2564367460614, "longitude": -79.86819456021705}, "785876699RR0001": {"name": "P.E.A.R.L. Foundation", "designationCode": "B", "categoryCode": "03", "address": "700 2ND STREET SW             SUITE 1600", "city": "CALGARY", "province": "AB", "country": "CA", "postalCode": "T2P2W1", "twitter": "None", "instagram": "None", "facebook": "None", "youtube": "None", "website": "None", "summary": "None", "logo": "None", "latitude": 51.04652413015677, "longitude": -114.06781156103735}, "896908043RR0001": {"name": "P.E.I. ASSOCIATION FOR COMMUNITY LIVING, O'LEARY LOCAL", "designationCode": "C", "categoryCode": "21", "address": "5571 ROUTE 12                 RR 1", "city": "TYNE VALLEY", "province": "PE", "country": "CA", "postalCode": "C0B2C0", "twitter": "None", "instagram": "None", "facebook": "None", "youtube": "None", "website": "None", "summary": "None", "logo": "None", "latitude": 46.55441021065843, "longitude": -63.872630705262736}, "140614512RR0001": {"name": "P.E.I. ASSOCIATION FOR NEWCOMERS TO CANADA INC.", "designationCode": "C", "categoryCode": "09", "address": "49 WATER ST", "city": "CHARLOTTETOWN", "province": "PE", "country": "CA", "postalCode": "C1A1A3", "twitter": "None", "instagram": "None", "facebook": "None", "youtube": "None", "website": "None", "summary": "None", "logo": "None", "latitude": 46.2314811895666, "longitude": -63.125776078827364}, "120535323RR0001": {"name": "P.E.I. ATLANTIC BAPTIST HOMES INC.", "designationCode": "C", "categoryCode": "10", "address": "35 ATLANTIC BAPTIST AVE.", "city": "MONCTON", "province": "NB", "country": "CA", "postalCode": "E1E4N3", "twitter": "None", "instagram": "None", "facebook": "None", "youtube": "None", "website": "None", "summary": "None", "logo": "None", "latitude": 46.05999327145241, "longitude": -64.85879860263182}, "132204140RR0001": {"name": "P.E.I. Command of the Royal Canadian Legion Veterans' Memorial and Charity Fund", "designationCode": "A", "categoryCode": "15", "address": "20132 SHERWOOD RD             PO BOX / PO", "city": "CHARLOTTETOWN", "province": "PE", "country": "CA", "postalCode": "C1A9E3", "twitter": "None", "instagram": "None", "facebook": "None", "youtube": "None", "website": "None", "summary": "None", "logo": "None", "latitude": 46.23659700000006, "longitude": -63.12815449999994}, "104130158RR0001": {"name": "P.E.I. CITIZEN ADVOCACY INC.", "designationCode": "C", "categoryCode": "09", "address": "81 PRINCE STREET", "city": "CHARLOTTETOWN", "province": "PE", "country": "CA", "postalCode": "C1A4R3", "twitter": "None", "instagram": "None", "facebook": "None", "youtube": "None", "website": "None", "summary": "None", "logo": "None", "latitude": 46.23527784901036, "longitude": -63.123739081885795}, "893434860RR0001": {"name": "P.E.I. EQUINE RETIREMENT SOCIETY INC.", "designationCode": "C", "categoryCode": "54", "address": "18457 HWY 2", "city": "BROOKFIELD", "province": "PE", "country": "CA", "postalCode": "C0A1Y0", "twitter": "None", "instagram": "None", "facebook": "None", "youtube": "None", "website": "None", "summary": "None", "logo": "None", "latitude": 46.323148432685166, "longitude": -63.278213499595964}, "890685795RR0001": {"name": "P.E.I. GENEOLOGICAL SOCIETY INC.", "designationCode": "C", "categoryCode": "21", "address": "P.O. BOX 2744 STN CENTRAL", "city": "CHARLOTTETOWN", "province": "PE", "country": "CA", "postalCode": "C1A8C4", "twitter": "None", "instagram": "None", "facebook": "None", "youtube": "None", "website": "None", "summary": "None", "logo": "None", "latitude": 46.23659700000006, "longitude": -63.12815449999994}, "809417736RR0001": {"name": "P.E.I. Military Family Resource Centre Inc./Centre des ressources aux familles militaires de l'I.P.E. inc.", "designationCode": "C", "categoryCode": "09", "address": "210 WATER ST", "city": "CHARLOTTETOWN", "province": "PE", "country": "CA", "postalCode": "C1A9M5", "twitter": "None", "instagram": "None", "facebook": "None", "youtube": "None", "website": "None", "summary": "None", "logo": "None", "latitude": 46.23495074248599, "longitude": -63.12011845603462}, "107831323RR0001": {"name": "P.E.I. RAPE & SEXUAL ASSAULT CENTRE INC.", "designationCode": "C", "categoryCode": "09", "address": "PO BOX 1522                   1 ROCHFORD STREET", "city": "CHARLOTTETOWN", "province": "PE", "country": "CA", "postalCode": "C1A7N3", "twitter": "None", "instagram": "None", "facebook": "None", "youtube": "None", "website": "None", "summary": "None", "logo": "None", "latitude": 46.23150074104108, "longitude": -63.12968808702168}, "851861443RR0001": {"name": "P.E.I. RIGHT TO LIFE ASSOCIATION INC.", "designationCode": "C", "categoryCode": "09", "address": "P.O. BOX 1988", "city": "CHARLOTTETOWN", "province": "PE", "country": "CA", "postalCode": "C1A7N7", "twitter": "None", "instagram": "None", "facebook": "None", "youtube": "None", "website": "None", "summary": "None", "logo": "None", "latitude": 46.23659700000006, "longitude": -63.12815449999994}, "107967309RR0001": {"name": "P.E.I. SENIOR CITIZENS' FEDERATION INC.", "designationCode": "C", "categoryCode": "09", "address": "40 ENMAN CRESCENT", "city": "CHARLOTTETOWN", "province": "PE", "country": "CA", "postalCode": "C1E1E6", "twitter": "None", "instagram": "None", "facebook": "None", "youtube": "None", "website": "None", "summary": "None", "logo": "None", "latitude": 46.26020892990774, "longitude": -63.147127340887}, "820568400RR0001": {"name": "P.H. Foundation of Vancouver", "designationCode": "C", "categoryCode": "59", "address": "1524 WEST 65TH AVENUE", "city": "VANCOUVER", "province": "BC", "country": "CA", "postalCode": "V6P2R1", "twitter": "None", "instagram": "None", "facebook": "None", "youtube": "None", "website": "None", "summary": "None", "logo": "None", "latitude": 49.21227152120739, "longitude": -123.14157155398465}, "118883172RR0001": {"name": "P.H.B. DAWSON ESTATE - ANGLICAN FOUNDATION OF CANADA", "designationCode": "B", "categoryCode": "45", "address": "PO BOX 10085", "city": "VANCOUVER", "province": "BC", "country": "CA", "postalCode": "V7Y1B6", "twitter": "None", "instagram": "None", "facebook": "None", "youtube": "None", "website": "None", "summary": "None", "logo": "None", "latitude": 49.26037200000006, "longitude": -123.11336149999994}, "800699910RR0001": {"name": "P.K. Subban Foundation", "designationCode": "B", "categoryCode": "03", "address": "14-3650 LANGSTAFF RD          SUITE 364", "city": "WOODBRIDGE", "province": "ON", "country": "CA", "postalCode": "L4L9A8", "twitter": "None", "instagram": "None", "facebook": "None", "youtube": "None", "website": "None", "summary": "None", "logo": "None", "latitude": 43.808387359483696, "longitude": -79.5492470311038}, "107850422RR0001": {"name": "P.O.I.N.T. INCORPORATED", "designationCode": "C", "categoryCode": "56", "address": "200 EGLINTON AVE WEST         1ST FLOOR", "city": "TORONTO", "province": "ON", "country": "CA", "postalCode": "M4R1A7", "twitter": "None", "instagram": "None", "facebook": "None", "youtube": "None", "website": "None", "summary": "None", "logo": "None", "latitude": 43.70552320627235, "longitude": -79.40433925134153}, "816109441RR0001": {"name": "P.O.M. - United", "designationCode": "C", "categoryCode": "11", "address": "485 DOUGLAS AVE", "city": "NORTH YORK", "province": "ON", "country": "CA", "postalCode": "M5M1H6", "twitter": "None", "instagram": "None", "facebook": "None", "youtube": "None", "website": "None", "summary": "None", "logo": "None", "latitude": 43.72190177655964, "longitude": -79.42467631473257}, "119095909RR0001": {"name": "P.O.P.I.R. INC.", "designationCode": "C", "categoryCode": "59", "address": "4017 RUE NOTRE-DAME O", "city": "MONTREAL", "province": "QC", "country": "CA", "postalCode": "H4C1R3", "twitter": "None", "instagram": "None", "facebook": "None", "youtube": "None", "website": "None", "summary": "None", "logo": "None", "latitude": 45.47761672468114, "longitude": -73.58463279629514}, "107854226RR0001": {"name": "P.P.A.S.S. POST POLIO AWARENESS AND SUPPORT SOCIETY OF BRITISH COLUMBIA", "designationCode": "C", "categoryCode": "11", "address": "222 - 2453 BEACON AVE", "city": "SIDNEY", "province": "BC", "country": "CA", "postalCode": "V8L1X7", "twitter": "None", "instagram": "None", "facebook": "None", "youtube": "None", "website": "None", "summary": "None", "logo": "None", "latitude": 48.648837536987244, "longitude": -123.39836618287659}, "119097731RR0001": {"name": "P.P.G.C.C. (FOUNDATION) (PADRE PIO GROUP CENTRE OF CANADA) INC.", "designationCode": "C", "categoryCode": "49", "address": "91 MANITOU DR", "city": "KING CITY", "province": "ON", "country": "CA", "postalCode": "L7B1E7", "twitter": "None", "instagram": "None", "facebook": "None", "youtube": "None", "website": "None", "summary": "None", "logo": "None", "latitude": 43.93140128403187, "longitude": -79.53988595097836}, "139906325RR0001": {"name": "P.R.I.M.E. MENTORS OF CANADA FOR THE DEVELOPMENT OF CREATIVE POTENTIALS", "designationCode": "C", "categoryCode": "29", "address": "252 BLOOR ST WEST             9 FLOOR- SUITE 190", "city": "TORONTO", "province": "ON", "country": "CA", "postalCode": "M5S1V6", "twitter": "None", "instagram": "None", "facebook": "None", "youtube": "None", "website": "None", "summary": "None", "logo": "None", "latitude": 43.66784912245331, "longitude": -79.39836597005004}, "131308777RR0001": {"name": "P.R.I.S.E. II (PROGRAMME EDUCATIF DE REVALORISATION INDIVIFUELLE, SOCIALE) INC.", "designationCode": "C", "categoryCode": "09", "address": "10794 LAJEUNESSE ISP. #204", "city": "MONTREAL", "province": "QC", "country": "CA", "postalCode": "H3L2E8", "twitter": "None", "instagram": "None", "facebook": "None", "youtube": "None", "website": "None", "summary": "None", "logo": "None", "latitude": 45.55568502080337, "longitude": -73.67001071524605}, "834975807RR0001": {"name": "P.R.O. Jeunesse Dieppe / P.R.O. Kids Inc.", "designationCode": "C", "categoryCode": "09", "address": "333 AVENUE ACADIE", "city": "DIEPPE", "province": "NB", "country": "CA", "postalCode": "E1A1G9", "twitter": "None", "instagram": "None", "facebook": "None", "youtube": "None", "website": "None", "summary": "None", "logo": "None", "latitude": 46.09460519597192, "longitude": -64.74923160433393}, "823587076RR0001": {"name": "P.R.O. KIDS", "designationCode": "C", "categoryCode": "09", "address": "VICTORIAVILLE CIVIC CENTRE    111 S. SYNDICATE AVE", "city": "THUNDER BAY", "province": "ON", "country": "CA", "postalCode": "P7E6S4", "twitter": "None", "instagram": "None", "facebook": "None", "youtube": "None", "website": "None", "summary": "None", "logo": "None", "latitude": 48.38260597724054, "longitude": -89.24783253741303}, "119091247RR0001": {"name": "P\u00e8res des Sacr\u00e9s - Coeurs", "designationCode": "C", "categoryCode": "46", "address": "4505 RUE RINA-LASNIER", "city": "LEVIS", "province": "QC", "country": "CA", "postalCode": "G6W7N5", "twitter": "None", "instagram": "None", "facebook": "None", "youtube": "None", "website": "None", "summary": "None", "logo": "None", "latitude": 46.77720335527144, "longitude": -71.18183868500763}, "827232414RR0001": {"name": "Pace Family Foundation", "designationCode": "B", "categoryCode": "05", "address": "56 THE ESPLANADE              STE 506", "city": "TORONTO", "province": "ON", "country": "CA", "postalCode": "M5E1A7", "twitter": "None", "instagram": "None", "facebook": "None", "youtube": "None", "website": "None", "summary": "None", "logo": "None", "latitude": 43.64700501001199, "longitude": -79.37391652236123}, "891313363RR0001": {"name": "Pacekids Society for Children with Special Needs", "designationCode": "C", "categoryCode": "09", "address": "808 55 AVE NE", "city": "CALGARY", "province": "AB", "country": "CA", "postalCode": "T2E6Y4", "twitter": "None", "instagram": "None", "facebook": "None", "youtube": "None", "website": "None", "summary": "None", "logo": "None", "latitude": 51.10216738386508, "longitude": -114.04407655995725}, "821845286RR0001": {"name": "Pacific Autism Family Centre Foundation", "designationCode": "A", "categoryCode": "13", "address": "405-1015 BURRARD ST", "city": "VANCOUVER", "province": "BC", "country": "CA", "postalCode": "V6Z1Y5", "twitter": "None", "instagram": "None", "facebook": "None", "youtube": "None", "website": "None", "summary": "None", "logo": "None", "latitude": 49.28064721957389, "longitude": -123.12676715228771}, "826983306RR0001": {"name": "Pacific Autism Family Centre Society", "designationCode": "C", "categoryCode": "11", "address": "405-1015 BURRARD STREET", "city": "VANCOUVER", "province": "BC", "country": "CA", "postalCode": "V6Z1Y5", "twitter": "None", "instagram": "None", "facebook": "None", "youtube": "None", "website": "None", "summary": "None", "logo": "None", "latitude": 49.28064721957389, "longitude": -123.12676715228771}, "880900501RR0001": {"name": "Pacific AIDS Network Society", "designationCode": "C", "categoryCode": "29", "address": "603-402 WEST PENDER STREET", "city": "VANCOUVER", "province": "BC", "country": "CA", "postalCode": "V6B1T6", "twitter": "None", "instagram": "None", "facebook": "None", "youtube": "None", "website": "None", "summary": "None", "logo": "None", "latitude": 49.28286862057832, "longitude": -123.11214030532616}, "849059191RR0001": {"name": "Pacific Coast University for Workplace Health Sciences", "designationCode": "C", "categoryCode": "20", "address": "4755 CHERRY CREEK ROAD", "city": "PORT ALBERNI", "province": "BC", "country": "CA", "postalCode": "V9Y0A7", "twitter": "None", "instagram": "None", "facebook": "None", "youtube": "None", "website": "None", "summary": "None", "logo": "None", "latitude": 49.262984332938544, "longitude": -124.78844198286326}, "836079509RR0001": {"name": "Pacific Cornerstone Baptist Church", "designationCode": "C", "categoryCode": "39", "address": "163 HALIBUT STREET", "city": "KITIMAT", "province": "BC", "country": "CA", "postalCode": "V8C2K6", "twitter": "None", "instagram": "None", "facebook": "None", "youtube": "None", "website": "None", "summary": "None", "logo": "None", "latitude": 54.09085997500054, "longitude": -128.60866223756483}, "824564256RR0001": {"name": "Pacific Educational Access for Kids Association", "designationCode": "A", "categoryCode": "21", "address": "304 - 7300 GILBERT RD", "city": "RICHMOND", "province": "BC", "country": "CA", "postalCode": "V7C3W2", "twitter": "None", "instagram": "None", "facebook": "None", "youtube": "None", "website": "None", "summary": "None", "logo": "None", "latitude": 49.159808999999996, "longitude": -123.14777051719668}, "857038327RR0001": {"name": "Pacific Institute For Sport Excellence Society", "designationCode": "C", "categoryCode": "56", "address": "4371 INTERURBAN ROAD", "city": "VICTORIA", "province": "BC", "country": "CA", "postalCode": "V9E2C5", "twitter": "None", "instagram": "None", "facebook": "None", "youtube": "None", "website": "None", "summary": "None", "logo": "None", "latitude": 48.48592404991662, "longitude": -123.41555143430128}, "827410325RR0001": {"name": "Pacific InterChristian Community Society", "designationCode": "C", "categoryCode": "39", "address": "949 49TH AVE W", "city": "VANCOUVER", "province": "BC", "country": "CA", "postalCode": "V5Z2T1", "twitter": "None", "instagram": "None", "facebook": "None", "youtube": "None", "website": "None", "summary": "None", "logo": "None", "latitude": 49.22653944993916, "longitude": -123.12757091756595}, "864083589RR0001": {"name": "Pacific Marine Analysis and Research Association", "designationCode": "C", "categoryCode": "21", "address": "P.O. BOX 49002", "city": "VICTORIA", "province": "BC", "country": "CA", "postalCode": "V8P5V8", "twitter": "None", "instagram": "None", "facebook": "None", "youtube": "None", "website": "None", "summary": "None", "logo": "None", "latitude": 48.42854700000005, "longitude": -123.36445249999994}, "816296438RR0001": {"name": "Pacific North-West Heritage Home Foundation 2013", "designationCode": "B", "categoryCode": "52", "address": "612 VIEW STREET               3RD FLOOR", "city": "VICTORIA", "province": "BC", "country": "CA", "postalCode": "V8W1J5", "twitter": "None", "instagram": "None", "facebook": "None", "youtube": "None", "website": "None", "summary": "None", "logo": "None", "latitude": 48.425680423827025, "longitude": -123.36727068872989}, "840224240RR0001": {"name": "Pacific Region International Summer Music Academy Association", "designationCode": "C", "categoryCode": "22", "address": "D-7061 DUNCAN ST              PINCH & REID", "city": "POWELL RIVER", "province": "BC", "country": "CA", "postalCode": "V8A1W1", "twitter": "None", "instagram": "None", "facebook": "None", "youtube": "None", "website": "None", "summary": "None", "logo": "None", "latitude": 49.83592047157926, "longitude": -124.518393}, "830448692RR0001": {"name": "Pacific Rim Foundation", "designationCode": "C", "categoryCode": "21", "address": "PO BOX 495", "city": "TOFINO", "province": "BC", "country": "CA", "postalCode": "V0R2Z0", "twitter": "None", "instagram": "None", "facebook": "None", "youtube": "None", "website": "None", "summary": "None", "logo": "None", "latitude": 49.15262000000007, "longitude": -125.90403999999995}, "850048976RR0001": {"name": "Pacific Spine Research & Education Foundation", "designationCode": "A", "categoryCode": "03", "address": "1250-1500 GEORGIA W ST", "city": "VANCOUVER", "province": "BC", "country": "CA", "postalCode": "V6G2Z6", "twitter": "None", "instagram": "None", "facebook": "None", "youtube": "None", "website": "None", "summary": "None", "logo": "None", "latitude": 49.290187500000016, "longitude": -123.130035}}