{"119263085RR0001": {"name": "THE YORKTON AND DISTRICT BAND BOOSTERS ASSOCIATION, INCORPORATED", "designationCode": "C", "categoryCode": "22", "address": "BOX 1132", "city": "YORKTON", "province": "SK", "country": "CA", "postalCode": "S3N2X3", "twitter": "None", "instagram": "None", "facebook": "None", "youtube": "None", "website": "None", "summary": "None", "logo": "None", "latitude": 51.20403900000005, "longitude": -102.44985199999994}, "820058279RR0001": {"name": "THE YOUNG EAGLES INTERNATIONAL", "designationCode": "C", "categoryCode": "09", "address": "PO BOX 1483", "city": "INUVIK", "province": "NT", "country": "CA", "postalCode": "X0E0T0", "twitter": "None", "instagram": "None", "facebook": "None", "youtube": "None", "website": "None", "summary": "None", "logo": "None", "latitude": 68.36105000000003, "longitude": -133.73492999999996}, "860353960RR0001": {"name": "THE YOUNG FAMILY FOUNDATION", "designationCode": "B", "categoryCode": "05", "address": "130 KING ST. W 20TH FL.       BOX 430 FIRST CANADIAN PLACE", "city": "TORONTO", "province": "ON", "country": "CA", "postalCode": "M5X1K1", "twitter": "None", "instagram": "None", "facebook": "None", "youtube": "None", "website": "None", "summary": "None", "logo": "None", "latitude": 43.64826932503962, "longitude": -79.38190945606182}, "119263093RR0001": {"name": "THE YOUNG MEN'S AND YOUNG WOMEN'S CHRISTIAN ASSOCIATION OF WINNIPEG INCORPORATED", "designationCode": "C", "categoryCode": "49", "address": "3550 PORTAGE AVE", "city": "WINNIPEG", "province": "MB", "country": "CA", "postalCode": "R3K0Z8", "twitter": "None", "instagram": "None", "facebook": "None", "youtube": "None", "website": "None", "summary": "None", "logo": "None", "latitude": 49.88255554558878, "longitude": -97.30792689090553}, "119307098RR0001": {"name": "THE YOUNG MEN'S CHRISTIAN ASSOCIATION OF CAMBRIDGE, ONTARIO", "designationCode": "C", "categoryCode": "49", "address": "250 HESPELER RD", "city": "CAMBRIDGE", "province": "ON", "country": "CA", "postalCode": "N1R3H3", "twitter": "None", "instagram": "None", "facebook": "None", "youtube": "None", "website": "None", "summary": "None", "logo": "None", "latitude": 43.386075409371635, "longitude": -80.32113637044796}, "119307122RR0001": {"name": "THE YOUNG MEN'S CHRISTIAN ASSOCIATION OF EDMONTON", "designationCode": "C", "categoryCode": "49", "address": "200 - 10211 105 ST NW", "city": "EDMONTON", "province": "AB", "country": "CA", "postalCode": "T5J1E3", "twitter": "None", "instagram": "None", "facebook": "None", "youtube": "None", "website": "None", "summary": "None", "logo": "None", "latitude": 53.54344800000001, "longitude": -113.50106780345118}, "121935274RR0001": {"name": "THE YOUNG MEN'S CHRISTIAN ASSOCIATION OF SAULT STE MARIE", "designationCode": "C", "categoryCode": "49", "address": "235 MCNABB ST", "city": "SAULT STE MARIE", "province": "ON", "country": "CA", "postalCode": "P6B1Y3", "twitter": "None", "instagram": "None", "facebook": "None", "youtube": "None", "website": "None", "summary": "None", "logo": "None", "latitude": 46.52175853895235, "longitude": -84.3167316633389}, "888789393RR0001": {"name": "THE YOUNG WOMEN'S CHRISTIAN ASSOCIATION OF CANADA", "designationCode": "C", "categoryCode": "49", "address": "104 EDWARD ST.", "city": "TORONTO", "province": "ON", "country": "CA", "postalCode": "M5G0A7", "twitter": "None", "instagram": "None", "facebook": "None", "youtube": "None", "website": "None", "summary": "None", "logo": "None", "latitude": 43.65607308133754, "longitude": -79.38576732307111}, "119307338RR0001": {"name": "THE YOUNG WOMEN'S CHRISTIAN ASSOCIATION OF MONCTON", "designationCode": "C", "categoryCode": "49", "address": "135 KENDRA ST", "city": "MONCTON", "province": "NB", "country": "CA", "postalCode": "E1C9V9", "twitter": "None", "instagram": "None", "facebook": "None", "youtube": "None", "website": "None", "summary": "None", "logo": "None", "latitude": 46.11008310104437, "longitude": -64.81349488025839}, "871187092RR0001": {"name": "THE YOUSSEF-WARREN FOUNDATION", "designationCode": "B", "categoryCode": "03", "address": "3227 APPOLLO RD", "city": "BURLINGTON", "province": "ON", "country": "CA", "postalCode": "L7M2M7", "twitter": "None", "instagram": "None", "facebook": "None", "youtube": "None", "website": "None", "summary": "None", "logo": "None", "latitude": 43.373275795169945, "longitude": -79.82006820471447}, "898609490RR0001": {"name": "THE YOUTH CONNECTION ASSOCIATION FOR ALCOHOL AND SUBSTANCE ABUSE PREVENTION", "designationCode": "C", "categoryCode": "57", "address": "1093 ST PAUL AVENUE", "city": "WINDSOR", "province": "ON", "country": "CA", "postalCode": "N8S4V3", "twitter": "None", "instagram": "None", "facebook": "None", "youtube": "None", "website": "None", "summary": "None", "logo": "None", "latitude": 42.3272263941082, "longitude": -82.94166000294284}, "868867573RR0001": {"name": "THE YOUTHDALE TREATMENT CENTRES FOUNDATION", "designationCode": "C", "categoryCode": "13", "address": "227 VICTORIA STREET", "city": "TORONTO", "province": "ON", "country": "CA", "postalCode": "M5B1T8", "twitter": "None", "instagram": "None", "facebook": "None", "youtube": "None", "website": "None", "summary": "None", "logo": "None", "latitude": 43.655272480437375, "longitude": -79.37910940533226}, "119307916RR0001": {"name": "THE YUKON FOUNDATION", "designationCode": "A", "categoryCode": "23", "address": "PO BOX 31622", "city": "WHITEHORSE", "province": "YT", "country": "CA", "postalCode": "Y1A6L2", "twitter": "None", "instagram": "None", "facebook": "None", "youtube": "None", "website": "None", "summary": "None", "logo": "None", "latitude": 60.72084600000005, "longitude": -135.05323399999992}, "129488417RR0001": {"name": "THE YUKON TRANSPORTATION MUSEUM SOCIETY", "designationCode": "C", "categoryCode": "50", "address": "30 ELECTRA CRES", "city": "WHITEHORSE", "province": "YT", "country": "CA", "postalCode": "Y1A0M7", "twitter": "None", "instagram": "None", "facebook": "None", "youtube": "None", "website": "None", "summary": "None", "logo": "None", "latitude": 60.711623001252136, "longitude": -135.08076438722185}, "889204467RR0001": {"name": "THE ZACKS FAMILY CHARITABLE FOUNDATION", "designationCode": "B", "categoryCode": "03", "address": "300-1275 6TH AVE W", "city": "VANCOUVER", "province": "BC", "country": "CA", "postalCode": "V6H1A6", "twitter": "None", "instagram": "None", "facebook": "None", "youtube": "None", "website": "None", "summary": "None", "logo": "None", "latitude": 49.26615546047075, "longitude": -123.13305285498296}, "897518916RR0001": {"name": "THE ZERO CEILING SOCIETY OF CANADA/LA SOCIETE SANS LIMITES DU CANADA", "designationCode": "C", "categoryCode": "09", "address": "PO BOX 61", "city": "WHISTLER", "province": "BC", "country": "CA", "postalCode": "V0N1B0", "twitter": "None", "instagram": "None", "facebook": "None", "youtube": "None", "website": "None", "summary": "None", "logo": "None", "latitude": 50.11956600000006, "longitude": -122.95408399999994}, "139697023RR0001": {"name": "THE ZETA PSI FOUNDATION OF CANADA", "designationCode": "C", "categoryCode": "23", "address": "2300 YONGE ST                 PO BOX 67063", "city": "TORONTO", "province": "ON", "country": "CA", "postalCode": "M4P1E4", "twitter": "None", "instagram": "None", "facebook": "None", "youtube": "None", "website": "None", "summary": "None", "logo": "None", "latitude": 43.70721096779967, "longitude": -79.39846036808203}, "889288502RR0001": {"name": "THE ZHUBIN FOUNDATION / LA FONDATION ZHUBIN", "designationCode": "B", "categoryCode": "03", "address": "496 WOOD AVENUE", "city": "WESTMOUNT", "province": "QC", "country": "CA", "postalCode": "H3Y3J2", "twitter": "None", "instagram": "None", "facebook": "None", "youtube": "None", "website": "None", "summary": "None", "logo": "None", "latitude": 45.49015660753659, "longitude": -73.59294317014822}, "119309763RR0001": {"name": "THE ZOOLOGICAL SOCIETY OF MONTREAL / LA SOCI\u00c9T\u00c9 ZOOLOGIQUE DE MONTR\u00c9AL", "designationCode": "C", "categoryCode": "50", "address": "5140, AV. WESTMORE", "city": "MONTREAL", "province": "QC", "country": "CA", "postalCode": "H4V1Z5", "twitter": "None", "instagram": "None", "facebook": "None", "youtube": "None", "website": "None", "summary": "None", "logo": "None", "latitude": 45.4596775053957, "longitude": -73.65065182474454}, "887696060RR0001": {"name": "THE ZOROASTRIAN ASSOCIATION OF ALBERTA", "designationCode": "C", "categoryCode": "39", "address": "129 HARVEST GROVE PLACE NE", "city": "CALGARY", "province": "AB", "country": "CA", "postalCode": "T3K5C4", "twitter": "None", "instagram": "None", "facebook": "None", "youtube": "None", "website": "None", "summary": "None", "logo": "None", "latitude": 51.14768287844073, "longitude": -114.04683636052289}, "874784812RR0001": {"name": "THE 1ST HUSSARS CAVALRY FUND", "designationCode": "C", "categoryCode": "50", "address": "1ST HUSSARS CAVALRY FUND      701 OXFORD ST E.", "city": "LONDON", "province": "ON", "country": "CA", "postalCode": "N5Y4T7", "twitter": "None", "instagram": "None", "facebook": "None", "youtube": "None", "website": "None", "summary": "None", "logo": "None", "latitude": 43.00168312900379, "longitude": -81.23191372589321}, "131379125RR0001": {"name": "THE 127 SOCIETY FOR HOUSING", "designationCode": "C", "categoryCode": "01", "address": "1-415 NELSON ST.", "city": "VANCOUVER", "province": "BC", "country": "CA", "postalCode": "V6B6K6", "twitter": "None", "instagram": "None", "facebook": "None", "youtube": "None", "website": "None", "summary": "None", "logo": "None", "latitude": 49.277554353886465, "longitude": -123.12035510364144}, "891469397RR0001": {"name": "THE 1988 FOUNDATION", "designationCode": "A", "categoryCode": "53", "address": "502-325 HOWE ST", "city": "VANCOUVER", "province": "BC", "country": "CA", "postalCode": "V6C1Z7", "twitter": "None", "instagram": "None", "facebook": "None", "youtube": "None", "website": "None", "summary": "None", "logo": "None", "latitude": 49.28641531002936, "longitude": -123.11419699460431}, "119310464RR0001": {"name": "THE 3 C'S REINTRODUCTION CENTRE", "designationCode": "C", "categoryCode": "57", "address": "226 DOG LAKE ROAD", "city": "THUNDER BAY", "province": "ON", "country": "CA", "postalCode": "P7G2G2", "twitter": "None", "instagram": "None", "facebook": "None", "youtube": "None", "website": "None", "summary": "None", "logo": "None", "latitude": 48.48647418653686, "longitude": -89.32242428342721}, "108104878RR0001": {"name": "THE 404 TOWN HOUSE SARNIA INC.", "designationCode": "C", "categoryCode": "01", "address": "180 COLLEGE AVE N             LOWER LEVEL", "city": "SARNIA", "province": "ON", "country": "CA", "postalCode": "N7T7X2", "twitter": "None", "instagram": "None", "facebook": "None", "youtube": "None", "website": "None", "summary": "None", "logo": "None", "latitude": 42.973371251778005, "longitude": -82.40163114196127}, "119310621RR0001": {"name": "THE 411 FOUNDATION", "designationCode": "A", "categoryCode": "03", "address": "704-333 TERMINAL AVE.", "city": "VANCOUVER", "province": "BC", "country": "CA", "postalCode": "V6A4C1", "twitter": "None", "instagram": "None", "facebook": "None", "youtube": "None", "website": "None", "summary": "None", "logo": "None", "latitude": 49.2722023183679, "longitude": -123.09579891159332}, "860799568RR0001": {"name": "THE 78TH FRASER HIGHLANDERS - FORT CONESTOGA", "designationCode": "C", "categoryCode": "50", "address": "22-500 FAIRWAY RD. S          SUITE 199", "city": "KITCHENER", "province": "ON", "country": "CA", "postalCode": "N2L1Y3", "twitter": "None", "instagram": "None", "facebook": "None", "youtube": "None", "website": "None", "summary": "None", "logo": "None", "latitude": 43.460133000000056, "longitude": -80.52296749999994}, "889957973RR0001": {"name": "THE 78TH FRASER HIGHLANDERS - FORT GARRY OUTPOST", "designationCode": "C", "categoryCode": "29", "address": "125 SUMMERVIEW LANE", "city": "WINNIPEG", "province": "MB", "country": "CA", "postalCode": "R2V3W2", "twitter": "None", "instagram": "None", "facebook": "None", "youtube": "None", "website": "None", "summary": "None", "logo": "None", "latitude": 49.9582326547119, "longitude": -97.08243608883936}, "889259263RR0001": {"name": "THE 78TH FRASER HIGHLANDERS-YORK", "designationCode": "C", "categoryCode": "22", "address": "520-65 QUEEN ST W", "city": "TORONTO", "province": "ON", "country": "CA", "postalCode": "M5H2M5", "twitter": "None", "instagram": "None", "facebook": "None", "youtube": "None", "website": "None", "summary": "None", "logo": "None", "latitude": 43.65151703655775, "longitude": -79.38341919746475}, "892850140RR0001": {"name": "THE\u00c2TRE DEUXIEME REALITE", "designationCode": "C", "categoryCode": "22", "address": "371 RUE CAISSE", "city": "VERDUN", "province": "QC", "country": "CA", "postalCode": "H4G3M3", "twitter": "None", "instagram": "None", "facebook": "None", "youtube": "None", "website": "None", "summary": "None", "logo": "None", "latitude": 45.470594932021335, "longitude": -73.56751859437928}, "868938952RR0001": {"name": "THEATRE ANCASTER", "designationCode": "C", "categoryCode": "22", "address": "89 SUNNYRIDGE RD", "city": "JERSEYVILLE", "province": "ON", "country": "CA", "postalCode": "L0R1R0", "twitter": "None", "instagram": "None", "facebook": "None", "youtube": "None", "website": "None", "summary": "None", "logo": "None", "latitude": 43.196842496277746, "longitude": -80.10632563445772}, "893204453RR0001": {"name": "THEATRE ANIMA", "designationCode": "C", "categoryCode": "22", "address": "4305 ESPLANADE", "city": "MONTREAL", "province": "QC", "country": "CA", "postalCode": "H2W1T1", "twitter": "None", "instagram": "None", "facebook": "None", "youtube": "None", "website": "None", "summary": "None", "logo": "None", "latitude": 45.51715922482535, "longitude": -73.58523171758333}, "887232999RR0001": {"name": "THEATRE ANTIGONISH SOCIETY", "designationCode": "C", "categoryCode": "22", "address": "PO BOX 5000 STFX UNIVERSITY", "city": "ANTIGONISH", "province": "NS", "country": "CA", "postalCode": "B2G2W5", "twitter": "None", "instagram": "None", "facebook": "None", "youtube": "None", "website": "None", "summary": "None", "logo": "None", "latitude": 45.619649957153484, "longitude": -61.997499968695564}, "899348742RR0001": {"name": "THEATRE APHASIQUE", "designationCode": "C", "categoryCode": "22", "address": "225 RUE SHERBROOKE EST", "city": "MONTREAL", "province": "QC", "country": "CA", "postalCode": "H2X1C9", "twitter": "None", "instagram": "None", "facebook": "None", "youtube": "None", "website": "None", "summary": "None", "logo": "None", "latitude": 45.51490701471518, "longitude": -73.56842332878392}, "119213957RR0001": {"name": "THEATRE AQUARIUS INCORPORATED", "designationCode": "C", "categoryCode": "22", "address": "190 KING WILLIAM STREET", "city": "HAMILTON", "province": "ON", "country": "CA", "postalCode": "L8R1A8", "twitter": "None", "instagram": "None", "facebook": "None", "youtube": "None", "website": "None", "summary": "None", "logo": "None", "latitude": 43.255492995268135, "longitude": -79.8617103259853}, "891081549RR0001": {"name": "THEATRE ARTS COMMUNITY OUTREACH SOCIETY", "designationCode": "C", "categoryCode": "22", "address": "17831 95 ST NW", "city": "EDMONTON", "province": "AB", "country": "CA", "postalCode": "T5Z2E8", "twitter": "None", "instagram": "None", "facebook": "None", "youtube": "None", "website": "None", "summary": "None", "logo": "None", "latitude": 53.64113304827182, "longitude": -113.4877583492415}, "139906275RR0001": {"name": "THEATRE ASYLUM", "designationCode": "C", "categoryCode": "50", "address": "172A BALDWIN ST.", "city": "TORONTO", "province": "ON", "country": "CA", "postalCode": "M5T1L8", "twitter": "None", "instagram": "None", "facebook": "None", "youtube": "None", "website": "None", "summary": "None", "logo": "None", "latitude": 43.654851321851766, "longitude": -79.40056359395564}, "869159145RR0001": {"name": "THEATRE AURORA", "designationCode": "C", "categoryCode": "22", "address": "150 HENDERSON DRIVE           P. O. BOX 28532", "city": "AURORA", "province": "ON", "country": "CA", "postalCode": "L4G6S6", "twitter": "None", "instagram": "None", "facebook": "None", "youtube": "None", "website": "None", "summary": "None", "logo": "None", "latitude": 43.97996929525474, "longitude": -79.46959334979441}, "119214005RR0001": {"name": "THEATRE B.T.W. INC.", "designationCode": "C", "categoryCode": "22", "address": "3680 JEANNE-MANCE #432", "city": "MONTREAL", "province": "QC", "country": "CA", "postalCode": "H2X2K5", "twitter": "None", "instagram": "None", "facebook": "None", "youtube": "None", "website": "None", "summary": "None", "logo": "None", "latitude": 45.511605807923225, "longitude": -73.57611461047942}, "119213999RR0001": {"name": "THEATRE BEYOND WORDS", "designationCode": "C", "categoryCode": "22", "address": "19 TREMONT DR", "city": "ST CATHARINES", "province": "ON", "country": "CA", "postalCode": "L2T3A7", "twitter": "None", "instagram": "None", "facebook": "None", "youtube": "None", "website": "None", "summary": "None", "logo": "None", "latitude": 43.131114, "longitude": -79.22421862089544}, "120518857RR0001": {"name": "THEATRE BOUCHES DECOUSUES", "designationCode": "C", "categoryCode": "22", "address": "911 RUE JEAN-TALON EST        BUR 133", "city": "MONTREAL", "province": "QC", "country": "CA", "postalCode": "H2R1V5", "twitter": "None", "instagram": "None", "facebook": "None", "youtube": "None", "website": "None", "summary": "None", "logo": "None", "latitude": 45.54149052013953, "longitude": -73.61280380287332}, "857251706RR0001": {"name": "THEATRE BUZZ CUIVRES FARFELUS", "designationCode": "C", "categoryCode": "22", "address": "718 RUE PAUL-ANTOINE-GIGUERE", "city": "TERREBONNE", "province": "QC", "country": "CA", "postalCode": "J6Y0K7", "twitter": "None", "instagram": "None", "facebook": "None", "youtube": "None", "website": "None", "summary": "None", "logo": "None", "latitude": 45.68507108375846, "longitude": -73.73536781787672}, "119214013RR0001": {"name": "THEATRE CALGARY", "designationCode": "C", "categoryCode": "22", "address": "220 - 9 AVENUE S E", "city": "CALGARY", "province": "AB", "country": "CA", "postalCode": "T2G5C4", "twitter": "None", "instagram": "None", "facebook": "None", "youtube": "None", "website": "None", "summary": "None", "logo": "None", "latitude": 51.044540467684115, "longitude": -114.0598405269202}, "861984482RR0001": {"name": "THEATRE CALGARY ENDOWMENT FOUNDATION", "designationCode": "A", "categoryCode": "03", "address": "220 - 9TH AVENUE S.E.", "city": "CALGARY", "province": "AB", "country": "CA", "postalCode": "T2G5C4", "twitter": "None", "instagram": "None", "facebook": "None", "youtube": "None", "website": "None", "summary": "None", "logo": "None", "latitude": 51.044540467684115, "longitude": -114.0598405269202}, "893800870RR0001": {"name": "THEATRE CAMBRIAN", "designationCode": "C", "categoryCode": "22", "address": "40 EYRE ST.", "city": "SUDBURY", "province": "ON", "country": "CA", "postalCode": "P3E4A5", "twitter": "None", "instagram": "None", "facebook": "None", "youtube": "None", "website": "None", "summary": "None", "logo": "None", "latitude": 46.49304213156384, "longitude": -81.00836724441837}, "861856821RR0001": {"name": "THEATRE CAMERA OBSCURA", "designationCode": "C", "categoryCode": "22", "address": "3267, RUE ST-JACQUES", "city": "MONTREAL", "province": "QC", "country": "CA", "postalCode": "H4C1G8", "twitter": "None", "instagram": "None", "facebook": "None", "youtube": "None", "website": "None", "summary": "None", "logo": "None", "latitude": 45.48298466362734, "longitude": -73.58103414767142}, "886669993RR0001": {"name": "THEATRE COLLINGWOOD ASSOCIATION INC", "designationCode": "C", "categoryCode": "22", "address": "104 - 115 HURONTARIO ST", "city": "COLLINGWOOD", "province": "ON", "country": "CA", "postalCode": "L9Y2L9", "twitter": "None", "instagram": "None", "facebook": "None", "youtube": "None", "website": "None", "summary": "None", "logo": "None", "latitude": 44.49992406385724, "longitude": -80.21678270994283}, "124105727RR0001": {"name": "THEATRE COLUMBUS", "designationCode": "C", "categoryCode": "22", "address": "16 RYERSON AVENUE", "city": "TORONTO", "province": "ON", "country": "CA", "postalCode": "M5T2P3", "twitter": "None", "instagram": "None", "facebook": "None", "youtube": "None", "website": "None", "summary": "None", "logo": "None", "latitude": 43.6486136858157, "longitude": -79.4024460199953}, "143450229RR0001": {"name": "THEATRE COMPLICE", "designationCode": "C", "categoryCode": "22", "address": "5-2594 AV. BENNETT", "city": "MONTREAL", "province": "QC", "country": "CA", "postalCode": "H1V3S4", "twitter": "None", "instagram": "None", "facebook": "None", "youtube": "None", "website": "None", "summary": "None", "logo": "None", "latitude": 45.55783115122079, "longitude": -73.54745991912381}, "861481141RR0001": {"name": "THEATRE COMPULSIF", "designationCode": "C", "categoryCode": "22", "address": "6993 RUE DE NORMANVILLE", "city": "MONTREAL", "province": "QC", "country": "CA", "postalCode": "H2S2C4", "twitter": "None", "instagram": "None", "facebook": "None", "youtube": "None", "website": "None", "summary": "None", "logo": "None", "latitude": 45.5427733086444, "longitude": -73.60799199457564}, "129214730RR0001": {"name": "THEATRE D'ART LYRIQUE DE LAVAL", "designationCode": "C", "categoryCode": "22", "address": "430, 5E RUE LAVAL", "city": "LAVAL", "province": "QC", "country": "CA", "postalCode": "H7N1Z6", "twitter": "None", "instagram": "None", "facebook": "None", "youtube": "None", "website": "None", "summary": "None", "logo": "None", "latitude": 45.5505508623119, "longitude": -73.71812824352259}, "144365582RR0001": {"name": "THEATRE DE FORTUNE", "designationCode": "C", "categoryCode": "22", "address": "3951, RUE ST-HUBERT", "city": "MONTREAL", "province": "QC", "country": "CA", "postalCode": "H2L4A6", "twitter": "None", "instagram": "None", "facebook": "None", "youtube": "None", "website": "None", "summary": "None", "logo": "None", "latitude": 45.52192321039864, "longitude": -73.5729012830805}, "119214112RR0001": {"name": "THEATRE DE L'OEIL INC", "designationCode": "C", "categoryCode": "22", "address": "7780 HENRI-JULIEN", "city": "MONTREAL", "province": "QC", "country": "CA", "postalCode": "H2R2B7", "twitter": "None", "instagram": "None", "facebook": "None", "youtube": "None", "website": "None", "summary": "None", "logo": "None", "latitude": 45.53981907908719, "longitude": -73.62496129906508}, "895675015RR0001": {"name": "THEATRE DE L'UTOPIE", "designationCode": "C", "categoryCode": "22", "address": "6966 RUE BOYER", "city": "MONTREAL", "province": "QC", "country": "CA", "postalCode": "H2S2J8", "twitter": "None", "instagram": "None", "facebook": "None", "youtube": "None", "website": "None", "summary": "None", "logo": "None", "latitude": 45.54031669856898, "longitude": -73.60963460756524}, "119214054RR0001": {"name": "THEATRE DE LA BORDEE", "designationCode": "C", "categoryCode": "22", "address": "315, RUE ST-JOSEPH EST", "city": "QUEBEC", "province": "QC", "country": "CA", "postalCode": "G1K3B3", "twitter": "None", "instagram": "None", "facebook": "None", "youtube": "None", "website": "None", "summary": "None", "logo": "None", "latitude": 46.81369699526815, "longitude": -71.22606625921871}, "123340770RR0001": {"name": "THEATRE DE LA VILLE", "designationCode": "C", "categoryCode": "22", "address": "180 RUE DE GENTILLY E", "city": "LONGUEUIL", "province": "QC", "country": "CA", "postalCode": "J4H4A9", "twitter": "None", "instagram": "None", "facebook": "None", "youtube": "None", "website": "None", "summary": "None", "logo": "None", "latitude": 45.537408142686694, "longitude": -73.49492632053266}, "890146996RR0001": {"name": "THEATRE DE LA VOIX / VOICE THEATRE", "designationCode": "C", "categoryCode": "22", "address": "2122 WEST JEDDORE ROAD", "city": "HEAD OF JEDDORE", "province": "NS", "country": "CA", "postalCode": "B0J1P0", "twitter": "None", "instagram": "None", "facebook": "None", "youtube": "None", "website": "None", "summary": "None", "logo": "None", "latitude": 44.70626258566535, "longitude": -63.01686775012943}, "852060326RR0001": {"name": "THEATRE DE LA ZONE GRISE", "designationCode": "C", "categoryCode": "22", "address": "2225 RUE GILFORD", "city": "MONTREAL", "province": "QC", "country": "CA", "postalCode": "H2H1H7", "twitter": "None", "instagram": "None", "facebook": "None", "youtube": "None", "website": "None", "summary": "None", "logo": "None", "latitude": 45.538257215938536, "longitude": -73.574476558024}, "101074607RR0001": {"name": "THEATRE DE QUAT'SOUS INC.", "designationCode": "C", "categoryCode": "22", "address": "100 AVENUE DES PINS EST", "city": "MONTREAL", "province": "QC", "country": "CA", "postalCode": "H2W1N7", "twitter": "None", "instagram": "None", "facebook": "None", "youtube": "None", "website": "None", "summary": "None", "logo": "None", "latitude": 45.516055757141245, "longitude": -73.57421898138968}, "119214146RR0001": {"name": "THEATRE DIRECT CANADA", "designationCode": "C", "categoryCode": "22", "address": "304 - 51 WOLSELEY ST", "city": "TORONTO", "province": "ON", "country": "CA", "postalCode": "M5T1A4", "twitter": "None", "instagram": "None", "facebook": "None", "youtube": "None", "website": "None", "summary": "None", "logo": "None", "latitude": 43.64834680930822, "longitude": -79.40242529211153}, "888806866RR0001": {"name": "THEATRE DU MITAN", "designationCode": "C", "categoryCode": "22", "address": "3991 ST-ANDRE                 APP #54", "city": "MONTREAL", "province": "QC", "country": "CA", "postalCode": "H2L3W2", "twitter": "None", "instagram": "None", "facebook": "None", "youtube": "None", "website": "None", "summary": "None", "logo": "None", "latitude": 45.522841148219676, "longitude": -73.57262026573959}, "105194682RR0001": {"name": "THEATRE DU TRILLIUM INC.", "designationCode": "C", "categoryCode": "22", "address": "5 - 109 MURRAY ST", "city": "OTTAWA", "province": "ON", "country": "CA", "postalCode": "K1N5M5", "twitter": "None", "instagram": "None", "facebook": "None", "youtube": "None", "website": "None", "summary": "None", "logo": "None", "latitude": 45.43002334139297, "longitude": -75.69291528671583}, "131635955RR0001": {"name": "THEATRE DU VERTIGE INC.", "designationCode": "C", "categoryCode": "22", "address": "101 - 52 CH ACADEMY", "city": "WESTMOUNT", "province": "QC", "country": "CA", "postalCode": "H3Z1N6", "twitter": "None", "instagram": "None", "facebook": "None", "youtube": "None", "website": "None", "summary": "None", "logo": "None", "latitude": 45.479454211783626, "longitude": -73.5963859346184}, "118954874RR0001": {"name": "THEATRE FOR LIVING SOCIETY (HEADLINES THEATRE)", "designationCode": "C", "categoryCode": "22", "address": "323-350 EAST 2ND AVE", "city": "VANCOUVER", "province": "BC", "country": "CA", "postalCode": "V5T4R8", "twitter": "None", "instagram": "None", "facebook": "None", "youtube": "None", "website": "None", "summary": "None", "logo": "None", "latitude": 49.26703841768151, "longitude": -123.09689213116722}, "888662798RR0001": {"name": "THEATRE GARGANTUA INC.", "designationCode": "C", "categoryCode": "22", "address": "651 DUFFERIN STREET", "city": "TORONTO", "province": "ON", "country": "CA", "postalCode": "M6K2B2", "twitter": "None", "instagram": "None", "facebook": "None", "youtube": "None", "website": "None", "summary": "None", "logo": "None", "latitude": 43.650156970309844, "longitude": -79.43158651509054}, "888794864RR0001": {"name": "THEATRE IN THE RAW SOCIETY", "designationCode": "C", "categoryCode": "22", "address": "3521 MARSHALL ST", "city": "VANCOUVER", "province": "BC", "country": "CA", "postalCode": "V5N4S2", "twitter": "None", "instagram": "None", "facebook": "None", "youtube": "None", "website": "None", "summary": "None", "logo": "None", "latitude": 49.2526361729182, "longitude": -123.06236161382631}, "133891747RR0001": {"name": "THEATRE INCLINE INC", "designationCode": "C", "categoryCode": "22", "address": "413-397 BOUL. DES PRAIRIES", "city": "LAVAL", "province": "QC", "country": "CA", "postalCode": "H7N2W6", "twitter": "None", "instagram": "None", "facebook": "None", "youtube": "None", "website": "None", "summary": "None", "logo": "None", "latitude": 45.545539135754865, "longitude": -73.7095698612727}, "134483981RR0001": {"name": "THEATRE JUNCTION SOCIETY", "designationCode": "C", "categoryCode": "22", "address": "608 1 ST. SW", "city": "CALGARY", "province": "AB", "country": "CA", "postalCode": "T2P1M6", "twitter": "None", "instagram": "None", "facebook": "None", "youtube": "None", "website": "None", "summary": "None", "logo": "None", "latitude": 51.04708887316062, "longitude": -114.0653195550525}, "137772406RR0001": {"name": "THEATRE LA CATAPULTE", "designationCode": "C", "categoryCode": "22", "address": "124 AVENUE KING EDWARD        BUREAU 4", "city": "OTTAWA", "province": "ON", "country": "CA", "postalCode": "K1N7L1", "twitter": "None", "instagram": "None", "facebook": "None", "youtube": "None", "website": "None", "summary": "None", "logo": "None", "latitude": 45.43475293199267, "longitude": -75.69097713185973}, "127563088RR0001": {"name": "THEATRE LA CHAPELLE INC", "designationCode": "C", "categoryCode": "22", "address": "3700 RUE SAINT-DOMINIQUE", "city": "MONTREAL", "province": "QC", "country": "CA", "postalCode": "H2X2X7", "twitter": "None", "instagram": "None", "facebook": "None", "youtube": "None", "website": "None", "summary": "None", "logo": "None", "latitude": 45.51497788452892, "longitude": -73.57357265044138}, "119009348RR0001": {"name": "THEATRE LA SEIZIEME", "designationCode": "C", "categoryCode": "22", "address": "SUITE 226-1555 WEST 7TH AV", "city": "VANCOUVER", "province": "BC", "country": "CA", "postalCode": "V6J1S1", "twitter": "None", "instagram": "None", "facebook": "None", "youtube": "None", "website": "None", "summary": "None", "logo": "None", "latitude": 49.26541244214887, "longitude": -123.14009174562872}, "119214245RR0001": {"name": "THEATRE LAVANT PAYS INC", "designationCode": "C", "categoryCode": "22", "address": "279 SHERBROOKE OUEST          BUREAU 207", "city": "MONTREAL", "province": "QC", "country": "CA", "postalCode": "H2X1Y2", "twitter": "None", "instagram": "None", "facebook": "None", "youtube": "None", "website": "None", "summary": "None", "logo": "None", "latitude": 45.508907943937906, "longitude": -73.5710649245195}, "126703255RR0001": {"name": "THEATRE LE CLOU", "designationCode": "C", "categoryCode": "22", "address": "121 - 5425 RUE DE BORDEAUX", "city": "MONTREAL", "province": "QC", "country": "CA", "postalCode": "H2H2P9", "twitter": "None", "instagram": "None", "facebook": "None", "youtube": "None", "website": "None", "summary": "None", "logo": "None", "latitude": 45.539245246465434, "longitude": -73.58285217040802}, "136573151RR0001": {"name": "THEATRE LE PONT BRIDGE", "designationCode": "C", "categoryCode": "22", "address": "6308 AV CHRISTOPHE-COLOMB", "city": "MONTREAL", "province": "QC", "country": "CA", "postalCode": "H2S2G7", "twitter": "None", "instagram": "None", "facebook": "None", "youtube": "None", "website": "None", "summary": "None", "logo": "None", "latitude": 45.536975771279515, "longitude": -73.59975215142232}, "119214278RR0001": {"name": "THEATRE LONDON", "designationCode": "C", "categoryCode": "22", "address": "471 RICHMOND STREET", "city": "LONDON", "province": "ON", "country": "CA", "postalCode": "N6A3E4", "twitter": "None", "instagram": "None", "facebook": "None", "youtube": "None", "website": "None", "summary": "None", "logo": "None", "latitude": 42.98591626672053, "longitude": -81.25064936943835}, "119214260RR0001": {"name": "THEATRE LONDON FOUNDATION", "designationCode": "A", "categoryCode": "22", "address": "471 RICHMOND STREET", "city": "LONDON", "province": "ON", "country": "CA", "postalCode": "N6A3E4", "twitter": "None", "instagram": "None", "facebook": "None", "youtube": "None", "website": "None", "summary": "None", "logo": "None", "latitude": 42.98591626672053, "longitude": -81.25064936943835}, "119214286RR0001": {"name": "THEATRE LYRICHOREGRA 20", "designationCode": "C", "categoryCode": "22", "address": "4946 RUE HORTIE", "city": "PIERREFONDS", "province": "QC", "country": "CA", "postalCode": "H8Y1Z3", "twitter": "None", "instagram": "None", "facebook": "None", "youtube": "None", "website": "None", "summary": "None", "logo": "None", "latitude": 45.505008051358914, "longitude": -73.7715773151366}, "870417532RR0001": {"name": "THEATRE LYRIQUE DE LA MONTEREGIE", "designationCode": "C", "categoryCode": "22", "address": "CP 55062 CSP B.P.V-LONGUEUIL", "city": "LONGUEUIL", "province": "QC", "country": "CA", "postalCode": "J4H0A2", "twitter": "None", "instagram": "None", "facebook": "None", "youtube": "None", "website": "None", "summary": "None", "logo": "None", "latitude": 45.54261600000005, "longitude": -73.49538049999994}, "123028862RR0001": {"name": "THEATRE MOMENTUM", "designationCode": "C", "categoryCode": "22", "address": "6513 RUE SAINT-DOMINIQUE", "city": "MONTREAL", "province": "QC", "country": "CA", "postalCode": "H2S3A8", "twitter": "None", "instagram": "None", "facebook": "None", "youtube": "None", "website": "None", "summary": "None", "logo": "None", "latitude": 45.53115625757394, "longitude": -73.60838137800803}, "898325246RR0001": {"name": "THEATRE MOTUS", "designationCode": "C", "categoryCode": "22", "address": "330-150 RUE GRANT", "city": "LONGUEUIL", "province": "QC", "country": "CA", "postalCode": "J4H3H6", "twitter": "None", "instagram": "None", "facebook": "None", "youtube": "None", "website": "None", "summary": "None", "logo": "None", "latitude": 45.53932343989851, "longitude": -73.50840163878462}, "119214302RR0001": {"name": "THEATRE NETWORK 1975 SOCIETY", "designationCode": "C", "categoryCode": "22", "address": "10708 124 ST NW", "city": "EDMONTON", "province": "AB", "country": "CA", "postalCode": "T5M0H1", "twitter": "None", "instagram": "None", "facebook": "None", "youtube": "None", "website": "None", "summary": "None", "logo": "None", "latitude": 53.551268748542896, "longitude": -113.53596671097554}, "889998506RR0001": {"name": "THEATRE NEW BRUNSWICK FOUNDATION INC.", "designationCode": "A", "categoryCode": "03", "address": "87 CANTERBURY STREET", "city": "SAINT JOHN", "province": "NB", "country": "CA", "postalCode": "E2L2C7", "twitter": "None", "instagram": "None", "facebook": "None", "youtube": "None", "website": "None", "summary": "None", "logo": "None", "latitude": 45.270426018843196, "longitude": -66.06063016841557}, "865796833RR0001": {"name": "THEATRE NIGHT IN MERRICKVILLE", "designationCode": "C", "categoryCode": "22", "address": "BOX 177", "city": "MERRICKVILLE", "province": "ON", "country": "CA", "postalCode": "K0G1N0", "twitter": "None", "instagram": "None", "facebook": "None", "youtube": "None", "website": "None", "summary": "None", "logo": "None", "latitude": 44.91574000000003, "longitude": -75.83684999999997}, "120501812RR0001": {"name": "THEATRE NIVEAU PARKING", "designationCode": "C", "categoryCode": "22", "address": "939 AVE DE SALABERRY", "city": "QUEBEC", "province": "QC", "country": "CA", "postalCode": "G1R2V2", "twitter": "None", "instagram": "None", "facebook": "None", "youtube": "None", "website": "None", "summary": "None", "logo": "None", "latitude": 46.80578443187709, "longitude": -71.22647415748185}, "119063394RR0001": {"name": "THEATRE NOVA SCOTIA", "designationCode": "C", "categoryCode": "22", "address": "1113 MARGINAL ROAD", "city": "HALIFAX", "province": "NS", "country": "CA", "postalCode": "B3H4P7", "twitter": "None", "instagram": "None", "facebook": "None", "youtube": "None", "website": "None", "summary": "None", "logo": "None", "latitude": 44.639260983351576, "longitude": -63.56640067941039}, "819267931RR0001": {"name": "THEATRE OF THE BEAT INC.", "designationCode": "C", "categoryCode": "22", "address": "PO BOX 1477 STN MAIN", "city": "STOUFFVILLE", "province": "ON", "country": "CA", "postalCode": "L4A8A4", "twitter": "None", "instagram": "None", "facebook": "None", "youtube": "None", "website": "None", "summary": "None", "logo": "None", "latitude": 43.97028268018356, "longitude": -79.251601854151}, "119214328RR0001": {"name": "THEATRE ONTARIO", "designationCode": "C", "categoryCode": "22", "address": "350-401 RICHMOND ST. W.", "city": "TORONTO", "province": "ON", "country": "CA", "postalCode": "M5V3A8", "twitter": "None", "instagram": "None", "facebook": "None", "youtube": "None", "website": "None", "summary": "None", "logo": "None", "latitude": 43.64792255983254, "longitude": -79.39538964100468}, "138695705RR0001": {"name": "THEATRE ORANGEVILLE", "designationCode": "C", "categoryCode": "22", "address": "87 BROADWAY AVE", "city": "ORANGEVILLE", "province": "ON", "country": "CA", "postalCode": "L9W1K1", "twitter": "None", "instagram": "None", "facebook": "None", "youtube": "None", "website": "None", "summary": "None", "logo": "None", "latitude": 43.91998398176883, "longitude": -80.09435937565236}, "119214344RR0001": {"name": "THEATRE PASSE MURAILLE", "designationCode": "C", "categoryCode": "22", "address": "16 RYERSON AVE", "city": "TORONTO", "province": "ON", "country": "CA", "postalCode": "M5T2P3", "twitter": "None", "instagram": "None", "facebook": "None", "youtube": "None", "website": "None", "summary": "None", "logo": "None", "latitude": 43.6486136858157, "longitude": -79.4024460199953}, "122373665RR0001": {"name": "THEATRE PROJECTS MANITOBA INCORPORATED", "designationCode": "C", "categoryCode": "22", "address": "204-245 MCDERMOT AVE", "city": "WINNIPEG", "province": "MB", "country": "CA", "postalCode": "R3B0S6", "twitter": "None", "instagram": "None", "facebook": "None", "youtube": "None", "website": "None", "summary": "None", "logo": "None", "latitude": 49.897426902590986, "longitude": -97.14132111128748}, "127188571RR0001": {"name": "THEATRE REGINA INCORPORATED", "designationCode": "C", "categoryCode": "22", "address": "1077 ANGUS ST", "city": "REGINA", "province": "SK", "country": "CA", "postalCode": "S4T1Y4", "twitter": "None", "instagram": "None", "facebook": "None", "youtube": "None", "website": "None", "summary": "None", "logo": "None", "latitude": 50.46215349708581, "longitude": -104.6195798759019}, "877345702RR0001": {"name": "THEATRE REPLACEMENT SOCIETY", "designationCode": "C", "categoryCode": "22", "address": "1885 VENABLES ST", "city": "VANCOUVER", "province": "BC", "country": "CA", "postalCode": "V5L2H6", "twitter": "None", "instagram": "None", "facebook": "None", "youtube": "None", "website": "None", "summary": "None", "logo": "None", "latitude": 49.27669050043268, "longitude": -123.06622402553523}, "860189299RR0001": {"name": "THEATRE RUSTICLE INC.", "designationCode": "C", "categoryCode": "22", "address": "121 1/2 RUSHOLME ROAD #2", "city": "TORONTO", "province": "ON", "country": "CA", "postalCode": "M6H2Y6", "twitter": "None", "instagram": "None", "facebook": "None", "youtube": "None", "website": "None", "summary": "None", "logo": "None", "latitude": 43.65361163226491, "longitude": -79.42816201329518}, "119214401RR0001": {"name": "THEATRE SANS FIL TSF INC", "designationCode": "C", "categoryCode": "22", "address": "130 RUE DU CARMEL", "city": "DANVILLE", "province": "QC", "country": "CA", "postalCode": "J0A1A0", "twitter": "None", "instagram": "None", "facebook": "None", "youtube": "None", "website": "None", "summary": "None", "logo": "None", "latitude": 45.781661955306184, "longitude": -72.0159895296615}, "134273754RR0001": {"name": "THEATRE SARNIA", "designationCode": "C", "categoryCode": "22", "address": "PO BOX 43 STN MAIN", "city": "SARNIA", "province": "ON", "country": "CA", "postalCode": "N7T7H8", "twitter": "None", "instagram": "None", "facebook": "None", "youtube": "None", "website": "None", "summary": "None", "logo": "None", "latitude": 42.97877700000005, "longitude": -82.40368399999993}, "868484627RR0001": {"name": "THEATRE SKAM ASSOCIATION", "designationCode": "C", "categoryCode": "22", "address": "P.O. BOX 8563", "city": "VICTORIA", "province": "BC", "country": "CA", "postalCode": "V8W3S2", "twitter": "None", "instagram": "None", "facebook": "None", "youtube": "None", "website": "None", "summary": "None", "logo": "None", "latitude": 48.42854700000005, "longitude": -123.36445249999994}, "831631676RR0001": {"name": "THEATRE SMASH", "designationCode": "C", "categoryCode": "22", "address": "31 ADELAIDE ST E              PO BOX 1136", "city": "TORONTO", "province": "ON", "country": "CA", "postalCode": "M5C2K5", "twitter": "None", "instagram": "None", "facebook": "None", "youtube": "None", "website": "None", "summary": "None", "logo": "None", "latitude": 43.650717853165304, "longitude": -79.37698425644875}, "119214427RR0001": {"name": "THEATRE SMITH-GILMOUR", "designationCode": "C", "categoryCode": "22", "address": "201 - 192 SPADINA AVE", "city": "TORONTO", "province": "ON", "country": "CA", "postalCode": "M5T2C2", "twitter": "None", "instagram": "None", "facebook": "None", "youtube": "None", "website": "None", "summary": "None", "logo": "None", "latitude": 43.65006348291888, "longitude": -79.397016124675}, "877846147RR0001": {"name": "THEATRE TEESRI DUNIYA - TEESRI DUNIYA THEATRE", "designationCode": "C", "categoryCode": "22", "address": "460 STE. CATHERINE ST. W.     SUITE 916", "city": "MONTREAL", "province": "QC", "country": "CA", "postalCode": "H3B1A7", "twitter": "None", "instagram": "None", "facebook": "None", "youtube": "None", "website": "None", "summary": "None", "logo": "None", "latitude": 45.50506326865377, "longitude": -73.56795990671725}, "119214450RR0001": {"name": "THEATRE TILLSONBURG", "designationCode": "C", "categoryCode": "22", "address": "PO BOX 64 STN MAIN", "city": "TILLSONBURG", "province": "ON", "country": "CA", "postalCode": "N4G4H3", "twitter": "None", "instagram": "None", "facebook": "None", "youtube": "None", "website": "None", "summary": "None", "logo": "None", "latitude": 42.86066100000005, "longitude": -80.72789299999994}}