{"888578440RR0001": {"name": "LIGHT TO THE NATIONS CHRISTIAN MINISTRIES", "designationCode": "C", "categoryCode": "47", "address": "32509 VERDON WAY", "city": "ABBOTSFORD", "province": "BC", "country": "CA", "postalCode": "V2T7Y3", "twitter": "None", "instagram": "None", "facebook": "None", "youtube": "None", "website": "None", "summary": "None", "logo": "None", "latitude": 49.071561523226606, "longitude": -122.3228441030636}, "890802176RR0001": {"name": "LIGHT UP THE WORLD", "designationCode": "C", "categoryCode": "03", "address": "1121 14 AVE SW", "city": "CALGARY", "province": "AB", "country": "CA", "postalCode": "T2R0P3", "twitter": "None", "instagram": "None", "facebook": "None", "youtube": "None", "website": "None", "summary": "None", "logo": "None", "latitude": 51.0401805212074, "longitude": -114.0876122216227}, "862825544RR0001": {"name": "LIGHT UP YOUR LIFE TRI-COMMUNITY PALLIATIVE/HOSPICE CARE SOCIETY", "designationCode": "C", "categoryCode": "19", "address": "4405 SOUTH PARK DRIVE", "city": "STONY PLAIN", "province": "AB", "country": "CA", "postalCode": "T7Z2M7", "twitter": "None", "instagram": "None", "facebook": "None", "youtube": "None", "website": "None", "summary": "None", "logo": "None", "latitude": 53.53832728395571, "longitude": -113.97881369572397}, "119019388RR0001": {"name": "LIGHT-HAVEN HOME INC.", "designationCode": "C", "categoryCode": "01", "address": "PO BOX 87", "city": "BRUCE MINES", "province": "ON", "country": "CA", "postalCode": "P0R1C0", "twitter": "None", "instagram": "None", "facebook": "None", "youtube": "None", "website": "None", "summary": "None", "logo": "None"}, "860508332RR0001": {"name": "LIGHTBEARERS OF CHRIST CHURCH (INTERNATIONAL) INC.", "designationCode": "C", "categoryCode": "39", "address": "98 YUILE CRT", "city": "BRAMPTON", "province": "ON", "country": "CA", "postalCode": "L6Y5J5", "twitter": "None", "instagram": "None", "facebook": "None", "youtube": "None", "website": "None", "summary": "None", "logo": "None", "latitude": 43.64400512072257, "longitude": -79.7415329353109}, "119019529RR0001": {"name": "LIGHTHOUSE APOSTOLIC CHURCH", "designationCode": "C", "categoryCode": "39", "address": "4890 LOCKE RD", "city": "PORT ALBERNI", "province": "BC", "country": "CA", "postalCode": "V9Y8P9", "twitter": "None", "instagram": "None", "facebook": "None", "youtube": "None", "website": "None", "summary": "None", "logo": "None", "latitude": 49.262063228691844, "longitude": -124.76994550559724}, "887560068RR0001": {"name": "LIGHTHOUSE ASSEMBLY OF GOD", "designationCode": "C", "categoryCode": "39", "address": "1 & 2-42 STEINWAY BLVD.", "city": "TORONTO", "province": "ON", "country": "CA", "postalCode": "M9W6Y6", "twitter": "None", "instagram": "None", "facebook": "None", "youtube": "None", "website": "None", "summary": "None", "logo": "None", "latitude": 43.75125040827512, "longitude": -79.62206603733621}, "107353658RR0001": {"name": "LIGHTHOUSE BAPTIST CHURCH", "designationCode": "C", "categoryCode": "31", "address": "266 KING STREET", "city": "AMHERSTBURG", "province": "ON", "country": "CA", "postalCode": "N9V2C6", "twitter": "None", "instagram": "None", "facebook": "None", "youtube": "None", "website": "None", "summary": "None", "logo": "None", "latitude": 42.101642326389324, "longitude": -83.10626311437458}, "864421730RR0001": {"name": "LIGHTHOUSE BAPTIST CHURCH", "designationCode": "C", "categoryCode": "39", "address": "213 EDWARD STREET", "city": "LONDON", "province": "ON", "country": "CA", "postalCode": "N6C3J1", "twitter": "None", "instagram": "None", "facebook": "None", "youtube": "None", "website": "None", "summary": "None", "logo": "None", "latitude": 42.964106165416354, "longitude": -81.2569196877776}, "896541315RR0001": {"name": "LIGHTHOUSE BAPTIST CHURCH", "designationCode": "C", "categoryCode": "31", "address": "P.O.BOX 624", "city": "ALLISTON", "province": "ON", "country": "CA", "postalCode": "L9R1V8", "twitter": "None", "instagram": "None", "facebook": "None", "youtube": "None", "website": "None", "summary": "None", "logo": "None", "latitude": 44.15432100000005, "longitude": -79.86752449999993}, "898331905RR0001": {"name": "LIGHTHOUSE BAPTIST CHURCH", "designationCode": "C", "categoryCode": "46", "address": "17 DUNLOP PL", "city": "KITCHENER", "province": "ON", "country": "CA", "postalCode": "N2P1J3", "twitter": "None", "instagram": "None", "facebook": "None", "youtube": "None", "website": "None", "summary": "None", "logo": "None", "latitude": 43.39841804385709, "longitude": -80.44427420425313}, "891966624RR0001": {"name": "LIGHTHOUSE BAPTIST CHURCH OF EDMONTON", "designationCode": "C", "categoryCode": "31", "address": "11940-47 ST", "city": "EDMONTON", "province": "AB", "country": "CA", "postalCode": "T5W2X1", "twitter": "None", "instagram": "None", "facebook": "None", "youtube": "None", "website": "None", "summary": "None", "logo": "None", "latitude": 53.57335499999999, "longitude": -113.4138282509375}, "870460276RR0001": {"name": "LIGHTHOUSE BAPTIST CHURCH OF MEDICINE HAT", "designationCode": "C", "categoryCode": "39", "address": "BOX 23094                     3292 DUNMORE RD", "city": "MEDICINE HAT", "province": "AB", "country": "CA", "postalCode": "T1B4C7", "twitter": "None", "instagram": "None", "facebook": "None", "youtube": "None", "website": "None", "summary": "None", "logo": "None", "latitude": 50.005837519311314, "longitude": -110.64477874928585}, "867393787RR0001": {"name": "LIGHTHOUSE BAPTIST CHURCH OF SOURIS, PRINCE EDWARD ISLAND, CANADA INC.", "designationCode": "C", "categoryCode": "31", "address": "LEA CRANE DRIVE, CIVIC #12    P. O. BOX 746", "city": "SOURIS", "province": "PE", "country": "CA", "postalCode": "C0A2B0", "twitter": "None", "instagram": "None", "facebook": "None", "youtube": "None", "website": "None", "summary": "None", "logo": "None", "latitude": 46.35693343309243, "longitude": -62.240662752260356}, "865042154RR0001": {"name": "LIGHTHOUSE BIBLE BAPTIST CHURCH OF NANAIMO SOCIETY", "designationCode": "C", "categoryCode": "31", "address": "371 CARIBOO DR", "city": "NANAIMO", "province": "BC", "country": "CA", "postalCode": "V9R7E1", "twitter": "None", "instagram": "None", "facebook": "None", "youtube": "None", "website": "None", "summary": "None", "logo": "None", "latitude": 49.16056499999999, "longitude": -123.97743501338752}, "884048927RR0001": {"name": "LIGHTHOUSE CHAPEL INTERNATIONAL", "designationCode": "C", "categoryCode": "39", "address": "1597 WILSON AVENUE            P.O. BOX 60591", "city": "DOWNSVIEW", "province": "ON", "country": "CA", "postalCode": "M3N2N5", "twitter": "None", "instagram": "None", "facebook": "None", "youtube": "None", "website": "None", "summary": "None", "logo": "None", "latitude": 43.72034918485651, "longitude": -79.51108780119792}, "107625493RR0001": {"name": "LIGHTHOUSE CHRISTIAN ACADEMY SOCIETY", "designationCode": "C", "categoryCode": "20", "address": "1289 PARKDALE DRIVE", "city": "VICTORIA", "province": "BC", "country": "CA", "postalCode": "V9B4G9", "twitter": "None", "instagram": "None", "facebook": "None", "youtube": "None", "website": "None", "summary": "None", "logo": "None", "latitude": 48.439446927346324, "longitude": -123.53283246034675}, "140644667RR0001": {"name": "LIGHTHOUSE CHRISTIAN CENTRE OF CANADA INC.", "designationCode": "C", "categoryCode": "39", "address": "2215 SANDMAN CRES.", "city": "ORLEANS", "province": "ON", "country": "CA", "postalCode": "K4A4V6", "twitter": "None", "instagram": "None", "facebook": "None", "youtube": "None", "website": "None", "summary": "None", "logo": "None", "latitude": 45.455823167089804, "longitude": -75.47528209336966}, "868335977RR0001": {"name": "LIGHTHOUSE CHRISTIAN FELLOWSHIP", "designationCode": "C", "categoryCode": "39", "address": "BOX 45", "city": "PORT CLYDE", "province": "NS", "country": "CA", "postalCode": "B0W2S0", "twitter": "None", "instagram": "None", "facebook": "None", "youtube": "None", "website": "None", "summary": "None", "logo": "None", "latitude": 43.626241967516144, "longitude": -65.47409983858066}, "879188167RR0001": {"name": "LIGHTHOUSE CHRISTIAN FELLOWSHIP SOCIETY OF CALGARY", "designationCode": "C", "categoryCode": "39", "address": "UNIT O 9827 HORTON RD SW", "city": "CALGARY", "province": "AB", "country": "CA", "postalCode": "T2V2X5", "twitter": "None", "instagram": "None", "facebook": "None", "youtube": "None", "website": "None", "summary": "None", "logo": "None", "latitude": 50.96600395475793, "longitude": -114.07483371790045}, "134260306RR0001": {"name": "LIGHTHOUSE CHRISTIAN SCHOOL SOCIETY", "designationCode": "C", "categoryCode": "20", "address": "4290 50TH ST", "city": "SYLVAN LAKE", "province": "AB", "country": "CA", "postalCode": "T4S0H3", "twitter": "None", "instagram": "None", "facebook": "None", "youtube": "None", "website": "None", "summary": "None", "logo": "None", "latitude": 52.29776554631709, "longitude": -114.09726827145224}, "710412495RR0001": {"name": "LIGHTHOUSE CHURCH", "designationCode": "C", "categoryCode": "36", "address": "2196 44TH AVE E", "city": "VANCOUVER", "province": "BC", "country": "CA", "postalCode": "V5P1N2", "twitter": "None", "instagram": "None", "facebook": "None", "youtube": "None", "website": "None", "summary": "None", "logo": "None", "latitude": 49.23033752842075, "longitude": -123.06256038634658}, "865491633RR0001": {"name": "LIGHTHOUSE CHURCH OF GOD", "designationCode": "C", "categoryCode": "39", "address": "8652 SODOM ROAD", "city": "NIAGARA FALLS", "province": "ON", "country": "CA", "postalCode": "L2G7B1", "twitter": "None", "instagram": "None", "facebook": "None", "youtube": "None", "website": "None", "summary": "None", "logo": "None", "latitude": 43.05197455733152, "longitude": -79.05927469978107}, "866683675RR0001": {"name": "LIGHTHOUSE CHURCHES OF GOD IN CHRIST OF CANADA INC.", "designationCode": "C", "categoryCode": "39", "address": "62 STONEHILL COURT", "city": "SCARBOROUGH", "province": "ON", "country": "CA", "postalCode": "M1W2V3", "twitter": "None", "instagram": "None", "facebook": "None", "youtube": "None", "website": "None", "summary": "None", "logo": "None", "latitude": 43.795879084078834, "longitude": -79.31217668930587}, "891621971RR0001": {"name": "LIGHTHOUSE COMMUNITY CENTRE SOCIETY", "designationCode": "C", "categoryCode": "56", "address": "240 LIONS WAY", "city": "QUALICUM BEACH", "province": "BC", "country": "CA", "postalCode": "V9K2E2", "twitter": "None", "instagram": "None", "facebook": "None", "youtube": "None", "website": "None", "summary": "None", "logo": "None", "latitude": 49.40355143924411, "longitude": -124.63133326440527}, "118958768RR0001": {"name": "LIGHTHOUSE COMMUNITY CHURCH", "designationCode": "C", "categoryCode": "36", "address": "BOX 32", "city": "HIXON", "province": "BC", "country": "CA", "postalCode": "V0K1S0", "twitter": "None", "instagram": "None", "facebook": "None", "youtube": "None", "website": "None", "summary": "None", "logo": "None", "latitude": 53.42845024316912, "longitude": -122.57878615885444}, "119291557RR0001": {"name": "LIGHTHOUSE COMMUNITY CHURCH", "designationCode": "C", "categoryCode": "39", "address": "BOX 238", "city": "BRUCE MINES", "province": "ON", "country": "CA", "postalCode": "P0R1C0", "twitter": "None", "instagram": "None", "facebook": "None", "youtube": "None", "website": "None", "summary": "None", "logo": "None"}, "125366815RR0001": {"name": "LIGHTHOUSE COMMUNITY CHURCH", "designationCode": "C", "categoryCode": "39", "address": "BOX 1550", "city": "INUVIK", "province": "NT", "country": "CA", "postalCode": "X0E0T0", "twitter": "None", "instagram": "None", "facebook": "None", "youtube": "None", "website": "None", "summary": "None", "logo": "None", "latitude": 68.36105000000003, "longitude": -133.73492999999996}, "866747082RR0001": {"name": "LIGHTHOUSE COMMUNITY CHURCH WEST PRINCE INC.", "designationCode": "C", "categoryCode": "39", "address": "PO BOX 172                    1006 DOCK ROAD", "city": "ELMSDALE", "province": "PE", "country": "CA", "postalCode": "C0B1K0", "twitter": "None", "instagram": "None", "facebook": "None", "youtube": "None", "website": "None", "summary": "None", "logo": "None", "latitude": 46.81994799924718, "longitude": -64.14121295553575}, "865357529RR0001": {"name": "LIGHTHOUSE COUNTRY MARINE RESCUE SOCIETY UNIT 59", "designationCode": "C", "categoryCode": "59", "address": "5058 LONGVIEW DRIVE", "city": "BOWSER", "province": "BC", "country": "CA", "postalCode": "V0R1G0", "twitter": "None", "instagram": "None", "facebook": "None", "youtube": "None", "website": "None", "summary": "None", "logo": "None", "latitude": 49.45347213029489, "longitude": -124.7094532925893}, "119150019RR0001": {"name": "LIGHTHOUSE DEAF FELLOWSHIP", "designationCode": "C", "categoryCode": "47", "address": "46 VERMONT AVE", "city": "TORONTO", "province": "ON", "country": "CA", "postalCode": "M6G1X9", "twitter": "None", "instagram": "None", "facebook": "None", "youtube": "None", "website": "None", "summary": "None", "logo": "None", "latitude": 43.67142117236991, "longitude": -79.417289571614}, "865026223RR0001": {"name": "LIGHTHOUSE DELIVERANCE LOVE AND GRACE CHURCH", "designationCode": "C", "categoryCode": "39", "address": "36 OLIVE COURT", "city": "BRAMPTON", "province": "ON", "country": "CA", "postalCode": "L6V3G9", "twitter": "None", "instagram": "None", "facebook": "None", "youtube": "None", "website": "None", "summary": "None", "logo": "None", "latitude": 43.71263703716333, "longitude": -79.75229510560335}, "889250460RR0001": {"name": "LIGHTHOUSE EVANGELISTIC ASSOCIATION INC", "designationCode": "C", "categoryCode": "47", "address": "SITE 525 COMP 55 RR 5         STN TRANSCONA", "city": "WINNIPEG", "province": "MB", "country": "CA", "postalCode": "R2C2Z2", "twitter": "None", "instagram": "None", "facebook": "None", "youtube": "None", "website": "None", "summary": "None", "logo": "None", "latitude": 49.90015262318507, "longitude": -97.02950803629832}, "897989174RR0001": {"name": "LIGHTHOUSE FELLOWSHIP ASSEMBLY", "designationCode": "C", "categoryCode": "39", "address": "80 ROYAL CREST RD", "city": "ETOBICOKE", "province": "ON", "country": "CA", "postalCode": "M9V4C1", "twitter": "None", "instagram": "None", "facebook": "None", "youtube": "None", "website": "None", "summary": "None", "logo": "None", "latitude": 43.7505492129088, "longitude": -79.60692574744638}, "891676249RR0001": {"name": "LIGHTHOUSE FELLOWSHIP BAPTIST CHURCH", "designationCode": "C", "categoryCode": "31", "address": "83 MAHOOD JOHNSTON DR", "city": "KINCARDINE", "province": "ON", "country": "CA", "postalCode": "N2Z3A2", "twitter": "None", "instagram": "None", "facebook": "None", "youtube": "None", "website": "None", "summary": "None", "logo": "None", "latitude": 44.16094928752599, "longitude": -81.6507288432149}, "859933863RR0001": {"name": "LIGHTHOUSE FELLOWSHIP CHURCH OF THE NAZARENE", "designationCode": "C", "categoryCode": "39", "address": "19 WILKINSON CIRCLE", "city": "SYLVAN LAKE", "province": "AB", "country": "CA", "postalCode": "T4S2N8", "twitter": "None", "instagram": "None", "facebook": "None", "youtube": "None", "website": "None", "summary": "None", "logo": "None", "latitude": 52.31244203722066, "longitude": -114.12020502135162}, "103328563RR0001": {"name": "LIGHTHOUSE FESTIVAL THEATRE CORPORATION", "designationCode": "C", "categoryCode": "22", "address": "P O BOX 1208                  17 MARKET ST.", "city": "PORT DOVER", "province": "ON", "country": "CA", "postalCode": "N0A1N0", "twitter": "None", "instagram": "None", "facebook": "None", "youtube": "None", "website": "None", "summary": "None", "logo": "None", "latitude": 42.78593372133425, "longitude": -80.20339482471587}, "888215043RR0001": {"name": "LIGHTHOUSE FOOD BANK SOCIETY", "designationCode": "C", "categoryCode": "09", "address": "P.O. BOX 179", "city": "CHESTER", "province": "NS", "country": "CA", "postalCode": "B0J1J0", "twitter": "None", "instagram": "None", "facebook": "None", "youtube": "None", "website": "None", "summary": "None", "logo": "None", "latitude": 44.549654888646664, "longitude": -64.2288348174421}, "118964147RR0001": {"name": "LIGHTHOUSE GOSPEL CHURCH", "designationCode": "C", "categoryCode": "34", "address": "33 UNION ST", "city": "VIENNA", "province": "ON", "country": "CA", "postalCode": "N0J1Z0", "twitter": "None", "instagram": "None", "facebook": "None", "youtube": "None", "website": "None", "summary": "None", "logo": "None", "latitude": 42.68144838175, "longitude": -80.7945603426249}, "119019479RR0001": {"name": "LIGHTHOUSE HARBOUR MINISTRIES", "designationCode": "C", "categoryCode": "39", "address": "1-260 ESPLANADE AVE. E", "city": "NORTH VANCOUVER", "province": "BC", "country": "CA", "postalCode": "V7L1A3", "twitter": "None", "instagram": "None", "facebook": "None", "youtube": "None", "website": "None", "summary": "None", "logo": "None", "latitude": 49.30880389344438, "longitude": -123.07429866247351}, "815762554RR0001": {"name": "LIGHTHOUSE HARBOUR MINISTRIES-PRINCE RUPERT", "designationCode": "C", "categoryCode": "39", "address": "PO BOX 261 CDO PRINCE RUPERT", "city": "PRINCE RUPERT", "province": "BC", "country": "CA", "postalCode": "V8J3P6", "twitter": "None", "instagram": "None", "facebook": "None", "youtube": "None", "website": "None", "summary": "None", "logo": "None", "latitude": 54.313233000000054, "longitude": -130.32604249999994}, "861365070RR0001": {"name": "LIGHTHOUSE MENNONITE CHURCH", "designationCode": "C", "categoryCode": "39", "address": "374 SCOTCH HILL               RR2", "city": "PICTOU", "province": "NS", "country": "CA", "postalCode": "B0K1H0", "twitter": "None", "instagram": "None", "facebook": "None", "youtube": "None", "website": "None", "summary": "None", "logo": "None", "latitude": 45.68475556011342, "longitude": -62.79239026031973}, "874364292RR0001": {"name": "LIGHTHOUSE MINISTRIES", "designationCode": "C", "categoryCode": "39", "address": "P.O. BOX 7", "city": "SHUBENACADIE", "province": "NS", "country": "CA", "postalCode": "B0N2H0", "twitter": "None", "instagram": "None", "facebook": "None", "youtube": "None", "website": "None", "summary": "None", "logo": "None", "latitude": 45.08345000000003, "longitude": -63.39868999999999}, "871186409RR0001": {"name": "LIGHTHOUSE MINISTRIES INTERNATIONAL", "designationCode": "C", "categoryCode": "45", "address": "21 CHURCH ST. WEST UNIT 1B", "city": "ELMIRA", "province": "ON", "country": "CA", "postalCode": "N3B1M2", "twitter": "None", "instagram": "None", "facebook": "None", "youtube": "None", "website": "None", "summary": "None", "logo": "None", "latitude": 43.60003256838271, "longitude": -80.55884252567945}, "899025910RR0001": {"name": "LIGHTHOUSE MINISTRIES OF ABBOTSFORD", "designationCode": "C", "categoryCode": "39", "address": "1318 - 3044 CLEARBROOK RD", "city": "ABBOTSFORD", "province": "BC", "country": "CA", "postalCode": "V2T4N4", "twitter": "None", "instagram": "None", "facebook": "None", "youtube": "None", "website": "None", "summary": "None", "logo": "None", "latitude": 49.057318089647424, "longitude": -122.33788162986916}, "887837227RR0001": {"name": "LIGHTHOUSE MINISTRIES OF PORT DOVER, INC", "designationCode": "C", "categoryCode": "39", "address": "603 CONCESSION 5 ROAD", "city": "FISHERVILLE", "province": "ON", "country": "CA", "postalCode": "N0A1G0", "twitter": "None", "instagram": "None", "facebook": "None", "youtube": "None", "website": "None", "summary": "None", "logo": "None", "latitude": 42.88328233726671, "longitude": -79.89261565488478}, "891133142RR0001": {"name": "LIGHTHOUSE MINISTRIES, INC.", "designationCode": "C", "categoryCode": "39", "address": "201 - 659 KING ST E", "city": "KITCHENER", "province": "ON", "country": "CA", "postalCode": "N2G2M4", "twitter": "None", "instagram": "None", "facebook": "None", "youtube": "None", "website": "None", "summary": "None", "logo": "None", "latitude": 43.44484406991192, "longitude": -80.47827614282399}, "826031270RR0001": {"name": "LIGHTHOUSE OF CAPE BRETON", "designationCode": "C", "categoryCode": "36", "address": "PO BOX 278 STN MAIN", "city": "GLACE BAY", "province": "NS", "country": "CA", "postalCode": "B1A5V4", "twitter": "None", "instagram": "None", "facebook": "None", "youtube": "None", "website": "None", "summary": "None", "logo": "None", "latitude": 46.19891859291689, "longitude": -59.97679128316325}, "859618852RR0001": {"name": "LIGHTHOUSE OF HOPE", "designationCode": "C", "categoryCode": "39", "address": "88 BOYNES RD.", "city": "KAMINISTIQUIA", "province": "ON", "country": "CA", "postalCode": "P0T1X0", "twitter": "None", "instagram": "None", "facebook": "None", "youtube": "None", "website": "None", "summary": "None", "logo": "None", "latitude": 48.55663594670785, "longitude": -89.44666959126634}, "892266164RR0001": {"name": "LIGHTHOUSE OF HOPE CHRISTIAN FELLOWSHIP", "designationCode": "C", "categoryCode": "39", "address": "726 TWELFTH ST", "city": "NEW WESTMINSTER", "province": "BC", "country": "CA", "postalCode": "V3M4J9", "twitter": "None", "instagram": "None", "facebook": "None", "youtube": "None", "website": "None", "summary": "None", "logo": "None", "latitude": 49.209905925402296, "longitude": -122.93351720857225}, "119030666RR0046": {"name": "LIGHTHOUSE OF HOPE SEVENTH-DAY ADVENTIST CHURCH", "designationCode": "C", "categoryCode": "41", "address": "1004 VICTORIA AVE", "city": "SASKATOON", "province": "SK", "country": "CA", "postalCode": "S7N0Z8", "twitter": "None", "instagram": "None", "facebook": "None", "youtube": "None", "website": "None", "summary": "None", "logo": "None", "latitude": 52.115409, "longitude": -106.66240826773014}, "119277572RR0001": {"name": "LIGHTHOUSE OF HOPE UNITED PENTECOSTAL CHURCH INCORPORATED", "designationCode": "C", "categoryCode": "36", "address": "B310 - 143 FOREST RD", "city": "ST. JOHN'S", "province": "NL", "country": "CA", "postalCode": "A1A3T3", "twitter": "None", "instagram": "None", "facebook": "None", "youtube": "None", "website": "None", "summary": "None", "logo": "None", "latitude": 47.57766489263631, "longitude": -52.69157963061896}, "868048935RR0001": {"name": "LIGHTHOUSE PARK PRESERVATION SOCIETY", "designationCode": "C", "categoryCode": "52", "address": "5371 KEW CLIFF ROAD", "city": "WEST VANCOUVER", "province": "BC", "country": "CA", "postalCode": "V7W1M3", "twitter": "None", "instagram": "None", "facebook": "None", "youtube": "None", "website": "None", "summary": "None", "logo": "None", "latitude": 49.34940249598929, "longitude": -123.26848730298889}, "894067917RR0001": {"name": "LIGHTHOUSE SPIRITUAL CENTRE", "designationCode": "C", "categoryCode": "39", "address": "22251 46 AVENUE", "city": "LANGLEY", "province": "BC", "country": "CA", "postalCode": "V2Z1M4", "twitter": "None", "instagram": "None", "facebook": "None", "youtube": "None", "website": "None", "summary": "None", "logo": "None", "latitude": 49.08571247100234, "longitude": -122.60658027407813}, "869710319RR0001": {"name": "LIGHTHOUSE TABERNACLE CHURCH", "designationCode": "C", "categoryCode": "45", "address": "3692 WATERFALL CRES", "city": "MISSISSAUGA", "province": "ON", "country": "CA", "postalCode": "L5N8G8", "twitter": "None", "instagram": "None", "facebook": "None", "youtube": "None", "website": "None", "summary": "None", "logo": "None", "latitude": 43.58173596309646, "longitude": -79.7906739481215}, "107630964RR0001": {"name": "LIGHTHOUSE TO ALL NATIONS CHURCH INC.", "designationCode": "C", "categoryCode": "39", "address": "686-PASQUA ST", "city": "REGINA", "province": "SK", "country": "CA", "postalCode": "S4T4K4", "twitter": "None", "instagram": "None", "facebook": "None", "youtube": "None", "website": "None", "summary": "None", "logo": "None", "latitude": 50.46804900000001, "longitude": -104.64103417185032}, "866213960RR0001": {"name": "LIGHTHOUSE TO THE COMMUNITIES CHURCH INC.", "designationCode": "C", "categoryCode": "39", "address": "BOX 23", "city": "SEDLEY", "province": "SK", "country": "CA", "postalCode": "S0G4K0", "twitter": "None", "instagram": "None", "facebook": "None", "youtube": "None", "website": "None", "summary": "None", "logo": "None", "latitude": 50.17074809641333, "longitude": -104.01590106652539}, "808777809RR0001": {"name": "LIGHTS CAMERA IMAGINE OF CANADA", "designationCode": "C", "categoryCode": "22", "address": "54 - 5100 SOUTH SERVICE RD", "city": "BURLINGTON", "province": "ON", "country": "CA", "postalCode": "L7L6A5", "twitter": "None", "instagram": "None", "facebook": "None", "youtube": "None", "website": "None", "summary": "None", "logo": "None", "latitude": 43.381671799996354, "longitude": -79.76964224203674}, "860168012RR0001": {"name": "LIGHTS, CAMERA, ACCESS!", "designationCode": "C", "categoryCode": "59", "address": "447-155 DALHOUSIE STREET", "city": "TORONTO", "province": "ON", "country": "CA", "postalCode": "M5B2P7", "twitter": "None", "instagram": "None", "facebook": "None", "youtube": "None", "website": "None", "summary": "None", "logo": "None", "latitude": 43.65748957146979, "longitude": -79.37685990201405}, "875817520RR0001": {"name": "LIGHTWORKS FOUNDATION", "designationCode": "B", "categoryCode": "03", "address": "12745 7TH CONCESSION", "city": "KING CITY", "province": "ON", "country": "CA", "postalCode": "L7B1K4", "twitter": "None", "instagram": "None", "facebook": "None", "youtube": "None", "website": "None", "summary": "None", "logo": "None", "latitude": 43.9067056670975, "longitude": -79.60184820719921}, "888058757RR0001": {"name": "LIGNE D'INTERVENTION TELEPHONIQUE EN PREVENTION DU SUICIDE DE L'ABITIBI-TEMISCAMINGUE", "designationCode": "C", "categoryCode": "57", "address": "866 RUE ROYAL", "city": "MALARTIC", "province": "QC", "country": "CA", "postalCode": "J0Y1Z0", "twitter": "None", "instagram": "None", "facebook": "None", "youtube": "None", "website": "None", "summary": "None", "logo": "None", "latitude": 48.13604933971953, "longitude": -78.12650644004275}, "120813183RR0001": {"name": "LIGNE DE VIE DU TEMISCOUATA INC", "designationCode": "C", "categoryCode": "09", "address": "774, RUE VILLENEUVE, C.P.5082", "city": "T\u00c9MISCOUATA-SUR-LE-LAC", "province": "QC", "country": "CA", "postalCode": "G0L1E0", "twitter": "None", "instagram": "None", "facebook": "None", "youtube": "None", "website": "None", "summary": "None", "logo": "None", "latitude": 47.68153403274858, "longitude": -68.87713547833125}, "123613523RR0037": {"name": "LIGUE DE CADETS DE L'AIR DU CANADA - Escadron 226 Trois-Rivi\u00e8res", "designationCode": "C", "categoryCode": "29", "address": "C.P. 1352", "city": "TROIS-RIVIERES OUEST", "province": "QC", "country": "CA", "postalCode": "G9A5K8", "twitter": "None", "instagram": "None", "facebook": "None", "youtube": "None", "website": "None", "summary": "None", "logo": "None", "latitude": 46.34016900000006, "longitude": -72.54503449999993}, "123613523RR0043": {"name": "LIGUE DE CADETS DE L'AIR DU CANADA - Escadron 500 Outaouais", "designationCode": "C", "categoryCode": "29", "address": "188 BOUL. ALEXANDRE TACHE", "city": "GATINEAU", "province": "QC", "country": "CA", "postalCode": "J8Y3L5", "twitter": "None", "instagram": "None", "facebook": "None", "youtube": "None", "website": "None", "summary": "None", "logo": "None", "latitude": 45.42352038949099, "longitude": -75.73248621123534}, "123613523RR0042": {"name": "LIGUE DE CADETS DE L'AIR DU CANADA - Escadron 564 Bl\u00e9riot", "designationCode": "C", "categoryCode": "29", "address": "75 SIR GEORGES ETIENNE CARTIER", "city": "MONTREAL", "province": "QC", "country": "CA", "postalCode": "H4C3A1", "twitter": "None", "instagram": "None", "facebook": "None", "youtube": "None", "website": "None", "summary": "None", "logo": "None"}, "123613523RR0036": {"name": "LIGUE DE CADETS DE L'AIR DU CANADA - Escadron 636 Rouyn-Noranda", "designationCode": "C", "categoryCode": "29", "address": "C.P. 66 SUCC. BUREAU CHEF", "city": "ROUYN-NORANDA", "province": "QC", "country": "CA", "postalCode": "J9X5C1", "twitter": "None", "instagram": "None", "facebook": "None", "youtube": "None", "website": "None", "summary": "None", "logo": "None", "latitude": 48.223561262430344, "longitude": -79.00073971551006}, "123613523RR0040": {"name": "LIGUE DE CADETS DE L'AIR DU CANADA - Escadron 643 St-Hubert", "designationCode": "C", "categoryCode": "29", "address": "5555 PLACE DE LA SAVANE       CASIER 204", "city": "SAINT-HUBERT", "province": "QC", "country": "CA", "postalCode": "J3Y8Y9", "twitter": "None", "instagram": "None", "facebook": "None", "youtube": "None", "website": "None", "summary": "None", "logo": "None", "latitude": 45.523882384033165, "longitude": -73.41966653537484}, "123613523RR0049": {"name": "LIGUE DE CADETS DE L'AIR DU CANADA - Escadron 657 Saguenay", "designationCode": "C", "categoryCode": "29", "address": "C.P. 1418", "city": "LA BAIE", "province": "QC", "country": "CA", "postalCode": "G7B3R5", "twitter": "None", "instagram": "None", "facebook": "None", "youtube": "None", "website": "None", "summary": "None", "logo": "None", "latitude": 48.28750800000006, "longitude": -70.92716299999994}, "123613523RR0050": {"name": "LIGUE DE CADETS DE L'AIR DU CANADA - Escadron 739 Mont-Laurier", "designationCode": "C", "categoryCode": "29", "address": "CP 56 SUCC BUREAU-CHEF", "city": "MONT-LAURIER", "province": "QC", "country": "CA", "postalCode": "J9L3G9", "twitter": "None", "instagram": "None", "facebook": "None", "youtube": "None", "website": "None", "summary": "None", "logo": "None", "latitude": 46.55214600000005, "longitude": -75.49647199999994}, "123613523RR0038": {"name": "LIGUE DE CADETS DE L'AIR DU CANADA - Escadron 766 Optimiste Roberval", "designationCode": "C", "categoryCode": "29", "address": "CP 8, BOUL ST-JOSEPH", "city": "ROBERVAL", "province": "QC", "country": "CA", "postalCode": "G8H2L0", "twitter": "None", "instagram": "None", "facebook": "None", "youtube": "None", "website": "None", "summary": "None", "logo": "None", "latitude": 48.52169989970703, "longitude": -72.22080919518228}, "123613523RR0045": {"name": "LIGUE DE CADETS DE L'AIR DU CANADA - Escadron 775 Kiwanis Thetford Mines", "designationCode": "C", "categoryCode": "29", "address": "CP 637", "city": "THETFORD MINES", "province": "QC", "country": "CA", "postalCode": "G6G5T6", "twitter": "None", "instagram": "None", "facebook": "None", "youtube": "None", "website": "None", "summary": "None", "logo": "None", "latitude": 46.09057200000005, "longitude": -71.29926349999994}, "123613523RR0047": {"name": "LIGUE DE CADETS DE L'AIR DU CANADA - Escadron 806 Ste-Th\u00e9rese", "designationCode": "C", "categoryCode": "29", "address": "CP 98021 CSP PLACE ELITE", "city": "SAINTE-THERESE", "province": "QC", "country": "CA", "postalCode": "J7E5R4", "twitter": "None", "instagram": "None", "facebook": "None", "youtube": "None", "website": "None", "summary": "None", "logo": "None", "latitude": 45.640671000000054, "longitude": -73.84444099999993}, "123613523RR0061": {"name": "LIGUE DE CADETS DE L'AIR DU CANADA - Escadron 921 Ancienne-Lorette", "designationCode": "C", "categoryCode": "29", "address": "C.P. 64062                    SUCC ST-JACQUES", "city": "ANCIENNE-LORETTE", "province": "QC", "country": "CA", "postalCode": "G2E6B1", "twitter": "None", "instagram": "None", "facebook": "None", "youtube": "None", "website": "None", "summary": "None", "logo": "None", "latitude": 46.79897100000005, "longitude": -71.36153449999993}, "123613523RR0041": {"name": "LIGUE DE CADETS DE L'AIR DU CANADA - Escadron 96 Alouettes, Montr\u00e9al", "designationCode": "C", "categoryCode": "29", "address": "1221 RUE FLEURY EST           C.P. 35028", "city": "MONTREAL", "province": "QC", "country": "CA", "postalCode": "H2C3K4", "twitter": "None", "instagram": "None", "facebook": "None", "youtube": "None", "website": "None", "summary": "None", "logo": "None", "latitude": 45.55956159867844, "longitude": -73.65836115047003}, "123613523RR0020": {"name": "LIGUE DE CADETS DE L'AIR DU CANADA - ESCADRON 811-LAPRAIRIE", "designationCode": "C", "categoryCode": "29", "address": "500 RUE ST-LAURENT", "city": "LA PRAIRIE", "province": "QC", "country": "CA", "postalCode": "J5R5X2", "twitter": "None", "instagram": "None", "facebook": "None", "youtube": "None", "website": "None", "summary": "None", "logo": "None", "latitude": 45.41502901689056, "longitude": -73.49792827891658}, "123613523RR0022": {"name": "LIGUE DE CADETS DE L'AIR DU CANADA ESCADRON 839 LIONS CHIBOUGAMAU", "designationCode": "C", "categoryCode": "29", "address": "CASIER POSTAL 415", "city": "CHIBOUGAMAU", "province": "QC", "country": "CA", "postalCode": "G8P2X8", "twitter": "None", "instagram": "None", "facebook": "None", "youtube": "None", "website": "None", "summary": "None", "logo": "None", "latitude": 49.91362800000006, "longitude": -74.36880349999993}, "123613523RR0065": {"name": "LIGUE DES CADETS DE L'AIR DU CANADA - Amicale Escadron 867 Vaudreuil-Dorion", "designationCode": "C", "categoryCode": "29", "address": "3093 BOUL. DE LA GARE         LOCAL B-230", "city": "VAUDREUIL-DORION", "province": "QC", "country": "CA", "postalCode": "J7V9R2", "twitter": "None", "instagram": "None", "facebook": "None", "youtube": "None", "website": "None", "summary": "None", "logo": "None", "latitude": 45.399405574499546, "longitude": -74.05286685936905}, "123613523RR0055": {"name": "LIGUE DES CADETS DE L'AIR DU CANADA - Escadron 518 Rosemont", "designationCode": "C", "categoryCode": "29", "address": "C.P. 686                      SUCC JEAN-TALON", "city": "MONTR\u00c9AL", "province": "QC", "country": "CA", "postalCode": "H1S2Z5", "twitter": "None", "instagram": "None", "facebook": "None", "youtube": "None", "website": "None", "summary": "None", "logo": "None", "latitude": 45.58218820629318, "longitude": -73.58052829407441}, "123613523RR0066": {"name": "LIGUE DES CADETS DE L'AIR DU CANADA - Escadron 550 Kiwanis Donnacona", "designationCode": "C", "categoryCode": "29", "address": "CP #4011", "city": "DONNACONA", "province": "QC", "country": "CA", "postalCode": "G3M2X2", "twitter": "None", "instagram": "None", "facebook": "None", "youtube": "None", "website": "None", "summary": "None", "logo": "None", "latitude": 46.67671500000006, "longitude": -71.73534049999994}, "123613523RR0067": {"name": "LIGUE DES CADETS DE L'AIR DU CANADA - Escadron 613 St-Jean-Iberville", "designationCode": "C", "categoryCode": "29", "address": "CP 30021                      SUCC. ST-EDMOND", "city": "ST-JEAN-SUR-RICHELIEU", "province": "QC", "country": "CA", "postalCode": "J3B8V2", "twitter": "None", "instagram": "None", "facebook": "None", "youtube": "None", "website": "None", "summary": "None", "logo": "None", "latitude": 45.30610500000006, "longitude": -73.25031049999993}, "123613523RR0052": {"name": "LIGUE DES CADETS DE L'AIR DU CANADA - Escadron 660 DES Mille-\u00celes", "designationCode": "C", "categoryCode": "29", "address": "207 - 6500 BOUL ARTHUR-SAUVE", "city": "LAVAL", "province": "QC", "country": "CA", "postalCode": "H7R3X7", "twitter": "None", "instagram": "None", "facebook": "None", "youtube": "None", "website": "None", "summary": "None", "logo": "None", "latitude": 45.547311657770315, "longitude": -73.86429384987574}, "123613523RR0060": {"name": "LIGUE DES CADETS DE L'AIR DU CANADA - Escadron 687 Laval-des-Rapides", "designationCode": "C", "categoryCode": "29", "address": "CP 304 SUCC. ST-MARTIN", "city": "LAVAL", "province": "QC", "country": "CA", "postalCode": "H7V3P6", "twitter": "None", "instagram": "None", "facebook": "None", "youtube": "None", "website": "None", "summary": "None", "logo": "None", "latitude": 45.546459000000056, "longitude": -73.73737699999994}, "123613523RR0063": {"name": "LIGUE DES CADETS DE L'AIR DU CANADA - Escadron 697 Rotary-Rimouski", "designationCode": "C", "categoryCode": "29", "address": "C.P. 327", "city": "RIMOUSKI", "province": "QC", "country": "CA", "postalCode": "G5L7C3", "twitter": "None", "instagram": "None", "facebook": "None", "youtube": "None", "website": "None", "summary": "None", "logo": "None", "latitude": 48.44933700000006, "longitude": -68.52474349999993}, "123613523RR0057": {"name": "LIGUE DES CADETS DE L'AIR DU CANADA - Escadron 710 Ste-Rose", "designationCode": "C", "categoryCode": "29", "address": "C.P. 18017 STE ROSE", "city": "LAVAL", "province": "QC", "country": "CA", "postalCode": "H7L1L5", "twitter": "None", "instagram": "None", "facebook": "None", "youtube": "None", "website": "None", "summary": "None", "logo": "None", "latitude": 45.615112949970886, "longitude": -73.78492999128856}, "123613523RR0062": {"name": "LIGUE DES CADETS DE L'AIR DU CANADA - Escadron 711 Pierre-Boucher, Boucherville", "designationCode": "C", "categoryCode": "29", "address": "1075, LIONEL DAUNAIS          LOCAL 106", "city": "BOUCHERVILLE", "province": "QC", "country": "CA", "postalCode": "J4B8N5", "twitter": "None", "instagram": "None", "facebook": "None", "youtube": "None", "website": "None", "summary": "None", "logo": "None", "latitude": 45.58934291176623, "longitude": -73.42815704801203}, "123613523RR0046": {"name": "LIGUE DES CADETS DE L'AIR DU CANADA - Escadron 757 OptimisteMascouche", "designationCode": "C", "categoryCode": "29", "address": "C.P. 76037", "city": "MASCOUCHE", "province": "QC", "country": "CA", "postalCode": "J7K3N9", "twitter": "None", "instagram": "None", "facebook": "None", "youtube": "None", "website": "None", "summary": "None", "logo": "None", "latitude": 45.746961000000056, "longitude": -73.60146349999994}, "123613523RR0064": {"name": "LIGUE DES CADETS DE L'AIR DU CANADA - Escadron 776 Lions-L\u00e9vis", "designationCode": "C", "categoryCode": "29", "address": "10 RUE DE ARSENAL", "city": "LEVIS", "province": "QC", "country": "CA", "postalCode": "G6V4P7", "twitter": "None", "instagram": "None", "facebook": "None", "youtube": "None", "website": "None", "summary": "None", "logo": "None", "latitude": 46.80399122505651, "longitude": -71.1833525350572}, "123613523RR0054": {"name": "LIGUE DES CADETS DE L'AIR DU CANADA - Escadron 783 Roussillon", "designationCode": "C", "categoryCode": "29", "address": "C.P. 73031", "city": "CANDIAC", "province": "QC", "country": "CA", "postalCode": "J5R3L4", "twitter": "None", "instagram": "None", "facebook": "None", "youtube": "None", "website": "None", "summary": "None", "logo": "None", "latitude": 45.37186672653874, "longitude": -73.49982443408335}, "123613523RR0059": {"name": "LIGUE DES CADETS DE L'AIR DU CANADA - Escadron 796 Lasalle L\u00e9gion", "designationCode": "C", "categoryCode": "29", "address": "ESCADRON 796 LASALLE LEGION   CP3006 SUCC LAPIERRE", "city": "LASALLE", "province": "QC", "country": "CA", "postalCode": "H8N3H2", "twitter": "None", "instagram": "None", "facebook": "None", "youtube": "None", "website": "None", "summary": "None", "logo": "None", "latitude": 45.42867600000005, "longitude": -73.66281199999993}, "123613523RR0058": {"name": "LIGUE DES CADETS DE L'AIR DU CANADA - Escadron 830 Pierrefonds", "designationCode": "C", "categoryCode": "29", "address": "6815 AUT. TRANS-CANADIENNE    CASE POTALE 30005", "city": "POINTE-CLAIRE", "province": "QC", "country": "CA", "postalCode": "H9R5P6", "twitter": "None", "instagram": "None", "facebook": "None", "youtube": "None", "website": "None", "summary": "None", "logo": "None", "latitude": 45.44809800000006, "longitude": -73.81735099999993}, "123613523RR0048": {"name": "LIGUE DES CADETS DE L'AIR DU CANADA - Escadron 894 Charlebourg", "designationCode": "C", "categoryCode": "29", "address": "800 PLACE SORBONNE            CP 34069", "city": "QU\u00c9BEC", "province": "QC", "country": "CA", "postalCode": "G1G6P2", "twitter": "None", "instagram": "None", "facebook": "None", "youtube": "None", "website": "None", "summary": "None", "logo": "None", "latitude": 46.86401899220973, "longitude": -71.2549537210162}, "123613523RR0044": {"name": "LIGUE DES CADETS DE L'AIR DU CANADA - Escadron 898 OptimisteChamplain Brossard", "designationCode": "C", "categoryCode": "29", "address": "CP 92101 CSP PORTOBELLO", "city": "BRASSARD", "province": "QC", "country": "CA", "postalCode": "J4W3K8", "twitter": "None", "instagram": "None", "facebook": "None", "youtube": "None", "website": "None", "summary": "None", "logo": "None", "latitude": 45.45593700000006, "longitude": -73.46766049999994}, "123613523RR0068": {"name": "LIGUE DES CADETS DE L'AIR DU CANADA - Escadron 911 Magog-Orford", "designationCode": "C", "categoryCode": "29", "address": "C.P. 674", "city": "MAGOG", "province": "QC", "country": "CA", "postalCode": "J1X5A8", "twitter": "None", "instagram": "None", "facebook": "None", "youtube": "None", "website": "None", "summary": "None", "logo": "None", "latitude": 45.26478600000006, "longitude": -72.14726149999993}, "123613523RR0010": {"name": "LIGUE DES CADETS DE L'AIR DU CANADA, ESCADRON 629 KIWANIS-SILLERY", "designationCode": "C", "categoryCode": "29", "address": "835, BOULEVARD PIERRE-BERTRAND", "city": "QU\u00c9BEC", "province": "QC", "country": "CA", "postalCode": "G1M2E7", "twitter": "None", "instagram": "None", "facebook": "None", "youtube": "None", "website": "None", "summary": "None", "logo": "None", "latitude": 46.82467196338494, "longitude": -71.27308687515117}, "891188344RR0001": {"name": "LIGUE DES CADETS DE L'AIR DU CANADA, ESCADRON 804 ALMA", "designationCode": "C", "categoryCode": "29", "address": "C.P. 2187", "city": "ALMA", "province": "QC", "country": "CA", "postalCode": "G8B5W1", "twitter": "None", "instagram": "None", "facebook": "None", "youtube": "None", "website": "None", "summary": "None", "logo": "None", "latitude": 48.54971400000005, "longitude": -71.65268449999994}, "123613523RR0013": {"name": "LIGUE DES CADETS DE L'AIR DU CANADA, ESCADRON 92 ST-HONORE", "designationCode": "C", "categoryCode": "29", "address": "CASIER POSTAL 513", "city": "SAINT-HONOR\u00c9", "province": "QC", "country": "CA", "postalCode": "G0V1L0", "twitter": "None", "instagram": "None", "facebook": "None", "youtube": "None", "website": "None", "summary": "None", "logo": "None", "latitude": 48.50078100000006, "longitude": -71.02987999999993}, "123613523RR0018": {"name": "LIGUE DES CADETS DE L'AIR DU CANADA,ESCADRON 884 MALARTIC", "designationCode": "C", "categoryCode": "29", "address": "C.P. 3118", "city": "MALARTIC", "province": "QC", "country": "CA", "postalCode": "J0Y1Z0", "twitter": "None", "instagram": "None", "facebook": "None", "youtube": "None", "website": "None", "summary": "None", "logo": "None", "latitude": 48.14962800000005, "longitude": -78.11180449999993}, "129894978RR0001": {"name": "LIGUE LA LECHE", "designationCode": "C", "categoryCode": "19", "address": "C.P. 16", "city": "SAINT-CONSTANT", "province": "QC", "country": "CA", "postalCode": "J5A2G1", "twitter": "None", "instagram": "None", "facebook": "None", "youtube": "None", "website": "None", "summary": "None", "logo": "None", "latitude": 45.37153500000005, "longitude": -73.57064299999993}, "119246635RR0044": {"name": "LIGUE NAVALE DU CANADA DIVISION DU QUEBEC", "designationCode": "C", "categoryCode": "29", "address": "CP 88309 SUCC VAL-BELAIR", "city": "QUEBEC", "province": "QC", "country": "CA", "postalCode": "G3J1Y9", "twitter": "None", "instagram": "None", "facebook": "None", "youtube": "None", "website": "None", "summary": "None", "logo": "None", "latitude": 46.85641000000004, "longitude": -71.41798999999997}, "887777555RR0002": {"name": "LIGUE NAVALE DU CANADA, SUCCURSALE DE L'OUTAOUAIS", "designationCode": "C", "categoryCode": "29", "address": "320 BOUL ST-JOSEPH            CP 79203", "city": "GATINEAU", "province": "QC", "country": "CA", "postalCode": "J8Y6V2", "twitter": "None", "instagram": "None", "facebook": "None", "youtube": "None", "website": "None", "summary": "None", "logo": "None", "latitude": 45.441397951670865, "longitude": -75.73274337973972}}