{"829473495RR0001": {"name": "The Dream Fund", "designationCode": "C", "categoryCode": "09", "address": "119 BAYVIEW STREET            P.O. BOX 1340", "city": "MARYSTOWN", "province": "NL", "country": "CA", "postalCode": "A0E2M0", "twitter": "None", "instagram": "None", "facebook": "None", "youtube": "None", "website": "None", "summary": "None", "logo": "None", "latitude": 47.07855911595724, "longitude": -55.81243599843744}, "858655608RR0001": {"name": "The Dream Never Dies Foundation - In Memory of Lloyd Christopher Skeen", "designationCode": "C", "categoryCode": "21", "address": "191 VODDEN ST W", "city": "BRAMPTON", "province": "ON", "country": "CA", "postalCode": "L6X2W8", "twitter": "None", "instagram": "None", "facebook": "None", "youtube": "None", "website": "None", "summary": "None", "logo": "None", "latitude": 43.689339608921564, "longitude": -79.779333535807}, "818912719RR0001": {"name": "The Dryden Mission", "designationCode": "C", "categoryCode": "09", "address": "R.R.4, SITE 138               BOX 6", "city": "DRYDEN", "province": "ON", "country": "CA", "postalCode": "P8N0A2", "twitter": "None", "instagram": "None", "facebook": "None", "youtube": "None", "website": "None", "summary": "None", "logo": "None", "latitude": 49.782039000000054, "longitude": -92.83759099999993}, "799976154RR0001": {"name": "The Duart Community Hall", "designationCode": "C", "categoryCode": "56", "address": "15531 GESNER LINE", "city": "MUIRKIRK", "province": "ON", "country": "CA", "postalCode": "N0L1X0", "twitter": "None", "instagram": "None", "facebook": "None", "youtube": "None", "website": "None", "summary": "None", "logo": "None", "latitude": 42.51444171723662, "longitude": -81.74974933201523}, "851071050RR0001": {"name": "The Duet Club of Hamilton, Canada", "designationCode": "C", "categoryCode": "22", "address": "PO BOX 65523 RPO DUNDAS", "city": "DUNDAS", "province": "ON", "country": "CA", "postalCode": "L9H6Y6", "twitter": "None", "instagram": "None", "facebook": "None", "youtube": "None", "website": "None", "summary": "None", "logo": "None", "latitude": 43.26413308748336, "longitude": -79.94799254071238}, "134812023RR0001": {"name": "The Dufferin Players Theatre Inc.", "designationCode": "C", "categoryCode": "22", "address": "75 CHATHAM STREET", "city": "BRANTFORD", "province": "ON", "country": "CA", "postalCode": "N3T5N9", "twitter": "None", "instagram": "None", "facebook": "None", "youtube": "None", "website": "None", "summary": "None", "logo": "None", "latitude": 43.14316755785113, "longitude": -80.26209035636795}, "828127407RR0001": {"name": "The Dufresne Foundation Inc.", "designationCode": "B", "categoryCode": "03", "address": "116 NATURE PARK WAY", "city": "WINNIPEG", "province": "MB", "country": "CA", "postalCode": "R3P0X8", "twitter": "None", "instagram": "None", "facebook": "None", "youtube": "None", "website": "None", "summary": "None", "logo": "None", "latitude": 49.83383768082404, "longitude": -97.2120131921341}, "851925586RR0001": {"name": "The Dugout Drop-In Centre Society", "designationCode": "C", "categoryCode": "09", "address": "59 POWELL ST", "city": "VANCOUVER", "province": "BC", "country": "CA", "postalCode": "V6A1E9", "twitter": "None", "instagram": "None", "facebook": "None", "youtube": "None", "website": "None", "summary": "None", "logo": "None", "latitude": 49.28333116558428, "longitude": -123.10288488639729}, "115893489RR0001": {"name": "The Duke of Edinburgh's Award in Canada, Alberta and Northwest Territories Division", "designationCode": "C", "categoryCode": "56", "address": "SUITE 111 4515 BOW TRAIL S.W.", "city": "CALGARY", "province": "AB", "country": "CA", "postalCode": "T3C2G3", "twitter": "None", "instagram": "None", "facebook": "None", "youtube": "None", "website": "None", "summary": "None", "logo": "None", "latitude": 51.0483710241216, "longitude": -114.15156047351249}, "126081884RR0001": {"name": "The Duke of Edinburgh's Award Young Canadians Challenge (Ontario)", "designationCode": "C", "categoryCode": "21", "address": "402-156 FRONT ST WEST", "city": "TORONTO", "province": "ON", "country": "CA", "postalCode": "M5J2L6", "twitter": "None", "instagram": "None", "facebook": "None", "youtube": "None", "website": "None", "summary": "None", "logo": "None", "latitude": 43.64492612519462, "longitude": -79.38426587454559}, "877478966RR0001": {"name": "The Duke of Edinburgh's International Award - Canada - Saskatchewan Inc.", "designationCode": "C", "categoryCode": "29", "address": "1870 LORNE STREET IAN", "city": "REGINA", "province": "SK", "country": "CA", "postalCode": "S4P2L7", "twitter": "None", "instagram": "None", "facebook": "None", "youtube": "None", "website": "None", "summary": "None", "logo": "None", "latitude": 50.4490327543713, "longitude": -104.61373314963332}, "123916751RR0002": {"name": "The Duke of Edinburgh's International Award - Canada/Le Prix Internationale du Duc d'Edimbourg - Canada", "designationCode": "C", "categoryCode": "56", "address": "156 FRONT STREET WEST         SUITE 402", "city": "TORONTO", "province": "ON", "country": "CA", "postalCode": "M5J2L6", "twitter": "None", "instagram": "None", "facebook": "None", "youtube": "None", "website": "None", "summary": "None", "logo": "None", "latitude": 43.64492612519462, "longitude": -79.38426587454559}, "811708304RR0001": {"name": "The Duke of Edinburgh's International Award Foundation (Canada)", "designationCode": "C", "categoryCode": "29", "address": "PO BOX 447 STN COMMERCE COURT", "city": "TORONTO", "province": "ON", "country": "CA", "postalCode": "M5L1G4", "twitter": "None", "instagram": "None", "facebook": "None", "youtube": "None", "website": "None", "summary": "None", "logo": "None", "latitude": 43.64868300000006, "longitude": -79.38544399999994}, "868725961RR0001": {"name": "The Duke of Edinburgh's International Award-Canada-Nova Scotia", "designationCode": "C", "categoryCode": "29", "address": "5516 SPRING GARDEN RD         4TH FLOOR", "city": "HALIFAX", "province": "NS", "country": "CA", "postalCode": "B3J1G6", "twitter": "None", "instagram": "None", "facebook": "None", "youtube": "None", "website": "None", "summary": "None", "logo": "None", "latitude": 44.64288100637664, "longitude": -63.57740502178431}, "844523282RR0001": {"name": "The Durham Region Highland Dancing Association", "designationCode": "C", "categoryCode": "22", "address": "1224 BARNWOOD SQ", "city": "PICKERING", "province": "ON", "country": "CA", "postalCode": "L1X1C7", "twitter": "None", "instagram": "None", "facebook": "None", "youtube": "None", "website": "None", "summary": "None", "logo": "None", "latitude": 43.84589498528483, "longitude": -79.0978529212013}, "119160836RR0001": {"name": "The Dwelling Place, Springvale Be in Christ Church of Canada", "designationCode": "C", "categoryCode": "39", "address": "2602 HALDIMAND RD 55", "city": "HAGERSVILLE", "province": "ON", "country": "CA", "postalCode": "N0A1H0", "twitter": "None", "instagram": "None", "facebook": "None", "youtube": "None", "website": "None", "summary": "None", "logo": "None", "latitude": 42.95877000000007, "longitude": -80.05244999999996}, "835459959RR0001": {"name": "The Dwelling 24-7 Worship", "designationCode": "C", "categoryCode": "39", "address": "1326 WHIFFLETREE COURT", "city": "MISSISAUGA", "province": "ON", "country": "CA", "postalCode": "L5N7R1", "twitter": "None", "instagram": "None", "facebook": "None", "youtube": "None", "website": "None", "summary": "None", "logo": "None", "latitude": 43.62488749899038, "longitude": -79.73791424715793}, "797963725RR0001": {"name": "The DGDM Family Foundation La Fondation Familiale DGDM", "designationCode": "B", "categoryCode": "03", "address": "1652 RUE SHERBROOKE O", "city": "MONTREAL", "province": "QC", "country": "CA", "postalCode": "H3H1C9", "twitter": "None", "instagram": "None", "facebook": "None", "youtube": "None", "website": "None", "summary": "None", "logo": "None", "latitude": 45.49593038522139, "longitude": -73.5822656952221}, "812551190RR0001": {"name": "The DP Martin Family Foundation", "designationCode": "B", "categoryCode": "05", "address": "902 - 837 2 AVE SW", "city": "CALGARY", "province": "AB", "country": "CA", "postalCode": "T2P0E6", "twitter": "None", "instagram": "None", "facebook": "None", "youtube": "None", "website": "None", "summary": "None", "logo": "None", "latitude": 51.051678539529256, "longitude": -114.07939480601866}, "818499584RR0001": {"name": "The E & M Charitable Foundation", "designationCode": "B", "categoryCode": "03", "address": "201 BRIDGELAND AVE", "city": "NORTH YORK", "province": "ON", "country": "CA", "postalCode": "M6A1Y7", "twitter": "None", "instagram": "None", "facebook": "None", "youtube": "None", "website": "None", "summary": "None", "logo": "None", "latitude": 43.724679896445465, "longitude": -79.46720435899367}, "845550466RR0001": {"name": "The E & S Charitable Foundation", "designationCode": "B", "categoryCode": "05", "address": "151 BLOOR STREET WEST         12TH FLOOR", "city": "TORONTO", "province": "ON", "country": "CA", "postalCode": "M5S1S4", "twitter": "None", "instagram": "None", "facebook": "None", "youtube": "None", "website": "None", "summary": "None", "logo": "None", "latitude": 43.66886577266448, "longitude": -79.39323632915928}, "845789304RR0001": {"name": "The E Foundation", "designationCode": "B", "categoryCode": "05", "address": "8 SHELBORNE AVE", "city": "TORONTO", "province": "ON", "country": "CA", "postalCode": "M5N1Y7", "twitter": "None", "instagram": "None", "facebook": "None", "youtube": "None", "website": "None", "summary": "None", "logo": "None", "latitude": 43.71764013240799, "longitude": -79.42125628740833}, "801889874RR0001": {"name": "The Earthshine Astronomy and Space Science Organization", "designationCode": "C", "categoryCode": "21", "address": "4348 DALLAS COURT", "city": "MISSISSAUGA", "province": "ON", "country": "CA", "postalCode": "L4W4G7", "twitter": "None", "instagram": "None", "facebook": "None", "youtube": "None", "website": "None", "summary": "None", "logo": "None", "latitude": 43.63247809074395, "longitude": -79.60863660104437}, "806765830RR0001": {"name": "The Ed Coates Memorial Foundation", "designationCode": "B", "categoryCode": "23", "address": "22866 DEWDNEY TRUNK RD", "city": "MAPLE RIDGE", "province": "BC", "country": "CA", "postalCode": "V2X3K6", "twitter": "None", "instagram": "None", "facebook": "None", "youtube": "None", "website": "None", "summary": "None", "logo": "None", "latitude": 49.22037950620374, "longitude": -122.588892}, "840738413RR0001": {"name": "The Edge School Foundation", "designationCode": "A", "categoryCode": "23", "address": "33055 TOWNSHIP ROAD #250", "city": "CALGARY", "province": "AB", "country": "CA", "postalCode": "T3Z1L4", "twitter": "None", "instagram": "None", "facebook": "None", "youtube": "None", "website": "None", "summary": "None", "logo": "None", "latitude": 51.095876312140376, "longitude": -114.35582320650755}, "829332576RR0001": {"name": "The Edgestone Foundation", "designationCode": "A", "categoryCode": "03", "address": "14 WOODBURN AVE", "city": "ST CATHARINES", "province": "ON", "country": "CA", "postalCode": "L2P2W7", "twitter": "None", "instagram": "None", "facebook": "None", "youtube": "None", "website": "None", "summary": "None", "logo": "None", "latitude": 43.16010626729747, "longitude": -79.22267045325738}, "833762099RR0001": {"name": "The Edmond & Sylvia Vanhaverbeke Foundation", "designationCode": "B", "categoryCode": "03", "address": "86 EMILY ST. W.", "city": "NEWCASTLE", "province": "ON", "country": "CA", "postalCode": "L1B1H1", "twitter": "None", "instagram": "None", "facebook": "None", "youtube": "None", "website": "None", "summary": "None", "logo": "None", "latitude": 43.91610311408612, "longitude": -78.59005032307111}, "856052188RR0001": {"name": "The Edmonton Poetry Festival Society", "designationCode": "C", "categoryCode": "22", "address": "11342-64 ST. NW", "city": "EDMONTON", "province": "AB", "country": "CA", "postalCode": "T5W4H5", "twitter": "None", "instagram": "None", "facebook": "None", "youtube": "None", "website": "None", "summary": "None", "logo": "None", "latitude": 53.56772740215827, "longitude": -113.43816164227572}, "130302334RR0001": {"name": "The Edmonton Safe Parent Association", "designationCode": "C", "categoryCode": "59", "address": "9321 JASPER AVENUE NW", "city": "EDMONTON", "province": "AB", "country": "CA", "postalCode": "T5H3T7", "twitter": "None", "instagram": "None", "facebook": "None", "youtube": "None", "website": "None", "summary": "None", "logo": "None", "latitude": 53.546527050205064, "longitude": -113.47735308442554}, "118894179RR0001": {"name": "The Edmonton String Players Association", "designationCode": "C", "categoryCode": "22", "address": "210 - 11803 125 ST NW", "city": "EDMONTON", "province": "AB", "country": "CA", "postalCode": "T5L0S1", "twitter": "None", "instagram": "None", "facebook": "None", "youtube": "None", "website": "None", "summary": "None", "logo": "None", "latitude": 53.57062850291419, "longitude": -113.53765775685278}, "134010388RR0001": {"name": "The Edson and District Community Learning Society", "designationCode": "C", "categoryCode": "21", "address": "#201-111 54 STREET", "city": "EDSON", "province": "AB", "country": "CA", "postalCode": "T7E1T2", "twitter": "None", "instagram": "None", "facebook": "None", "youtube": "None", "website": "None", "summary": "None", "logo": "None", "latitude": 53.57805764862897, "longitude": -116.43912164032389}, "140151358RR0001": {"name": "The Educational Partnership Foundation", "designationCode": "C", "categoryCode": "21", "address": "STE 20, 215 - 12 AVE SE", "city": "CALGARY", "province": "AB", "country": "CA", "postalCode": "T2G1A2", "twitter": "None", "instagram": "None", "facebook": "None", "youtube": "None", "website": "None", "summary": "None", "logo": "None"}, "837256858RR0001": {"name": "The Edward and Suzanne Rogers Foundation", "designationCode": "B", "categoryCode": "03", "address": "333 BLOOR STREET EAST         10TH FLOOR", "city": "TORONTO", "province": "ON", "country": "CA", "postalCode": "M4W1G9", "twitter": "None", "instagram": "None", "facebook": "None", "youtube": "None", "website": "None", "summary": "None", "logo": "None", "latitude": 43.67167574323412, "longitude": -79.38000482096497}, "833768955RR0001": {"name": "The Edward Young Morwick Foundation", "designationCode": "B", "categoryCode": "03", "address": "97 JOHN STREET SOUTH", "city": "HAMILTON", "province": "ON", "country": "CA", "postalCode": "L8N2C2", "twitter": "None", "instagram": "None", "facebook": "None", "youtube": "None", "website": "None", "summary": "None", "logo": "None", "latitude": 43.253270036355254, "longitude": -79.86763937411288}, "854296399RR0001": {"name": "The Edward Young Reid II and Lester John Bartson III Canadian Charitable Foundation", "designationCode": "B", "categoryCode": "03", "address": "4395 HIGHWAY 201 EAST         RR 4", "city": "CARLETON CORNER", "province": "NS", "country": "CA", "postalCode": "B0S1C0", "twitter": "None", "instagram": "None", "facebook": "None", "youtube": "None", "website": "None", "summary": "None", "logo": "None", "latitude": 44.832180267906736, "longitude": -65.27926458877214}, "839643921RR0001": {"name": "The Elizabeth And Tony Comper Foundation", "designationCode": "B", "categoryCode": "03", "address": "ONE ST. THOMAS STREET, PH", "city": "TORONTO", "province": "ON", "country": "CA", "postalCode": "M5S3M5", "twitter": "None", "instagram": "None", "facebook": "None", "youtube": "None", "website": "None", "summary": "None", "logo": "None", "latitude": 43.66864320859641, "longitude": -79.3906622034795}, "856655824RR0001": {"name": "The Elizabeth Fry Society of Saint John, N.B. Inc.", "designationCode": "C", "categoryCode": "59", "address": "68 CARLETON ST", "city": "SAINT JOHN", "province": "NB", "country": "CA", "postalCode": "E2L2Z4", "twitter": "None", "instagram": "None", "facebook": "None", "youtube": "None", "website": "None", "summary": "None", "logo": "None", "latitude": 45.27576666388715, "longitude": -66.06204869969416}, "118897677RR0001": {"name": "The Elks Recreation Children's Camp Society of British Columbia", "designationCode": "C", "categoryCode": "56", "address": "#3 - 19299 - 94TH AVENUE", "city": "SURREY", "province": "BC", "country": "CA", "postalCode": "V4N4E6", "twitter": "None", "instagram": "None", "facebook": "None", "youtube": "None", "website": "None", "summary": "None", "logo": "None", "latitude": 49.173663478215694, "longitude": -122.68790086372553}, "832244495RR0001": {"name": "The Elpis Foundation", "designationCode": "B", "categoryCode": "03", "address": "77 MILDENHALL ROAD", "city": "TORONTO", "province": "ON", "country": "CA", "postalCode": "M4N3H1", "twitter": "None", "instagram": "None", "facebook": "None", "youtube": "None", "website": "None", "summary": "None", "logo": "None", "latitude": 43.72792048043739, "longitude": -79.3862988287266}, "107945701RR0001": {"name": "The Embassy Church", "designationCode": "C", "categoryCode": "36", "address": "410 LEATHEAD RD", "city": "KELOWNA", "province": "BC", "country": "CA", "postalCode": "V1X2J4", "twitter": "None", "instagram": "None", "facebook": "None", "youtube": "None", "website": "None", "summary": "None", "logo": "None", "latitude": 49.89542723848896, "longitude": -119.39372421460197}, "747736924RR0001": {"name": "The Embassy Waterloo", "designationCode": "C", "categoryCode": "39", "address": "B3 - 285 WEBER ST N", "city": "WATERLOO", "province": "ON", "country": "CA", "postalCode": "N2J3H8", "twitter": "None", "instagram": "None", "facebook": "None", "youtube": "None", "website": "None", "summary": "None", "logo": "None", "latitude": 43.48098667745846, "longitude": -80.52245988818487}, "826866048RR0001": {"name": "The Emmet Foundation", "designationCode": "B", "categoryCode": "03", "address": "300-1020 LAWRENCE AVE WEST", "city": "TORONTO", "province": "ON", "country": "CA", "postalCode": "M6A1C8", "twitter": "None", "instagram": "None", "facebook": "None", "youtube": "None", "website": "None", "summary": "None", "logo": "None", "latitude": 43.71232865884191, "longitude": -79.46279809011496}, "839101573RR0001": {"name": "The Encounter International", "designationCode": "C", "categoryCode": "47", "address": "84 CRANBERRY AVENUE SE", "city": "CALGARY", "province": "AB", "country": "CA", "postalCode": "T3M0L6", "twitter": "None", "instagram": "None", "facebook": "None", "youtube": "None", "website": "None", "summary": "None", "logo": "None", "latitude": 50.88239497085809, "longitude": -113.97304709285005}, "839976131RR0001": {"name": "The Endometriosis Network Canada", "designationCode": "C", "categoryCode": "11", "address": "22 BUTTERNUT ST", "city": "TORONTO", "province": "ON", "country": "CA", "postalCode": "M4K1T7", "twitter": "None", "instagram": "None", "facebook": "None", "youtube": "None", "website": "None", "summary": "None", "logo": "None", "latitude": 43.68054522344038, "longitude": -79.35523814960466}, "119231512RR0001": {"name": "The Endowment Fund of the Young Men's Christian Association of Greater Vancouver", "designationCode": "A", "categoryCode": "43", "address": "300 - 5055 JOYCE ST", "city": "VANCOUVER", "province": "BC", "country": "CA", "postalCode": "V5R6B2", "twitter": "None", "instagram": "None", "facebook": "None", "youtube": "None", "website": "None", "summary": "None", "logo": "None", "latitude": 49.23880279545841, "longitude": -123.03138653208475}, "824347850RR0001": {"name": "The Envy Sports and Education Scholarship Memorial Society", "designationCode": "B", "categoryCode": "09", "address": "143 CONCESSION 4 ROAD         R R #2", "city": "FISHERVILLE", "province": "ON", "country": "CA", "postalCode": "N0A1G0", "twitter": "None", "instagram": "None", "facebook": "None", "youtube": "None", "website": "None", "summary": "None", "logo": "None", "latitude": 42.86505753843374, "longitude": -79.9303170071393}, "118900794RR0001": {"name": "The Epilepsy and Seizure Disorder Resource Centre of South Eastern Ontario Inc.", "designationCode": "C", "categoryCode": "11", "address": "205 - 920 PRINCESS ST", "city": "KINGSTON", "province": "ON", "country": "CA", "postalCode": "K7L1H1", "twitter": "None", "instagram": "None", "facebook": "None", "youtube": "None", "website": "None", "summary": "None", "logo": "None", "latitude": 44.24080062196332, "longitude": -76.51096302198586}, "850381310RR0001": {"name": "The Eric Gutknecht Memorial Bursary", "designationCode": "C", "categoryCode": "21", "address": "529 GEORGE STREET EAST RR 1", "city": "KEMPTVILLE", "province": "ON", "country": "CA", "postalCode": "K0G1J0", "twitter": "None", "instagram": "None", "facebook": "None", "youtube": "None", "website": "None", "summary": "None", "logo": "None", "latitude": 45.02314783126541, "longitude": -75.64455534222968}, "805834710RR0001": {"name": "The Eric S. Margolis Family Foundation / La Fondation Familiale Eric S. Margolis", "designationCode": "B", "categoryCode": "03", "address": "2 ST CLAIR AVE W              16TH FLOOR", "city": "TORONTO", "province": "ON", "country": "CA", "postalCode": "M4V1L5", "twitter": "None", "instagram": "None", "facebook": "None", "youtube": "None", "website": "None", "summary": "None", "logo": "None", "latitude": 43.688045209013644, "longitude": -79.39437622621033}, "768103897RR0001": {"name": "The Erika Legacy Foundation", "designationCode": "A", "categoryCode": "05", "address": "212 - 3601 82 AVE", "city": "LEDUC", "province": "AB", "country": "CA", "postalCode": "T9E0H7", "twitter": "None", "instagram": "None", "facebook": "None", "youtube": "None", "website": "None", "summary": "None", "logo": "None", "latitude": 53.30525848788189, "longitude": -113.52363044892955}, "119110450RR0136": {"name": "The Eritrean Catholic Community Of The Ge'ez Rite", "designationCode": "C", "categoryCode": "38", "address": "148 MADISON AVENUE", "city": "KITCHENER", "province": "ON", "country": "CA", "postalCode": "N2G3M5", "twitter": "None", "instagram": "None", "facebook": "None", "youtube": "None", "website": "None", "summary": "None", "logo": "None", "latitude": 43.442616519851086, "longitude": -80.48584714475723}, "119279180RR0001": {"name": "The Ernest C. Wilkes Scholarship Fund", "designationCode": "A", "categoryCode": "25", "address": "125 DILLON CRES.", "city": "HALIFAX", "province": "NS", "country": "CA", "postalCode": "B3M3Y8", "twitter": "None", "instagram": "None", "facebook": "None", "youtube": "None", "website": "None", "summary": "None", "logo": "None", "latitude": 44.6762658620521, "longitude": -63.66741290426441}, "851499087RR0001": {"name": "The Erris Volunteer Fire Association", "designationCode": "C", "categoryCode": "59", "address": "RURAL ROUTE #1                SITE 17, COMP 1", "city": "PRINCETON", "province": "BC", "country": "CA", "postalCode": "V0X1W0", "twitter": "None", "instagram": "None", "facebook": "None", "youtube": "None", "website": "None", "summary": "None", "logo": "None", "latitude": 49.458687000000054, "longitude": -120.50591299999994}, "800700114RR0001": {"name": "The Esperanza Music Project", "designationCode": "C", "categoryCode": "22", "address": "14 - 25 UPPER CANADA DR", "city": "KITCHENER", "province": "ON", "country": "CA", "postalCode": "N2P1G2", "twitter": "None", "instagram": "None", "facebook": "None", "youtube": "None", "website": "None", "summary": "None", "logo": "None", "latitude": 43.397158674418755, "longitude": -80.44598840437997}, "844082321RR0001": {"name": "The Essential Collective Theatre Company", "designationCode": "C", "categoryCode": "22", "address": "366 ST. PAUL ST", "city": "ST CATHARINES", "province": "ON", "country": "CA", "postalCode": "L2R3N2", "twitter": "None", "instagram": "None", "facebook": "None", "youtube": "None", "website": "None", "summary": "None", "logo": "None", "latitude": 43.16044054896432, "longitude": -79.24139890905451}, "813368487RR0001": {"name": "The Estaron Foundation", "designationCode": "B", "categoryCode": "03", "address": "216 RIVERMEDE ROAD            UNIT 7 & 8", "city": "VAUGHAN", "province": "ON", "country": "CA", "postalCode": "L4K3M6", "twitter": "None", "instagram": "None", "facebook": "None", "youtube": "None", "website": "None", "summary": "None", "logo": "None", "latitude": 43.810934045847645, "longitude": -79.48977713630312}, "785432295RR0001": {"name": "The Esty Edell Family Charitable Foundation", "designationCode": "B", "categoryCode": "05", "address": "502 - 1 EGLINTON AVE E", "city": "TORONTO", "province": "ON", "country": "CA", "postalCode": "M4P3A1", "twitter": "None", "instagram": "None", "facebook": "None", "youtube": "None", "website": "None", "summary": "None", "logo": "None", "latitude": 43.7089009100495, "longitude": -79.38780176683875}, "804416410RR0001": {"name": "The Etruscan Foundation/La Fondation Etruscan", "designationCode": "B", "categoryCode": "09", "address": "802 - 1550 BEDFORD HWY", "city": "BEDFORD", "province": "NS", "country": "CA", "postalCode": "B4A1E6", "twitter": "None", "instagram": "None", "facebook": "None", "youtube": "None", "website": "None", "summary": "None", "logo": "None", "latitude": 44.73204458209604, "longitude": -63.65700298276793}, "830619086RR0001": {"name": "The Evangelical Association of Korean Churches in North America", "designationCode": "C", "categoryCode": "49", "address": "399 WORTH BOULEVARD", "city": "THORNHILL", "province": "ON", "country": "CA", "postalCode": "L4J8B5", "twitter": "None", "instagram": "None", "facebook": "None", "youtube": "None", "website": "None", "summary": "None", "logo": "None", "latitude": 43.82137191476733, "longitude": -79.4578836330718}, "896829835RR0001": {"name": "The Evangelical Christian Church in Canada", "designationCode": "C", "categoryCode": "47", "address": "410-125 LINCOLN RD", "city": "WATERLOO", "province": "ON", "country": "CA", "postalCode": "N2J2N9", "twitter": "None", "instagram": "None", "facebook": "None", "youtube": "None", "website": "None", "summary": "None", "logo": "None", "latitude": 43.47173445625849, "longitude": -80.51243958156867}, "832273502RR0001": {"name": "The Evelyn Hart Conservatory", "designationCode": "C", "categoryCode": "22", "address": "3600 - 22 ADELAIDE ST W", "city": "TORONTO", "province": "ON", "country": "CA", "postalCode": "M5H4E3", "twitter": "None", "instagram": "None", "facebook": "None", "youtube": "None", "website": "None", "summary": "None", "logo": "None", "latitude": 43.6500561684748, "longitude": -79.38026958604074}, "840567812RR0001": {"name": "The Everlasting Life Ministries", "designationCode": "C", "categoryCode": "39", "address": "940 CALEDONIA ROAD            SUITE 502", "city": "NORTH YORK", "province": "ON", "country": "CA", "postalCode": "M6B3Y4", "twitter": "None", "instagram": "None", "facebook": "None", "youtube": "None", "website": "None", "summary": "None", "logo": "None", "latitude": 43.706512058283806, "longitude": -79.46536644491884}, "838330025RR0001": {"name": "The Ewings Cancer Foundation of Canada", "designationCode": "A", "categoryCode": "13", "address": "72 ROCKPORT CRESCENT", "city": "RICHMOND HILL", "province": "ON", "country": "CA", "postalCode": "L4C2L8", "twitter": "None", "instagram": "None", "facebook": "None", "youtube": "None", "website": "None", "summary": "None", "logo": "None", "latitude": 43.87957209244604, "longitude": -79.42134934139297}, "888527264RR0001": {"name": "The Ex-Sheriff King Home Trust under the Will of Peter Willoughby King", "designationCode": "B", "categoryCode": "05", "address": "ROYAL TRUST CORP #06125       335 8TH AVE SW - STE 700", "city": "CALGARY", "province": "AB", "country": "CA", "postalCode": "T2P1C9", "twitter": "None", "instagram": "None", "facebook": "None", "youtube": "None", "website": "None", "summary": "None", "logo": "None", "latitude": 51.04565700000006, "longitude": -114.06885649999992}, "777897521RR0001": {"name": "The Excelsis Group", "designationCode": "C", "categoryCode": "22", "address": "144483 SOUTHGATE ROAD 14", "city": "HOLSTEIN", "province": "ON", "country": "CA", "postalCode": "N0G2A0", "twitter": "None", "instagram": "None", "facebook": "None", "youtube": "None", "website": "None", "summary": "None", "logo": "None", "latitude": 44.072434261977776, "longitude": -80.73869183551474}, "850324658RR0001": {"name": "The Experiential Diabetes Education Group", "designationCode": "C", "categoryCode": "11", "address": "172 CURZON ST", "city": "TORONTO", "province": "ON", "country": "CA", "postalCode": "M4M3B5", "twitter": "None", "instagram": "None", "facebook": "None", "youtube": "None", "website": "None", "summary": "None", "logo": "None", "latitude": 43.667791679987324, "longitude": -79.33347525841064}, "835749730RR0001": {"name": "The EFC Rock Christian Fellowship", "designationCode": "C", "categoryCode": "39", "address": "12 METHUEN STREET             POST OFFICE BOX 989", "city": "LADYSMITH", "province": "BC", "country": "CA", "postalCode": "V9G1A7", "twitter": "None", "instagram": "None", "facebook": "None", "youtube": "None", "website": "None", "summary": "None", "logo": "None", "latitude": 48.991143490843996, "longitude": -123.81267134955817}, "837935907RR0001": {"name": "The F.N.C. Care Society", "designationCode": "C", "categoryCode": "11", "address": "101-391 TYEE ROAD", "city": "VICTORIA", "province": "BC", "country": "CA", "postalCode": "V9A0A9", "twitter": "None", "instagram": "None", "facebook": "None", "youtube": "None", "website": "None", "summary": "None", "logo": "None", "latitude": 48.43170797253155, "longitude": -123.3790435610251}, "833848757RR0001": {"name": "The Faas Foundation", "designationCode": "B", "categoryCode": "05", "address": "2000-130 KING STREET WEST", "city": "TORONTO", "province": "ON", "country": "CA", "postalCode": "M5X1K1", "twitter": "None", "instagram": "None", "facebook": "None", "youtube": "None", "website": "None", "summary": "None", "logo": "None", "latitude": 43.64798216515656, "longitude": -79.38336717805407}, "819498957RR0001": {"name": "The Fabiola Foundation", "designationCode": "C", "categoryCode": "21", "address": "1561 DESPARD AVE", "city": "VICTORIA", "province": "BC", "country": "CA", "postalCode": "V8S1T2", "twitter": "None", "instagram": "None", "facebook": "None", "youtube": "None", "website": "None", "summary": "None", "logo": "None", "latitude": 48.419166743234115, "longitude": -123.33382559504311}, "119232296RR0001": {"name": "The Fabrique of the Parish of Saint Malachy, Archidioc\u00e8se deMontr\u00e9al", "designationCode": "C", "categoryCode": "38", "address": "5330 CLANRANALD AVE", "city": "MONTREAL", "province": "QC", "country": "CA", "postalCode": "H3X2S6", "twitter": "None", "instagram": "None", "facebook": "None", "youtube": "None", "website": "None", "summary": "None", "logo": "None", "latitude": 45.48271682566817, "longitude": -73.63507437402598}, "809960644RR0001": {"name": "The Fairmount Foundation", "designationCode": "B", "categoryCode": "03", "address": "600 - 354 DAVIS RD", "city": "OAKVILLE", "province": "ON", "country": "CA", "postalCode": "L6J0C5", "twitter": "None", "instagram": "None", "facebook": "None", "youtube": "None", "website": "None", "summary": "None", "logo": "None", "latitude": 43.460520873708866, "longitude": -79.68082624297432}, "841825623RR0001": {"name": "The Falmouth Community Trust", "designationCode": "C", "categoryCode": "05", "address": "26 WILEWOOD DRIVE             RR 2", "city": "FALMOUTH", "province": "NS", "country": "CA", "postalCode": "B0P1L0", "twitter": "None", "instagram": "None", "facebook": "None", "youtube": "None", "website": "None", "summary": "None", "logo": "None", "latitude": 45.001015971983286, "longitude": -64.18647325921872}, "840152334RR0001": {"name": "The Family Christian Church (TFCC)", "designationCode": "C", "categoryCode": "39", "address": "39A-1550 BAYLY ST", "city": "PICKERING", "province": "ON", "country": "CA", "postalCode": "L1W3W1", "twitter": "None", "instagram": "None", "facebook": "None", "youtube": "None", "website": "None", "summary": "None", "logo": "None", "latitude": 43.83148949455853, "longitude": -79.0748937083569}, "800583544RR0001": {"name": "The Family Planning and Reproductive Health Initiative Inc.", "designationCode": "B", "categoryCode": "09", "address": "32 MANOR PARK CRES", "city": "GUELPH", "province": "ON", "country": "CA", "postalCode": "N1G1A1", "twitter": "None", "instagram": "None", "facebook": "None", "youtube": "None", "website": "None", "summary": "None", "logo": "None", "latitude": 43.53199315849355, "longitude": -80.25285307981592}, "897760617RR0001": {"name": "The Family Worship Centre", "designationCode": "C", "categoryCode": "39", "address": "1527 BAYLY STREET", "city": "PICKERING", "province": "ON", "country": "CA", "postalCode": "L1W3N1", "twitter": "None", "instagram": "None", "facebook": "None", "youtube": "None", "website": "None", "summary": "None", "logo": "None", "latitude": 43.83129188533696, "longitude": -79.07531675685279}, "808393359RR0001": {"name": "The Farmlands Trust (Greater Victoria) Society", "designationCode": "C", "categoryCode": "52", "address": "POST OFFICE BOX 9", "city": "SAANICHTON", "province": "BC", "country": "CA", "postalCode": "V8M2C3", "twitter": "None", "instagram": "None", "facebook": "None", "youtube": "None", "website": "None", "summary": "None", "logo": "None", "latitude": 48.595209000000054, "longitude": -123.41690449999993}, "806143400RR0001": {"name": "The Farquharson Foundation", "designationCode": "C", "categoryCode": "21", "address": "1425 MANITOBA AVE", "city": "WINNIPEG", "province": "MB", "country": "CA", "postalCode": "R2X0L5", "twitter": "None", "instagram": "None", "facebook": "None", "youtube": "None", "website": "None", "summary": "None", "logo": "None", "latitude": 49.929313943129834, "longitude": -97.18181381499237}, "107724478RR0001": {"name": "The Father's House Christian Fellowship - Sturgeon County", "designationCode": "C", "categoryCode": "39", "address": "10515 - 100 AVE               BOX 2271", "city": "MORINVILLE", "province": "AB", "country": "CA", "postalCode": "T8R1A2", "twitter": "None", "instagram": "None", "facebook": "None", "youtube": "None", "website": "None", "summary": "None", "logo": "None", "latitude": 53.8017814773503, "longitude": -113.656023}, "805825916RR0001": {"name": "The Federation of North-American Explorers", "designationCode": "C", "categoryCode": "49", "address": "43 BLUESKY CRESCENT", "city": "RICHMOND HILL", "province": "ON", "country": "CA", "postalCode": "L4C8J2", "twitter": "None", "instagram": "None", "facebook": "None", "youtube": "None", "website": "None", "summary": "None", "logo": "None", "latitude": 43.86232125284207, "longitude": -79.42808740478401}, "840753420RR0001": {"name": "The Felice and Silvana Battista Charitable Foundation", "designationCode": "B", "categoryCode": "03", "address": "15 YORK STREET, 2ND FLOOR", "city": "TORONTO", "province": "ON", "country": "CA", "postalCode": "M5J0A3", "twitter": "None", "instagram": "None", "facebook": "None", "youtube": "None", "website": "None", "summary": "None", "logo": "None", "latitude": 43.6422643580414, "longitude": -79.38119853771158}, "840390041RR0001": {"name": "The Fellowship of Evangelical Baptist Churches in Canada Foundation", "designationCode": "A", "categoryCode": "31", "address": "POST OFFICE BOX 457", "city": "GUELPH", "province": "ON", "country": "CA", "postalCode": "N1H6K9", "twitter": "None", "instagram": "None", "facebook": "None", "youtube": "None", "website": "None", "summary": "None", "logo": "None", "latitude": 43.54455300000005, "longitude": -80.24788249999993}, "825468705RR0001": {"name": "The Fidani Family Foundation", "designationCode": "A", "categoryCode": "03", "address": "6205 AIRPORT ROAD", "city": "MISSISSAUGA", "province": "ON", "country": "CA", "postalCode": "L4V1E3", "twitter": "None", "instagram": "None", "facebook": "None", "youtube": "None", "website": "None", "summary": "None", "logo": "None", "latitude": 43.68906589321321, "longitude": -79.62050577736768}, "843341637RR0001": {"name": "The Fire of Jesus Christ Ministries", "designationCode": "C", "categoryCode": "49", "address": "413 - 50 GERVAIS DR", "city": "NORTH YORK", "province": "ON", "country": "CA", "postalCode": "M3C1Z3", "twitter": "None", "instagram": "None", "facebook": "None", "youtube": "None", "website": "None", "summary": "None", "logo": "None", "latitude": 43.72524896808814, "longitude": -79.33757831660755}, "107384802RR0001": {"name": "The First Baptist Church of Vancouver", "designationCode": "C", "categoryCode": "31", "address": "969 BURRARD ST", "city": "VANCOUVER", "province": "BC", "country": "CA", "postalCode": "V6Z1Y1", "twitter": "None", "instagram": "None", "facebook": "None", "youtube": "None", "website": "None", "summary": "None", "logo": "None", "latitude": 49.281352288966204, "longitude": -123.12570954682859}, "807010749RR0001": {"name": "The First Cedar Hill Hall Society", "designationCode": "C", "categoryCode": "56", "address": "4294 PARKSIDE CRES.", "city": "VICTORIA", "province": "BC", "country": "CA", "postalCode": "V8N2C3", "twitter": "None", "instagram": "None", "facebook": "None", "youtube": "None", "website": "None", "summary": "None", "logo": "None", "latitude": 48.48427785290549, "longitude": -123.3434349511799}, "119233054RR0001": {"name": "The First Christian Reformed Church of New Westminster, B.C.", "designationCode": "C", "categoryCode": "39", "address": "8255-13TH AVE", "city": "BURNABY", "province": "BC", "country": "CA", "postalCode": "V3N2G6", "twitter": "None", "instagram": "None", "facebook": "None", "youtube": "None", "website": "None", "summary": "None", "logo": "None", "latitude": 49.22655971469779, "longitude": -122.92069758078927}, "874861461RR0001": {"name": "The First International Italian Spiritual Temple of Canada / Le Premier Temple Italien International Spirituel du Canada", "designationCode": "C", "categoryCode": "49", "address": "1404 THIERRY", "city": "VILLE LASALLE", "province": "QC", "country": "CA", "postalCode": "H8N1H3", "twitter": "None", "instagram": "None", "facebook": "None", "youtube": "None", "website": "None", "summary": "None", "logo": "None", "latitude": 45.43533467441875, "longitude": -73.62013589523337}, "107387854RR0001": {"name": "The First St. Martins United Baptist Church of St. Martins, NB", "designationCode": "C", "categoryCode": "39", "address": "286 MAIN ST", "city": "ST MARTINS", "province": "NB", "country": "CA", "postalCode": "E5R1C2", "twitter": "None", "instagram": "None", "facebook": "None", "youtube": "None", "website": "None", "summary": "None", "logo": "None", "latitude": 45.35465801413828, "longitude": -65.53801513639003}, "832090211RR0001": {"name": "The Flanagan Foundation", "designationCode": "B", "categoryCode": "03", "address": "102-2411 4TH STREET NW", "city": "CALGARY", "province": "AB", "country": "CA", "postalCode": "T2M2Z8", "twitter": "None", "instagram": "None", "facebook": "None", "youtube": "None", "website": "None", "summary": "None", "logo": "None", "latitude": 51.07390200000002, "longitude": -114.0714945}, "814711495RR0001": {"name": "The Force for Cultural Events Production, Inc.", "designationCode": "C", "categoryCode": "22", "address": "401 RICHMOND STREET WEST      SUITE 392", "city": "TORONTO", "province": "ON", "country": "CA", "postalCode": "M5V3A8", "twitter": "None", "instagram": "None", "facebook": "None", "youtube": "None", "website": "None", "summary": "None", "logo": "None", "latitude": 43.64803297305114, "longitude": -79.39483379779568}, "871122701RR0001": {"name": "The Forerunner Project Inc.", "designationCode": "C", "categoryCode": "29", "address": "907-85 GREEN VALLEY DRIVE", "city": "KITCHENER", "province": "ON", "country": "CA", "postalCode": "N2P1V5", "twitter": "None", "instagram": "None", "facebook": "None", "youtube": "None", "website": "None", "summary": "None", "logo": "None", "latitude": 43.3963801757168, "longitude": -80.4303182804261}, "850092040RR0001": {"name": "The Fortmuller Family Foundation", "designationCode": "B", "categoryCode": "05", "address": "3305-246 STEWART GREEN SW", "city": "CALGARY", "province": "AB", "country": "CA", "postalCode": "T3H3C8", "twitter": "None", "instagram": "None", "facebook": "None", "youtube": "None", "website": "None", "summary": "None", "logo": "None", "latitude": 51.01512416856595, "longitude": -114.1699139965962}, "827252859RR0001": {"name": "The Foundation for Giving", "designationCode": "B", "categoryCode": "03", "address": "610 BRONSON AVENUE", "city": "OTTAWA", "province": "ON", "country": "CA", "postalCode": "K1S4E6", "twitter": "None", "instagram": "None", "facebook": "None", "youtube": "None", "website": "None", "summary": "None", "logo": "None", "latitude": 45.404193752409405, "longitude": -75.70158286392709}, "119233583RR0001": {"name": "The Foundation for Legal Research La fondation pour la recherche juridique", "designationCode": "C", "categoryCode": "23", "address": "865 CARLING AVENUE, SUITE 500", "city": "OTTAWA", "province": "ON", "country": "CA", "postalCode": "K1S5S8", "twitter": "None", "instagram": "None", "facebook": "None", "youtube": "None", "website": "None", "summary": "None", "logo": "None", "latitude": 45.39637326983628, "longitude": -75.71068406486201}, "846764280RR0001": {"name": "The Foundation for Rebuilding Lives", "designationCode": "C", "categoryCode": "21", "address": "POST OFFICE BOX 353", "city": "CARDSTON", "province": "AB", "country": "CA", "postalCode": "T0K0K0", "twitter": "None", "instagram": "None", "facebook": "None", "youtube": "None", "website": "None", "summary": "None", "logo": "None", "latitude": 49.198480000000075, "longitude": -113.30176999999998}, "820927770RR0001": {"name": "The Foundation for Student Achievement", "designationCode": "B", "categoryCode": "21", "address": "25 - 16945 LESLIE ST", "city": "NEWMARKET", "province": "ON", "country": "CA", "postalCode": "L3Y9A2", "twitter": "None", "instagram": "None", "facebook": "None", "youtube": "None", "website": "None", "summary": "None", "logo": "None", "latitude": 44.05202644659227, "longitude": -79.42842706313218}, "837129154RR0001": {"name": "The Foundation for Student Science and Technology", "designationCode": "C", "categoryCode": "21", "address": "702 - 141 LAURIER AVE W", "city": "OTTAWA", "province": "ON", "country": "CA", "postalCode": "K1P5J3", "twitter": "None", "instagram": "None", "facebook": "None", "youtube": "None", "website": "None", "summary": "None", "logo": "None", "latitude": 45.42069040357192, "longitude": -75.69391146254821}, "822781266RR0001": {"name": "The Foundation of the Air Cadet League of Canada / La Fondation de la Ligue des Cadets de l'Air du Canada", "designationCode": "C", "categoryCode": "29", "address": "201 - 1505 LAPERRIERE AVE", "city": "OTTAWA", "province": "ON", "country": "CA", "postalCode": "K1Z7T1", "twitter": "None", "instagram": "None", "facebook": "None", "youtube": "None", "website": "None", "summary": "None", "logo": "None", "latitude": 45.3779063308614, "longitude": -75.7424353600033}, "843454190RR0001": {"name": "The Foundation of Guelph General Hospital", "designationCode": "A", "categoryCode": "13", "address": "115 DELHI ST", "city": "GUELPH", "province": "ON", "country": "CA", "postalCode": "N1E4J4", "twitter": "None", "instagram": "None", "facebook": "None", "youtube": "None", "website": "None", "summary": "None", "logo": "None", "latitude": 43.55583993148417, "longitude": -80.25379920184993}}