{"806620175RR0001": {"name": "Goodwood Uxbridge Lutheran Church", "designationCode": "C", "categoryCode": "32", "address": "555 SCUGOG LINE 9", "city": "UXBRIDGE", "province": "ON", "country": "CA", "postalCode": "L9P1R3", "twitter": "None", "instagram": "None", "facebook": "None", "youtube": "None", "website": "None", "summary": "None", "logo": "None", "latitude": 44.11750716847478, "longitude": -79.05018019539499}, "809480395RR0001": {"name": "Gordie Howe Center for Alzheimer's Research and Education Society", "designationCode": "C", "categoryCode": "11", "address": "410 - 7015 MACLEOD TRAIL SW", "city": "CALGARY", "province": "AB", "country": "CA", "postalCode": "T2H2K6", "twitter": "None", "instagram": "None", "facebook": "None", "youtube": "None", "website": "None", "summary": "None", "logo": "None", "latitude": 50.99439991848855, "longitude": -114.0716953460148}, "802527820RR0001": {"name": "Gordon & Diane Buchanan Family Foundation", "designationCode": "B", "categoryCode": "03", "address": "306 - 11523 100 AVE NW", "city": "EDMONTON", "province": "AB", "country": "CA", "postalCode": "T5K0J8", "twitter": "None", "instagram": "None", "facebook": "None", "youtube": "None", "website": "None", "summary": "None", "logo": "None", "latitude": 53.53880753505719, "longitude": -113.52074230252755}, "850240110RR0001": {"name": "Gordon & Ruth Gooder Charitable Foundation", "designationCode": "B", "categoryCode": "03", "address": "107 JUDSON STREET,", "city": "TORONTO", "province": "ON", "country": "CA", "postalCode": "M8Z1A4", "twitter": "None", "instagram": "None", "facebook": "None", "youtube": "None", "website": "None", "summary": "None", "logo": "None", "latitude": 43.614471783773, "longitude": -79.50470528919733}, "813259066RR0001": {"name": "Gordon and Patricia Gray Animal Welfare Foundation", "designationCode": "B", "categoryCode": "03", "address": "12 MACLEOD ESTATE CRT", "city": "RICHMOND HILL", "province": "ON", "country": "CA", "postalCode": "L4E0B1", "twitter": "None", "instagram": "None", "facebook": "None", "youtube": "None", "website": "None", "summary": "None", "logo": "None", "latitude": 43.92335193839798, "longitude": -79.46011813592774}, "815700026RR0001": {"name": "Gordon Butler Bequest", "designationCode": "B", "categoryCode": "05", "address": "1709 HOLLIS STREET, 5TH FLOOR P.O. BOX 457, HALIFAX CENTRAL", "city": "HALIFAX", "province": "NS", "country": "CA", "postalCode": "B3J2P8", "twitter": "None", "instagram": "None", "facebook": "None", "youtube": "None", "website": "None", "summary": "None", "logo": "None", "latitude": 44.647722827370295, "longitude": -63.57286089243476}, "884461328RR0001": {"name": "Gordon L.Diewert Foundation", "designationCode": "A", "categoryCode": "03", "address": "305 6TH AVENUE", "city": "NEW WESTMINISTER", "province": "BC", "country": "CA", "postalCode": "V3L1T7", "twitter": "None", "instagram": "None", "facebook": "None", "youtube": "None", "website": "None", "summary": "None", "logo": "None"}, "871745154RR0001": {"name": "Gordon Tootoosis Nikaniwin Theatre Inc.", "designationCode": "C", "categoryCode": "22", "address": "914 20TH STREET WEST", "city": "SASKATOON", "province": "SK", "country": "CA", "postalCode": "S7M0Y4", "twitter": "None", "instagram": "None", "facebook": "None", "youtube": "None", "website": "None", "summary": "None", "logo": "None", "latitude": 52.1262174532574, "longitude": -106.6836915}, "842628174RR0001": {"name": "Goshen Christian Assembly of Edmonton", "designationCode": "C", "categoryCode": "36", "address": "12140 103 ST NW", "city": "EDMONTON", "province": "AB", "country": "CA", "postalCode": "T5G2J9", "twitter": "None", "instagram": "None", "facebook": "None", "youtube": "None", "website": "None", "summary": "None", "logo": "None", "latitude": 53.575749, "longitude": -113.49743926319982}, "838709210RR0001": {"name": "Gospel of Christ Outreach", "designationCode": "C", "categoryCode": "39", "address": "PO BOX 47, RR 1, SITE 2", "city": "LACOMBE", "province": "AB", "country": "CA", "postalCode": "T4L2N1", "twitter": "None", "instagram": "None", "facebook": "None", "youtube": "None", "website": "None", "summary": "None", "logo": "None", "latitude": 52.463094000000055, "longitude": -113.73671149999993}, "839737269RR0001": {"name": "Gospel of Fire Ministries Canada", "designationCode": "C", "categoryCode": "39", "address": "9-800 ARROW RD", "city": "TORONTO", "province": "ON", "country": "CA", "postalCode": "M9M2Z8", "twitter": "None", "instagram": "None", "facebook": "None", "youtube": "None", "website": "None", "summary": "None", "logo": "None", "latitude": 43.7490330377116, "longitude": -79.53225026608536}, "811203249RR0001": {"name": "Gospel of Grace Community Church", "designationCode": "C", "categoryCode": "39", "address": "207 AUBURN SHORES LANDNG SE", "city": "CALGARY", "province": "AB", "country": "CA", "postalCode": "T3M2A6", "twitter": "None", "instagram": "None", "facebook": "None", "youtube": "None", "website": "None", "summary": "None", "logo": "None", "latitude": 50.88839252262105, "longitude": -113.95591313237932}, "816759963RR0001": {"name": "Gospel Church in Langley", "designationCode": "C", "categoryCode": "39", "address": "8-20178 96TH AVENUE", "city": "LANGLEY", "province": "BC", "country": "CA", "postalCode": "V1M0B2", "twitter": "None", "instagram": "None", "facebook": "None", "youtube": "None", "website": "None", "summary": "None", "logo": "None", "latitude": 49.17697151284019, "longitude": -122.66350102553523}, "107441818RR0001": {"name": "Gospel Fellowship Church", "designationCode": "C", "categoryCode": "34", "address": "BOX 491", "city": "FOAM LAKE", "province": "SK", "country": "CA", "postalCode": "S0A1A0", "twitter": "None", "instagram": "None", "facebook": "None", "youtube": "None", "website": "None", "summary": "None", "logo": "None", "latitude": 51.637590000000046, "longitude": -103.53518999999994}, "820497329RR0001": {"name": "Gospel Fire Evangelical Church (Lethbridge)", "designationCode": "C", "categoryCode": "39", "address": "204 - 1308 23 AVE N", "city": "LETHBRIDGE", "province": "AB", "country": "CA", "postalCode": "T1H4T6", "twitter": "None", "instagram": "None", "facebook": "None", "youtube": "None", "website": "None", "summary": "None", "logo": "None", "latitude": 49.72435163632663, "longitude": -112.8173433979875}, "851428912RR0001": {"name": "Gospel Light Baptist Church", "designationCode": "C", "categoryCode": "39", "address": "269 MICHAEL BOULEVARD", "city": "WHITBY", "province": "ON", "country": "CA", "postalCode": "L1N5B2", "twitter": "None", "instagram": "None", "facebook": "None", "youtube": "None", "website": "None", "summary": "None", "logo": "None", "latitude": 43.872152805153284, "longitude": -78.9531741322924}, "804268423RR0001": {"name": "Gospel Light Baptist Church, Inc.", "designationCode": "C", "categoryCode": "31", "address": "11 VICTOR AVE", "city": "AMHERST", "province": "NS", "country": "CA", "postalCode": "B4H2L3", "twitter": "None", "instagram": "None", "facebook": "None", "youtube": "None", "website": "None", "summary": "None", "logo": "None", "latitude": 45.82009271885273, "longitude": -64.21515880570153}, "759524895RR0001": {"name": "Gospel Mind Christian Church of Calgary", "designationCode": "C", "categoryCode": "39", "address": "92 SHERWOOD GATE NW", "city": "CALGARY", "province": "AB", "country": "CA", "postalCode": "T3R0N9", "twitter": "None", "instagram": "None", "facebook": "None", "youtube": "None", "website": "None", "summary": "None", "logo": "None", "latitude": 51.1633904454671, "longitude": -114.14886196280801}, "107690554RR0001": {"name": "Gospel Mission Church", "designationCode": "C", "categoryCode": "34", "address": "BOX 7", "city": "CARROT RIVER", "province": "SK", "country": "CA", "postalCode": "S0E0L0", "twitter": "None", "instagram": "None", "facebook": "None", "youtube": "None", "website": "None", "summary": "None", "logo": "None", "latitude": 53.28401000000008, "longitude": -103.58754999999996}, "830155388RR0001": {"name": "Gospel Of Grace Fellowship", "designationCode": "C", "categoryCode": "39", "address": "428 3RD AVE NW", "city": "WEYBURN", "province": "SK", "country": "CA", "postalCode": "S4H1R1", "twitter": "None", "instagram": "None", "facebook": "None", "youtube": "None", "website": "None", "summary": "None", "logo": "None", "latitude": 49.67142651067581, "longitude": -103.86499091909516}, "792605321RR0001": {"name": "Gospel Redemption Faith Ministries", "designationCode": "C", "categoryCode": "39", "address": "7435 GOREWAY DRIVE,", "city": "MISSISSAUGA", "province": "ON", "country": "CA", "postalCode": "L4T4G5", "twitter": "None", "instagram": "None", "facebook": "None", "youtube": "None", "website": "None", "summary": "None", "logo": "None", "latitude": 43.72234741413215, "longitude": -79.64357292959808}, "824187934RR0001": {"name": "Gospel Takeover Ministries Inc.", "designationCode": "C", "categoryCode": "39", "address": "371 MAGNOLIA DR", "city": "HAMILTON", "province": "ON", "country": "CA", "postalCode": "L9C6N6", "twitter": "None", "instagram": "None", "facebook": "None", "youtube": "None", "website": "None", "summary": "None", "logo": "None", "latitude": 43.22762100862701, "longitude": -79.91819713015762}, "823185590RR0001": {"name": "Got Bannock Inc.", "designationCode": "C", "categoryCode": "09", "address": "2 - 458 ATLANTIC AVE", "city": "WINNIPEG", "province": "MB", "country": "CA", "postalCode": "R2W0R8", "twitter": "None", "instagram": "None", "facebook": "None", "youtube": "None", "website": "None", "summary": "None", "logo": "None", "latitude": 49.92910110072725, "longitude": -97.13590864115055}, "805858313RR0001": {"name": "Goudge Family Foundation", "designationCode": "B", "categoryCode": "03", "address": "1560 HOMER MEWS               SUITE 1503", "city": "VANCOUVER", "province": "BC", "country": "CA", "postalCode": "V6Z0A5", "twitter": "None", "instagram": "None", "facebook": "None", "youtube": "None", "website": "None", "summary": "None", "logo": "None", "latitude": 49.27128450011557, "longitude": -123.1272783102605}, "829913607RR0001": {"name": "Goulbourn Museum", "designationCode": "C", "categoryCode": "50", "address": "2064 HUNTLEY ROAD", "city": "STITTSVILLE", "province": "ON", "country": "CA", "postalCode": "K2S1B8", "twitter": "None", "instagram": "None", "facebook": "None", "youtube": "None", "website": "None", "summary": "None", "logo": "None", "latitude": 45.23462244766014, "longitude": -75.90568812479059}, "886462399RR0001": {"name": "Governor General's Foot Guards Regimental Association", "designationCode": "C", "categoryCode": "51", "address": "BOX 1212, POSTAL STATION 'B'", "city": "OTTAWA", "province": "ON", "country": "CA", "postalCode": "K1P5R3", "twitter": "None", "instagram": "None", "facebook": "None", "youtube": "None", "website": "None", "summary": "None", "logo": "None", "latitude": 45.42177300000006, "longitude": -75.69115999999994}, "825940281RR0001": {"name": "Governor General's Horse Guards Cavalry and Historical Society Inc.", "designationCode": "C", "categoryCode": "50", "address": "242 SURGEONER CRES", "city": "NEWMARKET", "province": "ON", "country": "CA", "postalCode": "L3X2L3", "twitter": "None", "instagram": "None", "facebook": "None", "youtube": "None", "website": "None", "summary": "None", "logo": "None", "latitude": 44.03679542910715, "longitude": -79.48480201791783}, "808283840RR0001": {"name": "Grace and Glory Apostolic Ministries", "designationCode": "C", "categoryCode": "39", "address": "1241 MAIN STREET EAST", "city": "HAMILTON", "province": "ON", "country": "CA", "postalCode": "L8K1A8", "twitter": "None", "instagram": "None", "facebook": "None", "youtube": "None", "website": "None", "summary": "None", "logo": "None", "latitude": 43.241864132408, "longitude": -79.81665565139366}, "887273795RR0002": {"name": "Grace and Truth Tabernacle Inc.", "designationCode": "C", "categoryCode": "39", "address": "3095 ROUTE 108", "city": "NEW DENMARK", "province": "NB", "country": "CA", "postalCode": "E7G2V9", "twitter": "None", "instagram": "None", "facebook": "None", "youtube": "None", "website": "None", "summary": "None", "logo": "None", "latitude": 46.993421724675954, "longitude": -67.5910171055311}, "823712765RR0001": {"name": "Grace of God Christian Church of Calgary", "designationCode": "C", "categoryCode": "39", "address": "263 SOMERGLEN COMMON SW", "city": "CALGARY", "province": "AB", "country": "CA", "postalCode": "T2Y4A4", "twitter": "None", "instagram": "None", "facebook": "None", "youtube": "None", "website": "None", "summary": "None", "logo": "None", "latitude": 50.8962449023025, "longitude": -114.08454723007682}, "855841227RR0001": {"name": "Grace of God Missionary (GGM)", "designationCode": "C", "categoryCode": "39", "address": "PO BOX 893", "city": "PEMBERTON", "province": "BC", "country": "CA", "postalCode": "V0N2L0", "twitter": "None", "instagram": "None", "facebook": "None", "youtube": "None", "website": "None", "summary": "None", "logo": "None", "latitude": 50.443383074414584, "longitude": -122.91368590568882}, "731352720RR0001": {"name": "Grace Anglican Church", "designationCode": "C", "categoryCode": "30", "address": "GD", "city": "CLAYTON", "province": "ON", "country": "CA", "postalCode": "K0A1P0", "twitter": "None", "instagram": "None", "facebook": "None", "youtube": "None", "website": "None", "summary": "None", "logo": "None", "latitude": 45.2115736191322, "longitude": -76.27480115929175}, "811165703RR0001": {"name": "Grace Anglican Church, Calgary", "designationCode": "C", "categoryCode": "30", "address": "7642 22 ST SE", "city": "CALGARY", "province": "AB", "country": "CA", "postalCode": "T2C0W8", "twitter": "None", "instagram": "None", "facebook": "None", "youtube": "None", "website": "None", "summary": "None", "logo": "None", "latitude": 50.98339892200934, "longitude": -114.00586689909986}, "809473093RR0001": {"name": "Grace Anglican United Church", "designationCode": "C", "categoryCode": "39", "address": "PO BOX 1044", "city": "BLAIRMORE", "province": "AB", "country": "CA", "postalCode": "T0K0E0", "twitter": "None", "instagram": "None", "facebook": "None", "youtube": "None", "website": "None", "summary": "None", "logo": "None", "latitude": 49.491268008524564, "longitude": -113.94719278131039}, "834841033RR0001": {"name": "Grace Assemblies of Calgary Alberta", "designationCode": "C", "categoryCode": "39", "address": "PO BOX 791 STN MAIN", "city": "OKOTOKS", "province": "AB", "country": "CA", "postalCode": "T1S1A9", "twitter": "None", "instagram": "None", "facebook": "None", "youtube": "None", "website": "None", "summary": "None", "logo": "None", "latitude": 50.72589600000006, "longitude": -113.97494149999994}, "830325759RR0001": {"name": "Grace Between Nations Ministries", "designationCode": "C", "categoryCode": "20", "address": "221 RITSON ROAD SOUTH", "city": "OSHAWA", "province": "ON", "country": "CA", "postalCode": "L1H5H8", "twitter": "None", "instagram": "None", "facebook": "None", "youtube": "None", "website": "None", "summary": "None", "logo": "None", "latitude": 43.8939517887933, "longitude": -78.85103188562542}, "118788322RR0001": {"name": "Grace Chapel of Hudson Bay", "designationCode": "C", "categoryCode": "36", "address": "BOX 1210", "city": "HUDSON BAY", "province": "SK", "country": "CA", "postalCode": "S0E0Y0", "twitter": "None", "instagram": "None", "facebook": "None", "youtube": "None", "website": "None", "summary": "None", "logo": "None", "latitude": 52.862685000000056, "longitude": -102.38924149999994}, "821497898RR0001": {"name": "Grace Chapel of Markham", "designationCode": "C", "categoryCode": "39", "address": "1408-5 KENNETH AVE", "city": "TORONTO", "province": "ON", "country": "CA", "postalCode": "M2N6M7", "twitter": "None", "instagram": "None", "facebook": "None", "youtube": "None", "website": "None", "summary": "None", "logo": "None", "latitude": 43.76406081294355, "longitude": -79.40530278541777}, "832687396RR0001": {"name": "Grace China Church", "designationCode": "C", "categoryCode": "39", "address": "9770 KING GEORGE BLVD", "city": "SURREY", "province": "BC", "country": "CA", "postalCode": "V3T2V6", "twitter": "None", "instagram": "None", "facebook": "None", "youtube": "None", "website": "None", "summary": "None", "logo": "None", "latitude": 49.17992156924808, "longitude": -122.84541862986916}, "846257970RR0001": {"name": "Grace Chinese Christian Church of Canada", "designationCode": "C", "categoryCode": "39", "address": "4A - 81 NORTHERN HEIGHTS DR", "city": "RICHMOND HILL", "province": "ON", "country": "CA", "postalCode": "L4B4C9", "twitter": "None", "instagram": "None", "facebook": "None", "youtube": "None", "website": "None", "summary": "None", "logo": "None", "latitude": 43.850659190054245, "longitude": -79.43079788313932}, "893680520RR0001": {"name": "Grace Christian Fellowship Society of Creston", "designationCode": "C", "categoryCode": "36", "address": "PO BOX 92", "city": "CRESTON", "province": "BC", "country": "CA", "postalCode": "V0B1G0", "twitter": "None", "instagram": "None", "facebook": "None", "youtube": "None", "website": "None", "summary": "None", "logo": "None", "latitude": 49.738704000000055, "longitude": -115.87167349999993}, "835829805RR0001": {"name": "Grace Christian School of North York", "designationCode": "C", "categoryCode": "20", "address": "201 TEMPO AVENUE", "city": "NORTH YORK", "province": "ON", "country": "CA", "postalCode": "M2H2R9", "twitter": "None", "instagram": "None", "facebook": "None", "youtube": "None", "website": "None", "summary": "None", "logo": "None", "latitude": 43.80575890697704, "longitude": -79.33991420578234}, "106925779RR0001": {"name": "Grace Church in Scarborough", "designationCode": "C", "categoryCode": "30", "address": "700 KENNEDY ROAD", "city": "SCARBOROUGH", "province": "ON", "country": "CA", "postalCode": "M1K2B5", "twitter": "None", "instagram": "None", "facebook": "None", "youtube": "None", "website": "None", "summary": "None", "logo": "None", "latitude": 43.72820780125814, "longitude": -79.26632610069765}, "855893111RR0001": {"name": "Grace Church of God - B.C. Canada", "designationCode": "C", "categoryCode": "39", "address": "205-9763 140 STREET", "city": "SURREY", "province": "BC", "country": "CA", "postalCode": "V3T4M4", "twitter": "None", "instagram": "None", "facebook": "None", "youtube": "None", "website": "None", "summary": "None", "logo": "None", "latitude": 49.179837541491175, "longitude": -122.83429296451011}, "824076285RR0001": {"name": "Grace Church Society of Salmon Arm", "designationCode": "C", "categoryCode": "39", "address": "BOX 208", "city": "SALMON ARM", "province": "BC", "country": "CA", "postalCode": "V1E4N3", "twitter": "None", "instagram": "None", "facebook": "None", "youtube": "None", "website": "None", "summary": "None", "logo": "None", "latitude": 50.70318000000006, "longitude": -119.26884049999992}, "779607928RR0001": {"name": "Grace City Church", "designationCode": "C", "categoryCode": "39", "address": "47 GLENDALE AVE", "city": "OTTAWA", "province": "ON", "country": "CA", "postalCode": "K1S1W3", "twitter": "None", "instagram": "None", "facebook": "None", "youtube": "None", "website": "None", "summary": "None", "logo": "None", "latitude": 45.405450417998644, "longitude": -75.69737144422635}, "108222290RR0001": {"name": "Grace Communion International Canada / Communion Internationale dans la Gr\u00e2ce, Canada", "designationCode": "C", "categoryCode": "39", "address": "101-5668 192 ST", "city": "SURREY", "province": "BC", "country": "CA", "postalCode": "V3S2V7", "twitter": "None", "instagram": "None", "facebook": "None", "youtube": "None", "website": "None", "summary": "None", "logo": "None", "latitude": 49.10558386372554, "longitude": -122.69109204763758}, "119113116RR0001": {"name": "Grace Community Church", "designationCode": "C", "categoryCode": "34", "address": "BOX 406", "city": "RED LAKE", "province": "ON", "country": "CA", "postalCode": "P0V2M0", "twitter": "None", "instagram": "None", "facebook": "None", "youtube": "None", "website": "None", "summary": "None", "logo": "None", "latitude": 51.017789973887886, "longitude": -93.82652994835257}, "818276156RR0001": {"name": "Grace Community Church", "designationCode": "C", "categoryCode": "34", "address": "7068 HACIENDA RD              RR 6", "city": "AYLMER", "province": "ON", "country": "CA", "postalCode": "N5H2R5", "twitter": "None", "instagram": "None", "facebook": "None", "youtube": "None", "website": "None", "summary": "None", "logo": "None", "latitude": 42.721146136274456, "longitude": -80.95909364657584}, "806419529RR0001": {"name": "Grace Community Church of Mississauga", "designationCode": "C", "categoryCode": "39", "address": "31 - 6535 MILLCREEK DR", "city": "MISSISSAUGA", "province": "ON", "country": "CA", "postalCode": "L5N2M2", "twitter": "None", "instagram": "None", "facebook": "None", "youtube": "None", "website": "None", "summary": "None", "logo": "None", "latitude": 43.59238683794915, "longitude": -79.74596617446632}, "832026678RR0001": {"name": "Grace Community Fellowship of Lethbridge", "designationCode": "C", "categoryCode": "39", "address": "PO BOX 701", "city": "COALHURST", "province": "AB", "country": "CA", "postalCode": "T0L0V0", "twitter": "None", "instagram": "None", "facebook": "None", "youtube": "None", "website": "None", "summary": "None", "logo": "None", "latitude": 49.745436000000055, "longitude": -112.93374049999994}, "836539312RR0001": {"name": "Grace Community Worship Center", "designationCode": "C", "categoryCode": "39", "address": "PO BOX 47521                  RPO ALBION SHOPPERS", "city": "ETOBICOKE", "province": "ON", "country": "CA", "postalCode": "M9V5H4", "twitter": "None", "instagram": "None", "facebook": "None", "youtube": "None", "website": "None", "summary": "None", "logo": "None", "latitude": 43.739368966831606, "longitude": -79.57828979767268}, "813459021RR0001": {"name": "Grace Covenant Chapel International", "designationCode": "C", "categoryCode": "36", "address": "405 SILVERSTONE DR", "city": "ETOBICOKE", "province": "ON", "country": "CA", "postalCode": "M9V3K5", "twitter": "None", "instagram": "None", "facebook": "None", "youtube": "None", "website": "None", "summary": "None", "logo": "None", "latitude": 43.74427994532289, "longitude": -79.59998742772216}, "811137520RR0001": {"name": "Grace Covenant Church", "designationCode": "C", "categoryCode": "39", "address": "538 MOSHER RD", "city": "ADMIRAL ROCK", "province": "NS", "country": "CA", "postalCode": "B0N2H0", "twitter": "None", "instagram": "None", "facebook": "None", "youtube": "None", "website": "None", "summary": "None", "logo": "None", "latitude": 45.16116212934958, "longitude": -63.41519701061849}, "805247889RR0001": {"name": "Grace Covenant Ministries", "designationCode": "C", "categoryCode": "39", "address": "43 BIRCH STREET", "city": "TRURO", "province": "NS", "country": "CA", "postalCode": "B2N4X5", "twitter": "None", "instagram": "None", "facebook": "None", "youtube": "None", "website": "None", "summary": "None", "logo": "None", "latitude": 45.36194516319467, "longitude": -63.25070929949778}, "809334683RR0001": {"name": "Grace Divine Ministry", "designationCode": "C", "categoryCode": "39", "address": "23 BOTICELLI WAY,", "city": "WOODBRIDGE", "province": "ON", "country": "CA", "postalCode": "L4H0C6", "twitter": "None", "instagram": "None", "facebook": "None", "youtube": "None", "website": "None", "summary": "None", "logo": "None", "latitude": 43.85322486095559, "longitude": -79.55977678916868}, "832013833RR0001": {"name": "Grace Evangelical Free Church", "designationCode": "B", "categoryCode": "39", "address": "10411 AINTREE CRES", "city": "RICHMOND", "province": "BC", "country": "CA", "postalCode": "V7A3T7", "twitter": "None", "instagram": "None", "facebook": "None", "youtube": "None", "website": "None", "summary": "None", "logo": "None", "latitude": 49.13987442772216, "longitude": -123.10639664086209}, "822981650RR0001": {"name": "Grace Evangelical Free Church of Calgary", "designationCode": "C", "categoryCode": "39", "address": "7023 5 ST SE", "city": "CALGARY", "province": "AB", "country": "CA", "postalCode": "T2H2G2", "twitter": "None", "instagram": "None", "facebook": "None", "youtube": "None", "website": "None", "summary": "None", "logo": "None", "latitude": 50.99111991618096, "longitude": -114.05087412643537}, "818147530RR0001": {"name": "Grace Evergreen Academy Society", "designationCode": "C", "categoryCode": "56", "address": "9770 KING GEORGE BOULEVARD", "city": "SURREY", "province": "BC", "country": "CA", "postalCode": "V3T2V6", "twitter": "None", "instagram": "None", "facebook": "None", "youtube": "None", "website": "None", "summary": "None", "logo": "None", "latitude": 49.17992156924808, "longitude": -122.84541862986916}, "821877719RR0001": {"name": "Grace Family Bible Fellowship of the Otter Creeks Area Inc.", "designationCode": "C", "categoryCode": "39", "address": "6 JAMES CRT                   PO BOX 287", "city": "COURTLAND", "province": "ON", "country": "CA", "postalCode": "N0J1E0", "twitter": "None", "instagram": "None", "facebook": "None", "youtube": "None", "website": "None", "summary": "None", "logo": "None", "latitude": 42.84229454899297, "longitude": -80.63309081793521}, "838910727RR0001": {"name": "Grace Family Church of Christian Missionary Alliance of Can ada", "designationCode": "C", "categoryCode": "39", "address": "1091 BREVIK PLACE", "city": "MISSISSAUGA", "province": "ON", "country": "CA", "postalCode": "L4W3R7", "twitter": "None", "instagram": "None", "facebook": "None", "youtube": "None", "website": "None", "summary": "None", "logo": "None", "latitude": 43.63661608018368, "longitude": -79.64071906572832}, "130781701RR0001": {"name": "Grace Fellowship", "designationCode": "C", "categoryCode": "39", "address": "P.O. BOX 25075 WEST BRANTFORD", "city": "BRANTFORD", "province": "ON", "country": "CA", "postalCode": "N3T6K5", "twitter": "None", "instagram": "None", "facebook": "None", "youtube": "None", "website": "None", "summary": "None", "logo": "None", "latitude": 43.14300920844691, "longitude": -80.26710173448376}, "118943216RR0001": {"name": "Grace Fellowship of Saskatoon", "designationCode": "C", "categoryCode": "39", "address": "336 HAICHERT ST               SS 4", "city": "WARMAN", "province": "SK", "country": "CA", "postalCode": "S0K4S3", "twitter": "None", "instagram": "None", "facebook": "None", "youtube": "None", "website": "None", "summary": "None", "logo": "None", "latitude": 52.31135054458021, "longitude": -106.58570613709324}, "118891449RR0001": {"name": "Grace Fellowship C.O.G. Ministries", "designationCode": "C", "categoryCode": "39", "address": "76 CROCKFORD BLVD", "city": "SCARBOROUGH", "province": "ON", "country": "CA", "postalCode": "M1R3C3", "twitter": "None", "instagram": "None", "facebook": "None", "youtube": "None", "website": "None", "summary": "None", "logo": "None", "latitude": 43.7414954357436, "longitude": -79.28912510188108}, "871527735RR0001": {"name": "Grace Fellowship Canada", "designationCode": "C", "categoryCode": "39", "address": "31 - 6535 MILLCREEK DR", "city": "MISSISSAUGA", "province": "ON", "country": "CA", "postalCode": "L5N2M2", "twitter": "None", "instagram": "None", "facebook": "None", "youtube": "None", "website": "None", "summary": "None", "logo": "None", "latitude": 43.59238683794915, "longitude": -79.74596617446632}, "826766404RR0001": {"name": "Grace Fellowship Church of East Toronto", "designationCode": "C", "categoryCode": "39", "address": "1355 MORNINGSIDE AVE", "city": "SCARBOROUGH", "province": "ON", "country": "CA", "postalCode": "M1B3C5", "twitter": "None", "instagram": "None", "facebook": "None", "youtube": "None", "website": "None", "summary": "None", "logo": "None", "latitude": 43.8074159392347, "longitude": -79.20187152769961}, "818205205RR0001": {"name": "Grace Fountain Gate Chapel International Edmonton", "designationCode": "C", "categoryCode": "39", "address": "7208 101 AVE NW", "city": "EDMONTON", "province": "AB", "country": "CA", "postalCode": "T6A0J1", "twitter": "None", "instagram": "None", "facebook": "None", "youtube": "None", "website": "None", "summary": "None", "logo": "None", "latitude": 53.54127053318128, "longitude": -113.43922183236194}, "819605296RR0001": {"name": "Grace Generation Church of Calgary", "designationCode": "C", "categoryCode": "39", "address": "750 CORAL SPRINGS BLVD NE", "city": "CALGARY", "province": "AB", "country": "CA", "postalCode": "T3J3R7", "twitter": "None", "instagram": "None", "facebook": "None", "youtube": "None", "website": "None", "summary": "None", "logo": "None", "latitude": 51.10870753621105, "longitude": -113.92912302844941}, "819406596RR0001": {"name": "Grace Global Christian Fellowship", "designationCode": "C", "categoryCode": "36", "address": "67 ABBYVIEW DRIVE", "city": "WHITBY", "province": "ON", "country": "CA", "postalCode": "L1P0A5", "twitter": "None", "instagram": "None", "facebook": "None", "youtube": "None", "website": "None", "summary": "None", "logo": "None", "latitude": 43.90554696467212, "longitude": -78.98085267981853}, "813893104RR0001": {"name": "Grace Gospel Church", "designationCode": "C", "categoryCode": "39", "address": "1677 CHICKADEE PL", "city": "COQUITLAM", "province": "BC", "country": "CA", "postalCode": "V3E3C5", "twitter": "None", "instagram": "None", "facebook": "None", "youtube": "None", "website": "None", "summary": "None", "logo": "None", "latitude": 49.3077723008541, "longitude": -122.78139964389185}, "801730797RR0001": {"name": "Grace Hill Presbyterian Church", "designationCode": "C", "categoryCode": "37", "address": "40 - 1051 CEDARGLEN GATE", "city": "MISSISSAUGA", "province": "ON", "country": "CA", "postalCode": "L5C3A7", "twitter": "None", "instagram": "None", "facebook": "None", "youtube": "None", "website": "None", "summary": "None", "logo": "None", "latitude": 43.55728317072516, "longitude": -79.6403246638289}, "131463317RR0001": {"name": "Grace Hospital Auxiliary", "designationCode": "A", "categoryCode": "15", "address": "300 BOOTH DR", "city": "WINNIPEG", "province": "MB", "country": "CA", "postalCode": "R3J3M7", "twitter": "None", "instagram": "None", "facebook": "None", "youtube": "None", "website": "None", "summary": "None", "logo": "None", "latitude": 49.88253899225517, "longitude": -97.27484867109543}, "805826518RR0001": {"name": "Grace International Fellowship Toronto (GIFT)", "designationCode": "C", "categoryCode": "39", "address": "123 LETTY AVE", "city": "BRAMPTON", "province": "ON", "country": "CA", "postalCode": "L6Y5E3", "twitter": "None", "instagram": "None", "facebook": "None", "youtube": "None", "website": "None", "summary": "None", "logo": "None", "latitude": 43.66205425757394, "longitude": -79.77221965500036}, "827080912RR0001": {"name": "Grace Life Center Inc.", "designationCode": "C", "categoryCode": "39", "address": "334 DAWSON CRES", "city": "SASKATOON", "province": "SK", "country": "CA", "postalCode": "S7R0K1", "twitter": "None", "instagram": "None", "facebook": "None", "youtube": "None", "website": "None", "summary": "None", "logo": "None", "latitude": 52.15619268194921, "longitude": -106.7163449317042}, "743663890RR0001": {"name": "Grace Life Covenant Ministries", "designationCode": "B", "categoryCode": "39", "address": "B8- 15 WILMINGTON AVE.", "city": "TORONTO", "province": "ON", "country": "CA", "postalCode": "M3H5H7", "twitter": "None", "instagram": "None", "facebook": "None", "youtube": "None", "website": "None", "summary": "None", "logo": "None", "latitude": 43.75315317848677, "longitude": -79.452473079751}, "779558923RR0001": {"name": "Grace Ministries of Thunder Bay", "designationCode": "C", "categoryCode": "39", "address": "PO BOX 29022                  RPO MCINTYRE CENTRE", "city": "THUNDER BAY", "province": "ON", "country": "CA", "postalCode": "P7B6P9", "twitter": "None", "instagram": "None", "facebook": "None", "youtube": "None", "website": "None", "summary": "None", "logo": "None", "latitude": 48.38168400000005, "longitude": -89.24550199999993}, "860369511RR0001": {"name": "Grace Native Mission", "designationCode": "C", "categoryCode": "37", "address": "490 WHISTLER STREET", "city": "DUNCAN", "province": "BC", "country": "CA", "postalCode": "V9L3P6", "twitter": "None", "instagram": "None", "facebook": "None", "youtube": "None", "website": "None", "summary": "None", "logo": "None", "latitude": 48.78042283236195, "longitude": -123.69785981193395}, "898444617RR0001": {"name": "Grace New Life Mennonite Church", "designationCode": "C", "categoryCode": "39", "address": "20 WEST AVENUE NORTH", "city": "HAMILTON", "province": "ON", "country": "CA", "postalCode": "L8L5B8", "twitter": "None", "instagram": "None", "facebook": "None", "youtube": "None", "website": "None", "summary": "None", "logo": "None", "latitude": 43.25392240576496, "longitude": -79.85783935481008}, "805520160RR0001": {"name": "Grace Reformed Church of Lethbridge", "designationCode": "C", "categoryCode": "39", "address": "PO BOX 1054 STN MAIN", "city": "LETHBRIDGE", "province": "AB", "country": "CA", "postalCode": "T1J4A2", "twitter": "None", "instagram": "None", "facebook": "None", "youtube": "None", "website": "None", "summary": "None", "logo": "None", "latitude": 49.69383000000006, "longitude": -112.83373249999994}, "766014328RR0001": {"name": "Grace Rescue Life Ministry", "designationCode": "B", "categoryCode": "39", "address": "3600 BRENNER DRIVE NW         UNIT 110", "city": "CALGARY", "province": "AB", "country": "CA", "postalCode": "T2L1Y2", "twitter": "None", "instagram": "None", "facebook": "None", "youtube": "None", "website": "None", "summary": "None", "logo": "None", "latitude": 51.10465413962134, "longitude": -114.1398302051185}, "826158735RR0001": {"name": "Grace River Mission Inc.", "designationCode": "C", "categoryCode": "39", "address": "POST OFFICE BOX 334", "city": "YORKTON", "province": "SK", "country": "CA", "postalCode": "S3N0B4", "twitter": "None", "instagram": "None", "facebook": "None", "youtube": "None", "website": "None", "summary": "None", "logo": "None", "latitude": 51.21947400000006, "longitude": -102.46950349999993}, "850907460RR0001": {"name": "Grace Rwanda Society", "designationCode": "C", "categoryCode": "21", "address": "#13-19889 SUITE #182, 96 AV.", "city": "LANGLEY", "province": "BC", "country": "CA", "postalCode": "V1M3C7", "twitter": "None", "instagram": "None", "facebook": "None", "youtube": "None", "website": "None", "summary": "None", "logo": "None", "latitude": 49.17698999999999, "longitude": -122.66978399999999}, "839497997RR0001": {"name": "Grace Street-Level Mission", "designationCode": "C", "categoryCode": "09", "address": "PO BOX 47008                  2155 GOTTINGEN ST", "city": "HALIFAX", "province": "NS", "country": "CA", "postalCode": "B3K3B5", "twitter": "None", "instagram": "None", "facebook": "None", "youtube": "None", "website": "None", "summary": "None", "logo": "None", "latitude": 44.65250965390384, "longitude": -63.584054780454764}, "824714513RR0001": {"name": "Grace Tabernacle Apostolic Church", "designationCode": "C", "categoryCode": "39", "address": "12 LING ST", "city": "AJAX", "province": "ON", "country": "CA", "postalCode": "L1T0E7", "twitter": "None", "instagram": "None", "facebook": "None", "youtube": "None", "website": "None", "summary": "None", "logo": "None", "latitude": 43.89288147127119, "longitude": -79.04275874161772}, "815484498RR0001": {"name": "Grace United Church", "designationCode": "C", "categoryCode": "39", "address": "2304 ALBERNI HWY              PO BOX 65", "city": "COOMBS", "province": "BC", "country": "CA", "postalCode": "V0R1M0", "twitter": "None", "instagram": "None", "facebook": "None", "youtube": "None", "website": "None", "summary": "None", "logo": "None", "latitude": 49.305365701522966, "longitude": -124.42261174348785}, "726963895RR0001": {"name": "Grace Valley Church (Dundas)", "designationCode": "C", "categoryCode": "39", "address": "59 JAMES ST", "city": "DUNDAS", "province": "ON", "country": "CA", "postalCode": "L9H2J8", "twitter": "None", "instagram": "None", "facebook": "None", "youtube": "None", "website": "None", "summary": "None", "logo": "None"}, "818637928RR0001": {"name": "Grace Ville Church", "designationCode": "C", "categoryCode": "39", "address": "5551 MYTKO CRES", "city": "RICHMOND", "province": "BC", "country": "CA", "postalCode": "V7E6J1", "twitter": "None", "instagram": "None", "facebook": "None", "youtube": "None", "website": "None", "summary": "None", "logo": "None", "latitude": 49.141904481245454, "longitude": -123.16759067759273}, "898683115RR0001": {"name": "Graceland Africa Mission", "designationCode": "C", "categoryCode": "39", "address": "P.O. BOX 456", "city": "ALLISTON", "province": "ON", "country": "CA", "postalCode": "L9R1V7", "twitter": "None", "instagram": "None", "facebook": "None", "youtube": "None", "website": "None", "summary": "None", "logo": "None", "latitude": 44.15432100000005, "longitude": -79.86752449999993}, "819499278RR0001": {"name": "Gracelife Church of Edmonton", "designationCode": "C", "categoryCode": "39", "address": "51529A RANGE ROAD 261", "city": "SPRUCE GROVE", "province": "AB", "country": "CA", "postalCode": "T7Y1B3", "twitter": "None", "instagram": "None", "facebook": "None", "youtube": "None", "website": "None", "summary": "None", "logo": "None", "latitude": 53.44526766005041, "longitude": -113.71352248129293}, "711799528RR0001": {"name": "Gracepoint Hanin Church", "designationCode": "C", "categoryCode": "39", "address": "7974 161 ST", "city": "SURREY", "province": "BC", "country": "CA", "postalCode": "V4N0K3", "twitter": "None", "instagram": "None", "facebook": "None", "youtube": "None", "website": "None", "summary": "None", "logo": "None", "latitude": 49.14745303664373, "longitude": -122.77661051719667}, "803628783RR0001": {"name": "Graceway Church", "designationCode": "C", "categoryCode": "39", "address": "220 - 800 MCBRIDE BLVD", "city": "NEW WESTMINSTER", "province": "BC", "country": "CA", "postalCode": "V3L2B8", "twitter": "None", "instagram": "None", "facebook": "None", "youtube": "None", "website": "None", "summary": "None", "logo": "None", "latitude": 49.22241063997615, "longitude": -122.91209776097854}, "118972793RR0001": {"name": "Graceworks Baptist Church", "designationCode": "C", "categoryCode": "31", "address": "P.O. BOX 37014                CANON ST. EAST P.O.", "city": "HAMILTON", "province": "ON", "country": "CA", "postalCode": "L8L0A8", "twitter": "None", "instagram": "None", "facebook": "None", "youtube": "None", "website": "None", "summary": "None", "logo": "None", "latitude": 43.25445382414718, "longitude": -79.8420011891315}, "845423326RR0001": {"name": "Graceworld Ministries", "designationCode": "C", "categoryCode": "49", "address": "190 RAILSIDE ROAD", "city": "TORONTO", "province": "ON", "country": "CA", "postalCode": "M3A1A3", "twitter": "None", "instagram": "None", "facebook": "None", "youtube": "None", "website": "None", "summary": "None", "logo": "None", "latitude": 43.7396396458251, "longitude": -79.3247763823941}, "718516925RR0001": {"name": "GraceFinder Resourcing Network Society", "designationCode": "C", "categoryCode": "49", "address": "191 DALCASTLE WAY NW", "city": "CALGARY", "province": "AB", "country": "CA", "postalCode": "T3A2N5", "twitter": "None", "instagram": "None", "facebook": "None", "youtube": "None", "website": "None", "summary": "None", "logo": "None", "latitude": 51.11738132445608, "longitude": -114.16968940259096}, "886526599RR0001": {"name": "GraceNetwork Canada", "designationCode": "C", "categoryCode": "47", "address": "#433, 10531-117 ST. NW", "city": "EDMONTON", "province": "AB", "country": "CA", "postalCode": "T5H0A8", "twitter": "None", "instagram": "None", "facebook": "None", "youtube": "None", "website": "None", "summary": "None", "logo": "None", "latitude": 53.54881241909516, "longitude": -113.52309426406615}, "108217852RR0001": {"name": "GracePoint Baptist Church", "designationCode": "C", "categoryCode": "31", "address": "3143 SHEPPARD AVE E", "city": "SCARBOROUGH", "province": "ON", "country": "CA", "postalCode": "M1T3J7", "twitter": "None", "instagram": "None", "facebook": "None", "youtube": "None", "website": "None", "summary": "None", "logo": "None", "latitude": 43.77692182705317, "longitude": -79.31584439174227}, "812868107RR0001": {"name": "Grade Three Reading Academy Society", "designationCode": "C", "categoryCode": "21", "address": "206-10625 WEST SIDE DRIVE", "city": "GRANDE PRAIRIE", "province": "AB", "country": "CA", "postalCode": "T8V8E6", "twitter": "None", "instagram": "None", "facebook": "None", "youtube": "None", "website": "None", "summary": "None", "logo": "None", "latitude": 55.16844868861378, "longitude": -118.81625928260397}, "849903232RR0001": {"name": "Graham & Darlene Cameron Charitable Trust", "designationCode": "B", "categoryCode": "05", "address": "2002-15152 RUSSELL AVENUE", "city": "WHITE ROCK", "province": "BC", "country": "CA", "postalCode": "V4B0A3", "twitter": "None", "instagram": "None", "facebook": "None", "youtube": "None", "website": "None", "summary": "None", "logo": "None", "latitude": 49.029246035659966, "longitude": -122.80240928213915}, "808521181RR0001": {"name": "Graham Clarke Foundation", "designationCode": "B", "categoryCode": "03", "address": "2900 - 550 BURRARD ST", "city": "VANCOUVER", "province": "BC", "country": "CA", "postalCode": "V6C0A3", "twitter": "None", "instagram": "None", "facebook": "None", "youtube": "None", "website": "None", "summary": "None", "logo": "None", "latitude": 49.28596391921073, "longitude": -123.11870289255033}, "847311784RR0001": {"name": "Graham Lee Family Foundation", "designationCode": "B", "categoryCode": "03", "address": "1500 WEST GEORGIA ST.         BOX 62, SUITE 1250", "city": "VANCOUVER", "province": "BC", "country": "CA", "postalCode": "V6G2Z6", "twitter": "None", "instagram": "None", "facebook": "None", "youtube": "None", "website": "None", "summary": "None", "logo": "None", "latitude": 49.29013479542975, "longitude": -123.1300069287031}}