{"805182805RR0001": {"name": "Hospice Miramichi Inc.", "designationCode": "C", "categoryCode": "11", "address": "14 HOWARD ST", "city": "MIRAMICHI", "province": "NB", "country": "CA", "postalCode": "E1N0C4", "twitter": "None", "instagram": "None", "facebook": "None", "youtube": "None", "website": "None", "summary": "None", "logo": "None", "latitude": 47.0267010469928, "longitude": -65.46588341908486}, "754925725RR0001": {"name": "Hospice Norwood", "designationCode": "C", "categoryCode": "11", "address": "P.O. BOX 218", "city": "NORWOOD", "province": "ON", "country": "CA", "postalCode": "K0L2V0", "twitter": "None", "instagram": "None", "facebook": "None", "youtube": "None", "website": "None", "summary": "None", "logo": "None", "latitude": 44.38304000000005, "longitude": -77.97911999999997}, "814159190RR0001": {"name": "Hospice Outreach Programs of Elgin", "designationCode": "C", "categoryCode": "11", "address": "102 - 10 MONDAMIN ST", "city": "ST THOMAS", "province": "ON", "country": "CA", "postalCode": "N5P2V1", "twitter": "None", "instagram": "None", "facebook": "None", "youtube": "None", "website": "None", "summary": "None", "logo": "None", "latitude": 42.779456520948095, "longitude": -81.19308356118464}, "133412197RR0001": {"name": "Hospice Palliative Care Ontario", "designationCode": "C", "categoryCode": "10", "address": "808 - 2 CARLTON ST", "city": "TORONTO", "province": "ON", "country": "CA", "postalCode": "M5B1J3", "twitter": "None", "instagram": "None", "facebook": "None", "youtube": "None", "website": "None", "summary": "None", "logo": "None", "latitude": 43.66142348211082, "longitude": -79.38282201832186}, "816799134RR0001": {"name": "Hospice Prince Edward Foundation", "designationCode": "C", "categoryCode": "01", "address": "40 DOWNES AVENUE", "city": "PICTON", "province": "ON", "country": "CA", "postalCode": "K0K2T0", "twitter": "None", "instagram": "None", "facebook": "None", "youtube": "None", "website": "None", "summary": "None", "logo": "None", "latitude": 44.0080207397327, "longitude": -77.15155980822196}, "824594048RR0001": {"name": "Hospice Society of the Columbia Valley", "designationCode": "C", "categoryCode": "01", "address": "BOX 925", "city": "INVERMERE", "province": "BC", "country": "CA", "postalCode": "V0A1K0", "twitter": "None", "instagram": "None", "facebook": "None", "youtube": "None", "website": "None", "summary": "None", "logo": "None", "latitude": 50.50916700000006, "longitude": -116.03037049999993}, "839859709RR0001": {"name": "Hospice Society of Camrose and District", "designationCode": "C", "categoryCode": "01", "address": "BOX 1891", "city": "CAMROSE", "province": "AB", "country": "CA", "postalCode": "T4V1X8", "twitter": "None", "instagram": "None", "facebook": "None", "youtube": "None", "website": "None", "summary": "None", "logo": "None", "latitude": 53.02423500000006, "longitude": -112.82978149999994}, "850241043RR0001": {"name": "Hospice Society of North Kootenay Lake", "designationCode": "C", "categoryCode": "01", "address": "POST OFFICE BOX 801", "city": "KASLO", "province": "BC", "country": "CA", "postalCode": "V0G1M0", "twitter": "None", "instagram": "None", "facebook": "None", "youtube": "None", "website": "None", "summary": "None", "logo": "None", "latitude": 49.91053000000005, "longitude": -116.90458999999998}, "890595382RR0001": {"name": "Hospice Society of Victoria County", "designationCode": "C", "categoryCode": "01", "address": "BOX 279", "city": "BADDECK", "province": "NS", "country": "CA", "postalCode": "B0E1B0", "twitter": "None", "instagram": "None", "facebook": "None", "youtube": "None", "website": "None", "summary": "None", "logo": "None", "latitude": 46.087500000000034, "longitude": -60.780119999999954}, "897312674RR0001": {"name": "Hospitality Industry Training Organization of Ontario", "designationCode": "C", "categoryCode": "59", "address": "5407 EGLINTON AVE WEST        SUITE 105", "city": "TORONTO", "province": "ON", "country": "CA", "postalCode": "M9C5K6", "twitter": "None", "instagram": "None", "facebook": "None", "youtube": "None", "website": "None", "summary": "None", "logo": "None", "latitude": 43.661858772597405, "longitude": -79.59173539145377}, "809741580RR0001": {"name": "Hospitaller Order Of St. John Of God Province Of The Good Shepherd In North America", "designationCode": "C", "categoryCode": "46", "address": "143 WENTWORTH STREET SOUTH    P. O. BOX 1003", "city": "HAMILTON", "province": "ON", "country": "CA", "postalCode": "L8N2Z1", "twitter": "None", "instagram": "None", "facebook": "None", "youtube": "None", "website": "None", "summary": "None", "logo": "None", "latitude": 43.24763009657233, "longitude": -79.85087889987925}, "809701337RR0001": {"name": "Hot Soup Cool Jazz Inc.", "designationCode": "A", "categoryCode": "03", "address": "84 O'LEARY AVE", "city": "ST. JOHN'S", "province": "NL", "country": "CA", "postalCode": "A1B2C7", "twitter": "None", "instagram": "None", "facebook": "None", "youtube": "None", "website": "None", "summary": "None", "logo": "None", "latitude": 47.5584288107095, "longitude": -52.767051659967706}, "811363373RR0001": {"name": "Hourigan Foundation", "designationCode": "A", "categoryCode": "03", "address": "504 HURD AVE", "city": "BURLINGTON", "province": "ON", "country": "CA", "postalCode": "L7S1S8", "twitter": "None", "instagram": "None", "facebook": "None", "youtube": "None", "website": "None", "summary": "None", "logo": "None", "latitude": 43.32544552094758, "longitude": -79.80127078893754}, "809455058RR0001": {"name": "House of Glory International Pentecostal Ministry Edmonton, Alberta", "designationCode": "C", "categoryCode": "39", "address": "PO BOX 41012 RPO YELLOWBIRD", "city": "EDMONTON", "province": "AB", "country": "CA", "postalCode": "T6J7E6", "twitter": "None", "instagram": "None", "facebook": "None", "youtube": "None", "website": "None", "summary": "None", "logo": "None", "latitude": 53.45952900000006, "longitude": -113.52241249999994}, "840020697RR0001": {"name": "House of Grace for all Nations", "designationCode": "C", "categoryCode": "39", "address": "H - 318 QUEENSTON RD", "city": "HAMILTON", "province": "ON", "country": "CA", "postalCode": "L8K1H5", "twitter": "None", "instagram": "None", "facebook": "None", "youtube": "None", "website": "None", "summary": "None", "logo": "None", "latitude": 43.23380900969487, "longitude": -79.79048951194521}, "750997298RR0001": {"name": "House of Grace for all Nations Ottawa", "designationCode": "C", "categoryCode": "39", "address": "415 ST. LAURENT BLVD", "city": "OTTAWA", "province": "ON", "country": "CA", "postalCode": "K1K2Z8", "twitter": "None", "instagram": "None", "facebook": "None", "youtube": "None", "website": "None", "summary": "None", "logo": "None", "latitude": 45.44755740550517, "longitude": -75.65046011639473}, "821019452RR0001": {"name": "House of Healing Apostolic Ministries Incorporated", "designationCode": "B", "categoryCode": "39", "address": "111 HENRY DORMER DRIVE", "city": "WINNIPEG", "province": "MB", "country": "CA", "postalCode": "R3X2E5", "twitter": "None", "instagram": "None", "facebook": "None", "youtube": "None", "website": "None", "summary": "None", "logo": "None", "latitude": 49.829775296699175, "longitude": -97.06042339728218}, "832098214RR0001": {"name": "House of Hesed (Manitoba) Inc.", "designationCode": "C", "categoryCode": "11", "address": "PO BOX 2102", "city": "WINNIPEG", "province": "MB", "country": "CA", "postalCode": "R3C3R4", "twitter": "None", "instagram": "None", "facebook": "None", "youtube": "None", "website": "None", "summary": "None", "logo": "None", "latitude": 49.899525000000054, "longitude": -97.14112999999993}, "838121200RR0001": {"name": "House of Hope", "designationCode": "C", "categoryCode": "39", "address": "1070 KING ST", "city": "CRANBROOK", "province": "BC", "country": "CA", "postalCode": "V1C6S6", "twitter": "None", "instagram": "None", "facebook": "None", "youtube": "None", "website": "None", "summary": "None", "logo": "None", "latitude": 49.521658750836586, "longitude": -115.78147028671494}, "830896254RR0001": {"name": "House of Intercessory Prayer Ministries", "designationCode": "C", "categoryCode": "36", "address": "16 MOSS COURT", "city": "HALIFAX", "province": "NS", "country": "CA", "postalCode": "B3S1E2", "twitter": "None", "instagram": "None", "facebook": "None", "youtube": "None", "website": "None", "summary": "None", "logo": "None", "latitude": 44.673422268682444, "longitude": -63.673142965462404}, "832852347RR0001": {"name": "House of Play and Education for Youth Incorporated", "designationCode": "C", "categoryCode": "09", "address": "1093 ST. PAUL AVENUE", "city": "WINDSOR", "province": "ON", "country": "CA", "postalCode": "N8S4V3", "twitter": "None", "instagram": "None", "facebook": "None", "youtube": "None", "website": "None", "summary": "None", "logo": "None", "latitude": 42.3272263941082, "longitude": -82.94166000294284}, "802966853RR0001": {"name": "House of Praise Church Inc.", "designationCode": "C", "categoryCode": "39", "address": "12 GOODMARK PLACE,            UNIT 1,UPPER LEVEL", "city": "TORONTO", "province": "ON", "country": "CA", "postalCode": "M9W6R1", "twitter": "None", "instagram": "None", "facebook": "None", "youtube": "None", "website": "None", "summary": "None", "logo": "None", "latitude": 43.753303535720086, "longitude": -79.61703378244533}, "824433734RR0001": {"name": "House of Prayer", "designationCode": "C", "categoryCode": "39", "address": "601-1790 EGLINTON AVENUE EAST", "city": "NORTH YORK", "province": "ON", "country": "CA", "postalCode": "M4A2T3", "twitter": "None", "instagram": "None", "facebook": "None", "youtube": "None", "website": "None", "summary": "None", "logo": "None", "latitude": 43.724973063425516, "longitude": -79.30002272727027}, "843035205RR0001": {"name": "House of Prayer and Transformation (HPT)", "designationCode": "C", "categoryCode": "39", "address": "40 FIELDVIEW DRIVE,", "city": "BRAMPTON", "province": "ON", "country": "CA", "postalCode": "L6P2X9", "twitter": "None", "instagram": "None", "facebook": "None", "youtube": "None", "website": "None", "summary": "None", "logo": "None", "latitude": 43.7824249303479, "longitude": -79.68436259022432}, "832547509RR0001": {"name": "House of Prayer for All Nations", "designationCode": "B", "categoryCode": "45", "address": "22 ELMSDALE DR", "city": "KITCHENER", "province": "ON", "country": "CA", "postalCode": "N2E1H6", "twitter": "None", "instagram": "None", "facebook": "None", "youtube": "None", "website": "None", "summary": "None", "logo": "None", "latitude": 43.42337732915928, "longitude": -80.4960874005135}, "833419468RR0001": {"name": "House of Prayer Church", "designationCode": "C", "categoryCode": "39", "address": "2 MORNINGVIEW TRAIL", "city": "SCARBOROUGH", "province": "ON", "country": "CA", "postalCode": "M1B5A8", "twitter": "None", "instagram": "None", "facebook": "None", "youtube": "None", "website": "None", "summary": "None", "logo": "None", "latitude": 43.81372186929413, "longitude": -79.20596617043668}, "852631555RR0001": {"name": "House of Prayer Edmonton Society", "designationCode": "C", "categoryCode": "49", "address": "10445-172 STREET NW", "city": "EDMONTON", "province": "AB", "country": "CA", "postalCode": "T5S1K9", "twitter": "None", "instagram": "None", "facebook": "None", "youtube": "None", "website": "None", "summary": "None", "logo": "None", "latitude": 53.54772299999999, "longitude": -113.61782372352728}, "847933777RR0001": {"name": "House of Prayer Ministry, Calgary, Alberta", "designationCode": "C", "categoryCode": "39", "address": "102-3863 54 AVE NE", "city": "CALGARY", "province": "AB", "country": "CA", "postalCode": "T3J3W5", "twitter": "None", "instagram": "None", "facebook": "None", "youtube": "None", "website": "None", "summary": "None", "logo": "None"}, "818736399RR0001": {"name": "House of Prayer World Evangelism.", "designationCode": "B", "categoryCode": "39", "address": "85 THORNBUSH BLVD", "city": "BRAMPTON", "province": "ON", "country": "CA", "postalCode": "L7A4J9", "twitter": "None", "instagram": "None", "facebook": "None", "youtube": "None", "website": "None", "summary": "None", "logo": "None", "latitude": 43.69932847473052, "longitude": -79.84540464929204}, "832200497RR0001": {"name": "House of Refuge Street Ministries", "designationCode": "C", "categoryCode": "47", "address": "19 COMMERFORD STREET", "city": "THOROLD", "province": "ON", "country": "CA", "postalCode": "L2V4P5", "twitter": "None", "instagram": "None", "facebook": "None", "youtube": "None", "website": "None", "summary": "None", "logo": "None", "latitude": 43.10955997446479, "longitude": -79.22307233524747}, "782492128RR0001": {"name": "House of Worship", "designationCode": "C", "categoryCode": "39", "address": "40 DEBERGH AVENUE,", "city": "LEAMINGTON", "province": "ON", "country": "CA", "postalCode": "N8H4S9", "twitter": "None", "instagram": "None", "facebook": "None", "youtube": "None", "website": "None", "summary": "None", "logo": "None", "latitude": 42.04770251817764, "longitude": -82.58999666954264}, "830581625RR0001": {"name": "House of Worship and Prayer Christian Centre - Where the River Runs", "designationCode": "C", "categoryCode": "39", "address": "7695 WELLINGTON ROAD 22       RR5", "city": "GUELPH", "province": "ON", "country": "CA", "postalCode": "N1H6J2", "twitter": "None", "instagram": "None", "facebook": "None", "youtube": "None", "website": "None", "summary": "None", "logo": "None", "latitude": 43.64110394897335, "longitude": -80.31678216774912}, "801278862RR0001": {"name": "House Blend Ministries Inc.", "designationCode": "C", "categoryCode": "47", "address": "PO BOX 26083 RPO MARYLAND", "city": "WINNIPEG", "province": "MB", "country": "CA", "postalCode": "R3G3R3", "twitter": "None", "instagram": "None", "facebook": "None", "youtube": "None", "website": "None", "summary": "None", "logo": "None", "latitude": 49.878383414298455, "longitude": -97.1620873191405}, "128027703RR0001": {"name": "Houses Opening Today Toronto Inc.", "designationCode": "C", "categoryCode": "09", "address": "75 BLANTYRE AVENUE", "city": "TORONTO", "province": "ON", "country": "CA", "postalCode": "M1N2R3", "twitter": "None", "instagram": "None", "facebook": "None", "youtube": "None", "website": "None", "summary": "None", "logo": "None", "latitude": 43.67740421818467, "longitude": -79.27960580006294}, "840757355RR0001": {"name": "Houston Search and Rescue", "designationCode": "C", "categoryCode": "59", "address": "PO BOX 457", "city": "HOUSTON", "province": "BC", "country": "CA", "postalCode": "V0J1Z0", "twitter": "None", "instagram": "None", "facebook": "None", "youtube": "None", "website": "None", "summary": "None", "logo": "None", "latitude": 55.240365186846496, "longitude": -127.654727473102}, "848036513RR0001": {"name": "Howard Mutual Foundation", "designationCode": "C", "categoryCode": "11", "address": "301 - 555 RICHMOND ST", "city": "CHATHAM", "province": "ON", "country": "CA", "postalCode": "N7M1R2", "twitter": "None", "instagram": "None", "facebook": "None", "youtube": "None", "website": "None", "summary": "None", "logo": "None", "latitude": 42.390081091897784, "longitude": -82.20046735446337}, "846574499RR0001": {"name": "Howe Sound Marine Rescue Society", "designationCode": "C", "categoryCode": "59", "address": "PO BOX 310", "city": "SQUAMISH", "province": "BC", "country": "CA", "postalCode": "V8B0A3", "twitter": "None", "instagram": "None", "facebook": "None", "youtube": "None", "website": "None", "summary": "None", "logo": "None", "latitude": 49.69853700000006, "longitude": -123.15505399999994}, "887687895RR0001": {"name": "Hua Tsang Monastery", "designationCode": "C", "categoryCode": "35", "address": "207-8680 CAMBIE ROAD", "city": "RICHMOND", "province": "BC", "country": "CA", "postalCode": "V6X4K1", "twitter": "None", "instagram": "None", "facebook": "None", "youtube": "None", "website": "None", "summary": "None", "logo": "None", "latitude": 49.18458173421635, "longitude": -123.1272854098138}, "787224724RR0001": {"name": "Hua Xia Gospel Ministries (Canada)", "designationCode": "C", "categoryCode": "47", "address": "50 MACAMO COURT", "city": "MAPLE", "province": "ON", "country": "CA", "postalCode": "L6A1G1", "twitter": "None", "instagram": "None", "facebook": "None", "youtube": "None", "website": "None", "summary": "None", "logo": "None", "latitude": 43.8904738623119, "longitude": -79.47393546505837}, "837241413RR0001": {"name": "Huayen Buddhist Community of Ontario", "designationCode": "C", "categoryCode": "35", "address": "115 HEATHERSIDE DR", "city": "SCARBOROUGH", "province": "ON", "country": "CA", "postalCode": "M1W1T6", "twitter": "None", "instagram": "None", "facebook": "None", "youtube": "None", "website": "None", "summary": "None", "logo": "None", "latitude": 43.79823815098963, "longitude": -79.32708125893026}, "821748134RR0001": {"name": "Hub Hospice Palliative Care", "designationCode": "C", "categoryCode": "09", "address": "P.O. BOX 787                  70 CLYDE ST", "city": "ALMONTE", "province": "ON", "country": "CA", "postalCode": "K0A1A0", "twitter": "None", "instagram": "None", "facebook": "None", "youtube": "None", "website": "None", "summary": "None", "logo": "None", "latitude": 45.22779639304086, "longitude": -76.19179744600774}, "852607456RR0001": {"name": "Hub 14 Art & Performance Works", "designationCode": "C", "categoryCode": "22", "address": "14 MARKHAM STREET             LOWER SOUTH UNIT", "city": "TORONTO", "province": "ON", "country": "CA", "postalCode": "M6J2E9", "twitter": "None", "instagram": "None", "facebook": "None", "youtube": "None", "website": "None", "summary": "None", "logo": "None", "latitude": 43.64758559033991, "longitude": -79.40549385082802}, "119288918RR0378": {"name": "Hubbards Congregation of Jehovah's Witnesses, Hubbards, Nova Scotia", "designationCode": "C", "categoryCode": "61", "address": "5449 HIGHWAY 3 UNIT 3", "city": "CHESTER BASIN", "province": "NS", "country": "CA", "postalCode": "B0J1K0", "twitter": "None", "instagram": "None", "facebook": "None", "youtube": "None", "website": "None", "summary": "None", "logo": "None", "latitude": 44.562086108211126, "longitude": -64.31042612048479}, "811530385RR0001": {"name": "Huckleberry Foundation", "designationCode": "C", "categoryCode": "11", "address": "202-1630 PANDOSY STREET", "city": "KELOWNA", "province": "BC", "country": "CA", "postalCode": "V1Y1P7", "twitter": "None", "instagram": "None", "facebook": "None", "youtube": "None", "website": "None", "summary": "None", "logo": "None", "latitude": 49.88489868029, "longitude": -119.49514162672841}, "887955045RR0001": {"name": "Huckleberry House Society", "designationCode": "C", "categoryCode": "39", "address": "2455 W RAILWAY ST", "city": "ABBOTSFORD", "province": "BC", "country": "CA", "postalCode": "V2S2E3", "twitter": "None", "instagram": "None", "facebook": "None", "youtube": "None", "website": "None", "summary": "None", "logo": "None", "latitude": 49.04649033637265, "longitude": -122.28690725564068}, "119288918RR0162": {"name": "Hudson Bay Congregation of Jehovah's Witnesses, Hudson Bay, Saskatchewan", "designationCode": "B", "categoryCode": "61", "address": "POST OFFICE BOX 87", "city": "HUDSON BAY", "province": "SK", "country": "CA", "postalCode": "S0E0Y0", "twitter": "None", "instagram": "None", "facebook": "None", "youtube": "None", "website": "None", "summary": "None", "logo": "None", "latitude": 52.862685000000056, "longitude": -102.38924149999994}, "885171348RR0001": {"name": "Hudson Music Festival / Festival de Musique de Hudson", "designationCode": "C", "categoryCode": "11", "address": "420 RUE MAIN", "city": "HUDSON", "province": "QC", "country": "CA", "postalCode": "J0P1H0", "twitter": "None", "instagram": "None", "facebook": "None", "youtube": "None", "website": "None", "summary": "None", "logo": "None", "latitude": 45.457916407230336, "longitude": -74.13962321555303}, "805197753RR0001": {"name": "Hudson Outreach Library", "designationCode": "C", "categoryCode": "50", "address": "RR2, 993303 HANBURY RD", "city": "NEW LISKEARD", "province": "ON", "country": "CA", "postalCode": "P0J1P0", "twitter": "None", "instagram": "None", "facebook": "None", "youtube": "None", "website": "None", "summary": "None", "logo": "None", "latitude": 47.59524430990394, "longitude": -79.70234064693553}, "807701230RR0001": {"name": "Hudson Taylor Ministries Canada", "designationCode": "C", "categoryCode": "39", "address": "PO BOX 1036", "city": "NORWICH", "province": "ON", "country": "CA", "postalCode": "N0J1P0", "twitter": "None", "instagram": "None", "facebook": "None", "youtube": "None", "website": "None", "summary": "None", "logo": "None", "latitude": 42.98256600000006, "longitude": -80.60335999999994}, "140783820RR0001": {"name": "Hudson's Bay Company Foundation", "designationCode": "B", "categoryCode": "03", "address": "698 LAWRENCE AVENUE WEST      3RD FLOOR", "city": "TORONTO", "province": "ON", "country": "CA", "postalCode": "M6A3A5", "twitter": "None", "instagram": "None", "facebook": "None", "youtube": "None", "website": "None", "summary": "None", "logo": "None", "latitude": 43.71567910687277, "longitude": -79.44621918096827}, "829313279RR0001": {"name": "Hudson's Hope Bible Fellowship Baptist Church", "designationCode": "C", "categoryCode": "39", "address": "BOX 473", "city": "HUDSON'S HOPE", "province": "BC", "country": "CA", "postalCode": "V0C1V0", "twitter": "None", "instagram": "None", "facebook": "None", "youtube": "None", "website": "None", "summary": "None", "logo": "None", "latitude": 56.02881000000008, "longitude": -121.90894999999995}, "730500725RR0001": {"name": "Hueston Family Foundation", "designationCode": "B", "categoryCode": "03", "address": "218 HUNT CLUB DRIVE,", "city": "LONDON", "province": "ON", "country": "CA", "postalCode": "N6H3Z1", "twitter": "None", "instagram": "None", "facebook": "None", "youtube": "None", "website": "None", "summary": "None", "logo": "None", "latitude": 42.978749059408976, "longitude": -81.33130294243733}, "806517389RR0001": {"name": "Hugginz By Angel Foundation", "designationCode": "C", "categoryCode": "11", "address": "111 WALLACE STREET", "city": "NANAIMO", "province": "BC", "country": "CA", "postalCode": "V9R5B2", "twitter": "None", "instagram": "None", "facebook": "None", "youtube": "None", "website": "None", "summary": "None", "logo": "None", "latitude": 49.16828788001138, "longitude": -123.94185119270706}, "803259837RR0001": {"name": "Hugh & Linda Brown Educational Foundation", "designationCode": "B", "categoryCode": "03", "address": "606-65 PORT ST. E", "city": "MISSISSAUGA", "province": "ON", "country": "CA", "postalCode": "L5G4V3", "twitter": "None", "instagram": "None", "facebook": "None", "youtube": "None", "website": "None", "summary": "None", "logo": "None", "latitude": 43.55396306575698, "longitude": -79.58122199301778}, "802374942RR0001": {"name": "HugAbull Advocacy and Rescue Society", "designationCode": "C", "categoryCode": "54", "address": "3510 TURNER ST", "city": "VANCOUVER", "province": "BC", "country": "CA", "postalCode": "V5K2H9", "twitter": "None", "instagram": "None", "facebook": "None", "youtube": "None", "website": "None", "summary": "None", "logo": "None", "latitude": 49.27903853952926, "longitude": -123.0279297485429}, "828792382RR0001": {"name": "Hui Family Charitable Foundation", "designationCode": "B", "categoryCode": "05", "address": "1343 33RD AVE W", "city": "VANCOUVER", "province": "BC", "country": "CA", "postalCode": "V6M1A6", "twitter": "None", "instagram": "None", "facebook": "None", "youtube": "None", "website": "None", "summary": "None", "logo": "None", "latitude": 49.241763511541194, "longitude": -123.1357417754631}, "814818860RR0001": {"name": "Hulitan Family and Community Services Society", "designationCode": "C", "categoryCode": "09", "address": "902A CALEDONIA AVENUE", "city": "VICTORIA", "province": "BC", "country": "CA", "postalCode": "V8T1E8", "twitter": "None", "instagram": "None", "facebook": "None", "youtube": "None", "website": "None", "summary": "None", "logo": "None", "latitude": 48.43083962334438, "longitude": -123.3584385483625}, "130084858RR0001": {"name": "Hull Services", "designationCode": "C", "categoryCode": "01", "address": "2266 WOODPARK AVE SW", "city": "CALGARY", "province": "AB", "country": "CA", "postalCode": "T2W2Z8", "twitter": "None", "instagram": "None", "facebook": "None", "youtube": "None", "website": "None", "summary": "None", "logo": "None", "latitude": 50.947249493219324, "longitude": -114.11354913142702}, "839295557RR0001": {"name": "Hultink Family Foundation", "designationCode": "B", "categoryCode": "03", "address": "67 FRONT STREET NORTH", "city": "THOROLD", "province": "ON", "country": "CA", "postalCode": "L2V1X3", "twitter": "None", "instagram": "None", "facebook": "None", "youtube": "None", "website": "None", "summary": "None", "logo": "None", "latitude": 43.127990886477704, "longitude": -79.20090120690588}, "800848962RR0001": {"name": "Human Awareness Institute Canada", "designationCode": "C", "categoryCode": "11", "address": "597214-2ND LINE WEST", "city": "MULMUR", "province": "ON", "country": "CA", "postalCode": "L9V2R8", "twitter": "None", "instagram": "None", "facebook": "None", "youtube": "None", "website": "None", "summary": "None", "logo": "None", "latitude": 44.16069186453537, "longitude": -80.17233907932888}, "814510616RR0001": {"name": "Human Cargo Theatre", "designationCode": "C", "categoryCode": "22", "address": "86 BOULTON AVE", "city": "TORONTO", "province": "ON", "country": "CA", "postalCode": "M4M0B5", "twitter": "None", "instagram": "None", "facebook": "None", "youtube": "None", "website": "None", "summary": "None", "logo": "None", "latitude": 43.66169915153791, "longitude": -79.3476463975993}, "848695409RR0001": {"name": "Human Emergency Aid & Rehabilitation Trust (Heart) Inc.", "designationCode": "C", "categoryCode": "02", "address": "5978 COUPLES ST", "city": "MISSISSAUGA", "province": "ON", "country": "CA", "postalCode": "L5V2Z5", "twitter": "None", "instagram": "None", "facebook": "None", "youtube": "None", "website": "None", "summary": "None", "logo": "None", "latitude": 43.598835703012384, "longitude": -79.70399018639262}, "816010656RR0001": {"name": "Human Resources Research Institute HRRI", "designationCode": "C", "categoryCode": "21", "address": "150 BLOOR STREET WEST         SUITE 200", "city": "TORONTO", "province": "ON", "country": "CA", "postalCode": "M5S2X9", "twitter": "None", "instagram": "None", "facebook": "None", "youtube": "None", "website": "None", "summary": "None", "logo": "None", "latitude": 43.66889522012214, "longitude": -79.39337913809213}, "811964493RR0001": {"name": "Humane Society of Canada Foundation", "designationCode": "A", "categoryCode": "03", "address": "SUITE 409, 120 CARLTON STREET", "city": "TORONTO", "province": "ON", "country": "CA", "postalCode": "M5A4K2", "twitter": "None", "instagram": "None", "facebook": "None", "youtube": "None", "website": "None", "summary": "None", "logo": "None", "latitude": 43.66252315794319, "longitude": -79.37630931294355}, "886464239RR0001": {"name": "Humane Society of Kawartha Lakes", "designationCode": "C", "categoryCode": "54", "address": "111 MCLAUGHLIN RD", "city": "LINDSAY", "province": "ON", "country": "CA", "postalCode": "K9V6K5", "twitter": "None", "instagram": "None", "facebook": "None", "youtube": "None", "website": "None", "summary": "None", "logo": "None", "latitude": 44.345245265047105, "longitude": -78.76186204402997}, "831590666RR0001": {"name": "Humanitarian Coalition / Coalition Humanitaire", "designationCode": "A", "categoryCode": "03", "address": "39 MCARTHUR AVENUE", "city": "OTTAWA", "province": "ON", "country": "CA", "postalCode": "K1L8L7", "twitter": "None", "instagram": "None", "facebook": "None", "youtube": "None", "website": "None", "summary": "None", "logo": "None", "latitude": 45.4309004787926, "longitude": -75.66676355551384}, "833688757RR0001": {"name": "Humanitarian Mobility International", "designationCode": "C", "categoryCode": "19", "address": "243 CH DES OUTAOUAIS", "city": "POINTE-FORTUNE", "province": "QC", "country": "CA", "postalCode": "J0P1N0", "twitter": "None", "instagram": "None", "facebook": "None", "youtube": "None", "website": "None", "summary": "None", "logo": "None", "latitude": 45.536136538981005, "longitude": -74.36194879632379}, "862587078RR0001": {"name": "Humanitarian Opportunities for Peace and Education", "designationCode": "C", "categoryCode": "09", "address": "898 MARINET CRES", "city": "PICKERING", "province": "ON", "country": "CA", "postalCode": "L1W2M1", "twitter": "None", "instagram": "None", "facebook": "None", "youtube": "None", "website": "None", "summary": "None", "logo": "None", "latitude": 43.81946339774354, "longitude": -79.10728521997791}, "835133794RR0001": {"name": "Humanity in Practice Foundation", "designationCode": "A", "categoryCode": "03", "address": "212 OAKSIDE BAY SW", "city": "CALGARY", "province": "AB", "country": "CA", "postalCode": "T2V4P3", "twitter": "None", "instagram": "None", "facebook": "None", "youtube": "None", "website": "None", "summary": "None", "logo": "None", "latitude": 50.970766326677776, "longitude": -114.12777854428977}, "872541040RR0001": {"name": "Humanity First", "designationCode": "C", "categoryCode": "09", "address": "40 - 600 BOWES RD", "city": "CONCORD", "province": "ON", "country": "CA", "postalCode": "L4K4A3", "twitter": "None", "instagram": "None", "facebook": "None", "youtube": "None", "website": "None", "summary": "None", "logo": "None", "latitude": 43.81563078925559, "longitude": -79.49919666815767}, "838470508RR0001": {"name": "Humanity's Promise Int'l Association", "designationCode": "C", "categoryCode": "09", "address": "20 WEST CALLAWAY PLACE", "city": "COCHRANE", "province": "AB", "country": "CA", "postalCode": "T4C1L7", "twitter": "None", "instagram": "None", "facebook": "None", "youtube": "None", "website": "None", "summary": "None", "logo": "None", "latitude": 51.19566470774424, "longitude": -114.49279686577435}, "119288918RR0292": {"name": "Humber Congregation of Jehovah's Witnesses, Toronto, Ontario", "designationCode": "C", "categoryCode": "61", "address": "101 - 375 MERTON ST", "city": "TORONTO", "province": "ON", "country": "CA", "postalCode": "M4S1B4", "twitter": "None", "instagram": "None", "facebook": "None", "youtube": "None", "website": "None", "summary": "None", "logo": "None", "latitude": 43.69839684869324, "longitude": -79.38517634788518}, "872785191RR0001": {"name": "Humber River Hospital", "designationCode": "C", "categoryCode": "10", "address": "1235 WILSON AVENUE", "city": "TORONTO", "province": "ON", "country": "CA", "postalCode": "M3M1H7", "twitter": "None", "instagram": "None", "facebook": "None", "youtube": "None", "website": "None", "summary": "None", "logo": "None", "latitude": 43.72504867981632, "longitude": -79.48894099159752}, "119306306RR0001": {"name": "Humber River Hospital Foundation", "designationCode": "A", "categoryCode": "13", "address": "1235 WILSON AVENUE, LEVEL 1", "city": "TORONTO", "province": "ON", "country": "CA", "postalCode": "M3M0B2", "twitter": "None", "instagram": "None", "facebook": "None", "youtube": "None", "website": "None", "summary": "None", "logo": "None", "latitude": 43.72504867981632, "longitude": -79.48894099159752}, "833572894RR0001": {"name": "Humber River Shakespeare Festival", "designationCode": "C", "categoryCode": "22", "address": "306 - 110 THE ESPLANADE", "city": "TORONTO", "province": "ON", "country": "CA", "postalCode": "M5E1X9", "twitter": "None", "instagram": "None", "facebook": "None", "youtube": "None", "website": "None", "summary": "None", "logo": "None", "latitude": 43.64783487512251, "longitude": -79.37220341592116}, "131376238RR0001": {"name": "Humberlea Worship Centre", "designationCode": "C", "categoryCode": "36", "address": "6807 STEELES AVENUE WEST", "city": "ETOBICOKE", "province": "ON", "country": "CA", "postalCode": "M9V4R9", "twitter": "None", "instagram": "None", "facebook": "None", "youtube": "None", "website": "None", "summary": "None", "logo": "None", "latitude": 43.75604583037139, "longitude": -79.61128448998802}, "119172724RR0001": {"name": "Humboldt & District Hospital Foundation Inc.", "designationCode": "A", "categoryCode": "13", "address": "BOX 1740", "city": "HUMBOLDT", "province": "SK", "country": "CA", "postalCode": "S0K2A0", "twitter": "None", "instagram": "None", "facebook": "None", "youtube": "None", "website": "None", "summary": "None", "logo": "None", "latitude": 51.7871843348964, "longitude": -104.71638483007007}, "890279417RR0001": {"name": "Humboldt and District Community Services Inc.", "designationCode": "C", "categoryCode": "09", "address": "P O BOX 1355", "city": "HUMBOLDT", "province": "SK", "country": "CA", "postalCode": "S0K2A0", "twitter": "None", "instagram": "None", "facebook": "None", "youtube": "None", "website": "None", "summary": "None", "logo": "None", "latitude": 51.7871843348964, "longitude": -104.71638483007007}, "846908218RR0001": {"name": "Humboldt and District Society for Prevention of Cruelty to animals Inc.", "designationCode": "C", "categoryCode": "54", "address": "10464 HIGHWAY 5 EAST          BOX 3942", "city": "HUMBOLDT", "province": "SK", "country": "CA", "postalCode": "S0K2A0", "twitter": "None", "instagram": "None", "facebook": "None", "youtube": "None", "website": "None", "summary": "None", "logo": "None", "latitude": 52.201926000000014, "longitude": -105.12006872709982}, "807600523RR0001": {"name": "Humboldt Community Soup Kitchen Inc.", "designationCode": "C", "categoryCode": "09", "address": "701 6TH AVENUE                PO BOX 3242", "city": "HUMBOLDT", "province": "SK", "country": "CA", "postalCode": "S0K2A0", "twitter": "None", "instagram": "None", "facebook": "None", "youtube": "None", "website": "None", "summary": "None", "logo": "None", "latitude": 52.664540255230655, "longitude": -106.34397474232071}, "119288918RR1131": {"name": "Humboldt Congregation of Jehovah's Witnesses, Humboldt, Saskatchewan", "designationCode": "C", "categoryCode": "61", "address": "140 14TH STREET               POST OFFICE BOX 1646", "city": "HUMBOLDT", "province": "SK", "country": "CA", "postalCode": "S0K2A0", "twitter": "None", "instagram": "None", "facebook": "None", "youtube": "None", "website": "None", "summary": "None", "logo": "None", "latitude": 40.79400851107284, "longitude": -124.16924479795216}, "831501788RR0001": {"name": "Humboldt Public School Child Care Centre Inc.", "designationCode": "C", "categoryCode": "01", "address": "PO BOX 848", "city": "HUMBOLDT", "province": "SK", "country": "CA", "postalCode": "S0K2A0", "twitter": "None", "instagram": "None", "facebook": "None", "youtube": "None", "website": "None", "summary": "None", "logo": "None", "latitude": 51.7871843348964, "longitude": -104.71638483007007}, "891166266RR0001": {"name": "Hummingbird Child Care Society", "designationCode": "C", "categoryCode": "01", "address": "#2-4111 WOOD AVENUE", "city": "PORT ALBERNI", "province": "BC", "country": "CA", "postalCode": "V9Y5E8", "twitter": "None", "instagram": "None", "facebook": "None", "youtube": "None", "website": "None", "summary": "None", "logo": "None", "latitude": 49.250802653205504, "longitude": -124.79125069987953}, "893687079RR0001": {"name": "Hungarian Book Lovers Heritage Library", "designationCode": "C", "categoryCode": "50", "address": "1110 - 605 FINCH AVE W", "city": "NORTH YORK", "province": "ON", "country": "CA", "postalCode": "M2R1P1", "twitter": "None", "instagram": "None", "facebook": "None", "youtube": "None", "website": "None", "summary": "None", "logo": "None", "latitude": 43.77368303874645, "longitude": -79.44438773652408}, "819410846RR0001": {"name": "Hungarian Christian Church", "designationCode": "C", "categoryCode": "39", "address": "140 ELORA ST WEST", "city": "MOOREFIELD", "province": "ON", "country": "CA", "postalCode": "N0G2K0", "twitter": "None", "instagram": "None", "facebook": "None", "youtube": "None", "website": "None", "summary": "None", "logo": "None", "latitude": 43.811080610296315, "longitude": -80.70446283668169}, "721825123RR0001": {"name": "Hungry Bear Food Support Committee", "designationCode": "C", "categoryCode": "09", "address": "BOX 486                       103 RADISSON STREET", "city": "CHURCHILL", "province": "MB", "country": "CA", "postalCode": "R0B0E0", "twitter": "None", "instagram": "None", "facebook": "None", "youtube": "None", "website": "None", "summary": "None", "logo": "None", "latitude": 58.76888756081446, "longitude": -94.16528414936984}, "833125628RR0001": {"name": "Hunt for the Cause Foundation", "designationCode": "A", "categoryCode": "03", "address": "P.O. BOX 101", "city": "ABBOTSFORD", "province": "BC", "country": "CA", "postalCode": "V2T6Z5", "twitter": "None", "instagram": "None", "facebook": "None", "youtube": "None", "website": "None", "summary": "None", "logo": "None", "latitude": 49.05161700000005, "longitude": -122.32930399999994}, "118965425RR0001": {"name": "Hunter River Presbyterian Church", "designationCode": "C", "categoryCode": "37", "address": "PO BOX 72", "city": "HUNTER RIVER", "province": "PE", "country": "CA", "postalCode": "C0A1N0", "twitter": "None", "instagram": "None", "facebook": "None", "youtube": "None", "website": "None", "summary": "None", "logo": "None", "latitude": 46.492926000000054, "longitude": -63.36548449999994}, "842279150RR0001": {"name": "Hunter's Fight for a cure Foundation of Alberta", "designationCode": "B", "categoryCode": "03", "address": "BOX 48125", "city": "ST.ALBERT", "province": "AB", "country": "CA", "postalCode": "T8N5V9", "twitter": "None", "instagram": "None", "facebook": "None", "youtube": "None", "website": "None", "summary": "None", "logo": "None", "latitude": 53.633832000000055, "longitude": -113.62747399999994}, "840420442RR0001": {"name": "Huntsville and Area Historical Society", "designationCode": "C", "categoryCode": "50", "address": "159 SOUTH LANCELOT ROAD", "city": "UTTERSON", "province": "ON", "country": "CA", "postalCode": "P0B1M0", "twitter": "None", "instagram": "None", "facebook": "None", "youtube": "None", "website": "None", "summary": "None", "logo": "None", "latitude": 45.2537349802645, "longitude": -79.31695314167015}, "831852827RR0001": {"name": "Huntsville International Film Festival Inc.", "designationCode": "C", "categoryCode": "22", "address": "16 HIGHLAND AVENUE", "city": "TORONTO", "province": "ON", "country": "CA", "postalCode": "M4W2A3", "twitter": "None", "instagram": "None", "facebook": "None", "youtube": "None", "website": "None", "summary": "None", "logo": "None", "latitude": 43.682197116307826, "longitude": -79.38060036161941}, "809093305RR0001": {"name": "Huron Baptist Church (Sarnia)", "designationCode": "C", "categoryCode": "31", "address": "1285 MICHIGAN AVE", "city": "SARNIA", "province": "ON", "country": "CA", "postalCode": "N7S4M6", "twitter": "None", "instagram": "None", "facebook": "None", "youtube": "None", "website": "None", "summary": "None", "logo": "None", "latitude": 43.000406700603605, "longitude": -82.35872197777063}, "859643405RR0001": {"name": "Huron Campus Ministry Guelph", "designationCode": "C", "categoryCode": "43", "address": "RAITHBY HOUSE                 UNIVERSITY OF GUELPH", "city": "GUELPH", "province": "ON", "country": "CA", "postalCode": "N1G2W1", "twitter": "None", "instagram": "None", "facebook": "None", "youtube": "None", "website": "None", "summary": "None", "logo": "None", "latitude": 43.52788000000004, "longitude": -80.22310999999996}, "810603951RR0001": {"name": "Huron County Food Bank Distribution Centre", "designationCode": "C", "categoryCode": "09", "address": "BOX 266", "city": "CENTRALIA", "province": "ON", "country": "CA", "postalCode": "N0M1K0", "twitter": "None", "instagram": "None", "facebook": "None", "youtube": "None", "website": "None", "summary": "None", "logo": "None", "latitude": 43.283390000000054, "longitude": -81.46645999999998}, "751689092RR0001": {"name": "Huron Shores Hospice", "designationCode": "C", "categoryCode": "01", "address": "30 WEBSTER STREET             PO BOX 262", "city": "TIVERTON", "province": "ON", "country": "CA", "postalCode": "N0G2T0", "twitter": "None", "instagram": "None", "facebook": "None", "youtube": "None", "website": "None", "summary": "None", "logo": "None", "latitude": 44.26469555978435, "longitude": -81.5426147549482}, "890875727RR0001": {"name": "Huronia Communities Foundation", "designationCode": "A", "categoryCode": "03", "address": "PO BOX 324", "city": "MIDLAND", "province": "ON", "country": "CA", "postalCode": "L4R4L1", "twitter": "None", "instagram": "None", "facebook": "None", "youtube": "None", "website": "None", "summary": "None", "logo": "None", "latitude": 44.74989600000005, "longitude": -79.88850349999993}, "818198764RR0001": {"name": "Huronia Cultural Campus", "designationCode": "C", "categoryCode": "22", "address": "BOX 2525, 22 PETER ST S", "city": "ORILLIA", "province": "ON", "country": "CA", "postalCode": "L3V7A3", "twitter": "None", "instagram": "None", "facebook": "None", "youtube": "None", "website": "None", "summary": "None", "logo": "None", "latitude": 44.60864195703894, "longitude": -79.41719862651355}, "844076505RR0001": {"name": "Huronia Land Conservancy", "designationCode": "C", "categoryCode": "59", "address": "PO BOX 11 STN MAIN", "city": "MIDLAND", "province": "ON", "country": "CA", "postalCode": "L4R4K6", "twitter": "None", "instagram": "None", "facebook": "None", "youtube": "None", "website": "None", "summary": "None", "logo": "None", "latitude": 44.74989600000005, "longitude": -79.88850349999993}, "830771770RR0001": {"name": "Huruma Children's Trust (Canada)", "designationCode": "C", "categoryCode": "01", "address": "165 4TH STREET EAST", "city": "COLLINGWOOD", "province": "ON", "country": "CA", "postalCode": "L9Y1T9", "twitter": "None", "instagram": "None", "facebook": "None", "youtube": "None", "website": "None", "summary": "None", "logo": "None", "latitude": 44.49797215072985, "longitude": -80.2110777320387}, "857480495RR0001": {"name": "Huskie Hockey Scholarship Foundation Inc.", "designationCode": "C", "categoryCode": "21", "address": "119 - 4TH AVENUE SOUTH        #800", "city": "SASKATOON", "province": "SK", "country": "CA", "postalCode": "S7K5X2", "twitter": "None", "instagram": "None", "facebook": "None", "youtube": "None", "website": "None", "summary": "None", "logo": "None", "latitude": 52.12717188426912, "longitude": -106.66091634725001}}