{"862786373RR0001": {"name": "Renaissance Lac Brome / Renaissance Brome Lake", "designationCode": "C", "categoryCode": "52", "address": "756, CHAMIN LAKESIDE          CASIER POSTAL 2001", "city": "LAC-BROME", "province": "QC", "country": "CA", "postalCode": "J0E1R0", "twitter": "None", "instagram": "None", "facebook": "None", "youtube": "None", "website": "None", "summary": "None", "logo": "None", "latitude": 45.28636716385955, "longitude": -72.50422218750805}, "741278923RR0001": {"name": "Rendezvous Church", "designationCode": "C", "categoryCode": "31", "address": "1483 QUEEN ST W", "city": "TORONTO", "province": "ON", "country": "CA", "postalCode": "M6R1A1", "twitter": "None", "instagram": "None", "facebook": "None", "youtube": "None", "website": "None", "summary": "None", "logo": "None", "latitude": 43.639987736597675, "longitude": -79.43949859172488}, "823208244RR0001": {"name": "Renewed Hope Church of God Ltd.", "designationCode": "C", "categoryCode": "39", "address": "1411 LOCH LOMOND", "city": "SAINT JOHN", "province": "NB", "country": "CA", "postalCode": "E2J1Z8", "twitter": "None", "instagram": "None", "facebook": "None", "youtube": "None", "website": "None", "summary": "None", "logo": "None", "latitude": 45.3051571423913, "longitude": -65.98803591508445}, "817652563RR0001": {"name": "Renewed Life Ministries Inc.", "designationCode": "C", "categoryCode": "39", "address": "PO BOX 487", "city": "HUMBOLDT", "province": "SK", "country": "CA", "postalCode": "S0K2A0", "twitter": "None", "instagram": "None", "facebook": "None", "youtube": "None", "website": "None", "summary": "None", "logo": "None", "latitude": 51.7871843348964, "longitude": -104.71638483007007}, "817093594RR0001": {"name": "Renewing Life Ministries", "designationCode": "B", "categoryCode": "39", "address": "215 COUNTY RD 34              RR 1", "city": "ESSEX", "province": "ON", "country": "CA", "postalCode": "N8M2X5", "twitter": "None", "instagram": "None", "facebook": "None", "youtube": "None", "website": "None", "summary": "None", "logo": "None", "latitude": 42.16856832961743, "longitude": -82.81307460833196}, "777625492RR0001": {"name": "Renfrew Educational Services Foundation", "designationCode": "A", "categoryCode": "23", "address": "2050 21 ST NE", "city": "CALGARY", "province": "AB", "country": "CA", "postalCode": "T2E6S5", "twitter": "None", "instagram": "None", "facebook": "None", "youtube": "None", "website": "None", "summary": "None", "logo": "None", "latitude": 51.069518580904855, "longitude": -114.00901876421037}, "119115707RR0001": {"name": "Renison University College", "designationCode": "C", "categoryCode": "20", "address": "240 WESTMOUNT RD N", "city": "WATERLOO", "province": "ON", "country": "CA", "postalCode": "N2L3G4", "twitter": "None", "instagram": "None", "facebook": "None", "youtube": "None", "website": "None", "summary": "None", "logo": "None", "latitude": 43.468146991170514, "longitude": -80.54808783322825}, "803669266RR0001": {"name": "Rent-A-Youth Resource Centre", "designationCode": "C", "categoryCode": "09", "address": "172 MILL ST                   BOX 2052", "city": "CREEMORE", "province": "ON", "country": "CA", "postalCode": "L0M1G0", "twitter": "None", "instagram": "None", "facebook": "None", "youtube": "None", "website": "None", "summary": "None", "logo": "None", "latitude": 44.32626590951586, "longitude": -80.10599726106504}, "837209113RR0001": {"name": "Reptilia Education and Conservation Foundation", "designationCode": "A", "categoryCode": "23", "address": "2501 RUTHERFORD ROAD", "city": "VAUGHAN", "province": "ON", "country": "CA", "postalCode": "L4K2N6", "twitter": "None", "instagram": "None", "facebook": "None", "youtube": "None", "website": "None", "summary": "None", "logo": "None", "latitude": 43.834056855906596, "longitude": -79.51938766599328}, "815503495RR0001": {"name": "Resa's Pieces", "designationCode": "C", "categoryCode": "22", "address": "307 GLENAYR RD", "city": "TORONTO", "province": "ON", "country": "CA", "postalCode": "M5P3C6", "twitter": "None", "instagram": "None", "facebook": "None", "youtube": "None", "website": "None", "summary": "None", "logo": "None", "latitude": 43.696152628368615, "longitude": -79.41961833123676}, "749112520RR0001": {"name": "Rescue Foodie", "designationCode": "C", "categoryCode": "54", "address": "36 EDGECROFT RD", "city": "ETOBICOKE", "province": "ON", "country": "CA", "postalCode": "M8Z2B6", "twitter": "None", "instagram": "None", "facebook": "None", "youtube": "None", "website": "None", "summary": "None", "logo": "None", "latitude": 43.62942018347844, "longitude": -79.50845631294355}, "856795067RR0001": {"name": "Rescue Ministries", "designationCode": "C", "categoryCode": "49", "address": "538 CRIMSON COURT", "city": "OSHAWA", "province": "ON", "country": "CA", "postalCode": "L1J8E2", "twitter": "None", "instagram": "None", "facebook": "None", "youtube": "None", "website": "None", "summary": "None", "logo": "None", "latitude": 43.90375759893824, "longitude": -78.90364554596322}, "846368025RR0001": {"name": "Rescue 100 Horses Foundation", "designationCode": "C", "categoryCode": "54", "address": "RR2", "city": "MILLET", "province": "AB", "country": "CA", "postalCode": "T0C1Z0", "twitter": "None", "instagram": "None", "facebook": "None", "youtube": "None", "website": "None", "summary": "None", "logo": "None", "latitude": 53.09068000000008, "longitude": -113.46958999999998}, "888455862RR0001": {"name": "Research St. Joseph's - Hamilton", "designationCode": "C", "categoryCode": "11", "address": "50 CHARLTON AVENUE EAST", "city": "HAMILTON", "province": "ON", "country": "CA", "postalCode": "L8N4A6", "twitter": "None", "instagram": "None", "facebook": "None", "youtube": "None", "website": "None", "summary": "None", "logo": "None", "latitude": 43.24918190034062, "longitude": -79.8696584834958}, "851102707RR0001": {"name": "Research-Based Autism Intervention, Support and Education (RAISE) Society", "designationCode": "C", "categoryCode": "11", "address": "4360 CANTERBURY CRES", "city": "NORTH VANCOUVER", "province": "BC", "country": "CA", "postalCode": "V7R3N6", "twitter": "None", "instagram": "None", "facebook": "None", "youtube": "None", "website": "None", "summary": "None", "logo": "None", "latitude": 49.34987220483006, "longitude": -123.09171194390923}, "827519950RR0001": {"name": "Residences at St. Andrew's Georgetown Corporation", "designationCode": "C", "categoryCode": "09", "address": "220 SINCLAIR AVE", "city": "GEORGETOWN", "province": "ON", "country": "CA", "postalCode": "L7G4T9", "twitter": "None", "instagram": "None", "facebook": "None", "youtube": "None", "website": "None", "summary": "None", "logo": "None", "latitude": 43.646477762966, "longitude": -79.89618662362378}, "142537612RR0001": {"name": "Residences St-Fr\u00e9d\u00e9ric Inc.", "designationCode": "C", "categoryCode": "09", "address": "50 RUE DU PONT", "city": "DRUMMONDVILLE", "province": "QC", "country": "CA", "postalCode": "J2C6B9", "twitter": "None", "instagram": "None", "facebook": "None", "youtube": "None", "website": "None", "summary": "None", "logo": "None", "latitude": 45.88562997694628, "longitude": -72.48697715404805}, "831877105RR0001": {"name": "Residential Hospice of Grey-Bruce Inc.", "designationCode": "C", "categoryCode": "01", "address": "1725 10TH ST E", "city": "OWEN SOUND", "province": "ON", "country": "CA", "postalCode": "N4K0G5", "twitter": "None", "instagram": "None", "facebook": "None", "youtube": "None", "website": "None", "summary": "None", "logo": "None", "latitude": 44.57203172075707, "longitude": -80.91352050428678}, "845588052RR0001": {"name": "Resilient Communities Resource Society of Canada 2009", "designationCode": "C", "categoryCode": "20", "address": "34627 4TH AVE", "city": "ABBOTSFORD", "province": "BC", "country": "CA", "postalCode": "V2S8B8", "twitter": "None", "instagram": "None", "facebook": "None", "youtube": "None", "website": "None", "summary": "None", "logo": "None", "latitude": 49.00612207959135, "longitude": -122.26461418713059}, "833805906RR0001": {"name": "Resist Exploitation, Embrace Dignity Society", "designationCode": "C", "categoryCode": "09", "address": "998 19TH AVE E", "city": "VANCOUVER", "province": "BC", "country": "CA", "postalCode": "V5V1K7", "twitter": "None", "instagram": "None", "facebook": "None", "youtube": "None", "website": "None", "summary": "None", "logo": "None", "latitude": 49.25364647013695, "longitude": -123.08438186081135}, "807729926RR0001": {"name": "Resources for Equitable Opportunity Inc. Ressources pour l'\u00e9quit\u00e9 de l'opportunit\u00e9 inc.", "designationCode": "B", "categoryCode": "03", "address": "2 AV HILLSIDE", "city": "POINTE-CLAIRE", "province": "QC", "country": "CA", "postalCode": "H9S5E2", "twitter": "None", "instagram": "None", "facebook": "None", "youtube": "None", "website": "None", "summary": "None", "logo": "None", "latitude": 45.440084714120886, "longitude": -73.80409445216087}, "837270370RR0001": {"name": "Respect Haiti Relief Corporation", "designationCode": "C", "categoryCode": "02", "address": "504 - 80 MARINE PARADE DR", "city": "ETOBICOKE", "province": "ON", "country": "CA", "postalCode": "M8V0A3", "twitter": "None", "instagram": "None", "facebook": "None", "youtube": "None", "website": "None", "summary": "None", "logo": "None", "latitude": 43.62631114071785, "longitude": -79.47694528937022}, "833885437RR0001": {"name": "Respiratory Therapists Without Borders / Inhaloth\u00e9rapeutes Sans Fronti\u00e8res", "designationCode": "C", "categoryCode": "11", "address": "1 BELLEVILLE ST.", "city": "TORONTO", "province": "ON", "country": "CA", "postalCode": "M4E3X9", "twitter": "None", "instagram": "None", "facebook": "None", "youtube": "None", "website": "None", "summary": "None", "logo": "None", "latitude": 43.68673585316529, "longitude": -79.29182604607878}, "809868110RR0001": {"name": "Respond Search and Rescue Ontario", "designationCode": "C", "categoryCode": "59", "address": "128 QUEEN ST S                BOX 42175", "city": "MISSISSAUGA", "province": "ON", "country": "CA", "postalCode": "L5M1K8", "twitter": "None", "instagram": "None", "facebook": "None", "youtube": "None", "website": "None", "summary": "None", "logo": "None", "latitude": 43.58333477961806, "longitude": -79.7160299705983}, "756009692RR0001": {"name": "Ressource alternative en sant\u00e9 mentale dans La Petite-Patrie", "designationCode": "C", "categoryCode": "11", "address": "6510 RUE DE SAINT-VALLIER", "city": "MONTREAL", "province": "QC", "country": "CA", "postalCode": "H2S2P7", "twitter": "None", "instagram": "None", "facebook": "None", "youtube": "None", "website": "None", "summary": "None", "logo": "None", "latitude": 45.535090767961286, "longitude": -73.60508598280332}, "823661111RR0001": {"name": "Ressource r\u00e9sidentielle de la dystrophie musculaire", "designationCode": "C", "categoryCode": "09", "address": "385 70E RUE E", "city": "QUEBEC", "province": "QC", "country": "CA", "postalCode": "G1H1N8", "twitter": "None", "instagram": "None", "facebook": "None", "youtube": "None", "website": "None", "summary": "None", "logo": "None", "latitude": 46.85875241799865, "longitude": -71.2582243050377}, "815853452RR0001": {"name": "Ressourcement spirituel de Rimouski (RESPIR)", "designationCode": "C", "categoryCode": "49", "address": "373 AV DE LA CATHEDRALE", "city": "RIMOUSKI", "province": "QC", "country": "CA", "postalCode": "G5L5K8", "twitter": "None", "instagram": "None", "facebook": "None", "youtube": "None", "website": "None", "summary": "None", "logo": "None", "latitude": 48.443522692711944, "longitude": -68.51542970433911}, "143298842RR0001": {"name": "Ressourcerie Transition inc.", "designationCode": "C", "categoryCode": "59", "address": "196 RUE DORION", "city": "DRUMMONDVILLE", "province": "QC", "country": "CA", "postalCode": "J2C1T9", "twitter": "None", "instagram": "None", "facebook": "None", "youtube": "None", "website": "None", "summary": "None", "logo": "None", "latitude": 45.88370555759133, "longitude": -72.49121856480467}, "825700552RR0001": {"name": "Ressources Communautaires Sophie", "designationCode": "C", "categoryCode": "09", "address": "3458 ROUTE PRINCIPALE", "city": "WENTWORTH-NORD", "province": "QC", "country": "CA", "postalCode": "J0T1Y0", "twitter": "None", "instagram": "None", "facebook": "None", "youtube": "None", "website": "None", "summary": "None", "logo": "None", "latitude": 45.84838155314791, "longitude": -74.45692837526673}, "808620397RR0001": {"name": "Rest Haven Foundation", "designationCode": "A", "categoryCode": "13", "address": "2281 MILLS RD", "city": "SIDNEY", "province": "BC", "country": "CA", "postalCode": "V8L2C3", "twitter": "None", "instagram": "None", "facebook": "None", "youtube": "None", "website": "None", "summary": "None", "logo": "None", "latitude": 48.65531452784385, "longitude": -123.40478216472387}, "812014793RR0001": {"name": "Restaurant Populaire", "designationCode": "C", "categoryCode": "09", "address": "5 - 59 RUE MONFETTE", "city": "VICTORIAVILLE", "province": "QC", "country": "CA", "postalCode": "G6P1J8", "twitter": "None", "instagram": "None", "facebook": "None", "youtube": "None", "website": "None", "summary": "None", "logo": "None", "latitude": 46.06164779188039, "longitude": -71.9668892342031}, "857237002RR0001": {"name": "Restor International Inc.", "designationCode": "C", "categoryCode": "11", "address": "PO BOX 25066                  MISSION PARK PO", "city": "KELOWNA", "province": "BC", "country": "CA", "postalCode": "V1W3Y7", "twitter": "None", "instagram": "None", "facebook": "None", "youtube": "None", "website": "None", "summary": "None", "logo": "None", "latitude": 49.82063000000005, "longitude": -119.47531999999995}, "800753410RR0001": {"name": "Restoration Christian Family Centre", "designationCode": "C", "categoryCode": "39", "address": "115 LAMBTON STREET WEST       P.O. BOX 131", "city": "DURHAM", "province": "ON", "country": "CA", "postalCode": "N0G1R0", "twitter": "None", "instagram": "None", "facebook": "None", "youtube": "None", "website": "None", "summary": "None", "logo": "None", "latitude": 44.17625758728148, "longitude": -80.81877981917596}, "131952376RR0010": {"name": "Restoration Christian Ministries", "designationCode": "C", "categoryCode": "39", "address": "13-1110 FINCH AVENUE WEST", "city": "TORONTO", "province": "ON", "country": "CA", "postalCode": "M3J2T2", "twitter": "None", "instagram": "None", "facebook": "None", "youtube": "None", "website": "None", "summary": "None", "logo": "None", "latitude": 43.76734113413874, "longitude": -79.473816908448}, "857066153RR0001": {"name": "Restoration Church", "designationCode": "C", "categoryCode": "39", "address": "P.O. BOX 45584                RPO CHAPMAN MILLS", "city": "NEPEAN", "province": "ON", "country": "CA", "postalCode": "K2J0P9", "twitter": "None", "instagram": "None", "facebook": "None", "youtube": "None", "website": "None", "summary": "None", "logo": "None", "latitude": 45.27419999075136, "longitude": -75.71822008894537}, "816514525RR0001": {"name": "Restoration House of Jesus Christ Ministries", "designationCode": "C", "categoryCode": "39", "address": "55 STEPHENSON ROAD,", "city": "BRANTFORD", "province": "ON", "country": "CA", "postalCode": "N3S0B2", "twitter": "None", "instagram": "None", "facebook": "None", "youtube": "None", "website": "None", "summary": "None", "logo": "None", "latitude": 43.14810997305114, "longitude": -80.20116003026708}, "812835171RR0001": {"name": "Restoration House Swift Current", "designationCode": "C", "categoryCode": "39", "address": "321 NORTH RAILWAY ST E", "city": "SWIFT CURRENT", "province": "SK", "country": "CA", "postalCode": "S9H1C6", "twitter": "None", "instagram": "None", "facebook": "None", "youtube": "None", "website": "None", "summary": "None", "logo": "None", "latitude": 50.28211132084419, "longitude": -107.795620665203}, "808159156RR0001": {"name": "Restoration Ministries: Caring for the Heart", "designationCode": "C", "categoryCode": "49", "address": "4215-83 STREET NW", "city": "EDMONTON", "province": "AB", "country": "CA", "postalCode": "T6K1C8", "twitter": "None", "instagram": "None", "facebook": "None", "youtube": "None", "website": "None", "summary": "None", "logo": "None", "latitude": 53.47922668166076, "longitude": -113.45601002536233}, "817614779RR0001": {"name": "Restorations Second Stage Homes", "designationCode": "C", "categoryCode": "09", "address": "31-310 FALL FAIR WAY", "city": "BINBROOK", "province": "ON", "country": "CA", "postalCode": "L0R1C0", "twitter": "None", "instagram": "None", "facebook": "None", "youtube": "None", "website": "None", "summary": "None", "logo": "None", "latitude": 43.123353590339896, "longitude": -79.81212684147988}, "846356509RR0001": {"name": "Restorative Justice Society - North Okanagan", "designationCode": "C", "categoryCode": "59", "address": "974 MT BULMAN DR", "city": "VERNON", "province": "BC", "country": "CA", "postalCode": "V1B2Z1", "twitter": "None", "instagram": "None", "facebook": "None", "youtube": "None", "website": "None", "summary": "None", "logo": "None", "latitude": 50.24323507550916, "longitude": -119.25922775411148}, "822007381RR0001": {"name": "Restore Method of Care Canada", "designationCode": "C", "categoryCode": "59", "address": "175 ANDERSON AVE", "city": "MARKHAM", "province": "ON", "country": "CA", "postalCode": "L6E1A4", "twitter": "None", "instagram": "None", "facebook": "None", "youtube": "None", "website": "None", "summary": "None", "logo": "None", "latitude": 43.903753564256405, "longitude": -79.26451518088228}, "837730886RR0001": {"name": "Restore My Children Ministries", "designationCode": "C", "categoryCode": "39", "address": "66 BIDDENS SQ", "city": "BRAMPTON", "province": "ON", "country": "CA", "postalCode": "L6P3P9", "twitter": "None", "instagram": "None", "facebook": "None", "youtube": "None", "website": "None", "summary": "None", "logo": "None", "latitude": 43.801073339171275, "longitude": -79.6749178324775}, "825874332RR0001": {"name": "Restoring Hope to Cities Foundation", "designationCode": "C", "categoryCode": "49", "address": "P.O. BOX 769                  STN A", "city": "ABBOTSFORD", "province": "BC", "country": "CA", "postalCode": "V2T7A1", "twitter": "None", "instagram": "None", "facebook": "None", "youtube": "None", "website": "None", "summary": "None", "logo": "None", "latitude": 49.05161700000005, "longitude": -122.32930399999994}, "842147381RR0001": {"name": "Restoring Hope Inc.", "designationCode": "C", "categoryCode": "02", "address": "PO BOX 67", "city": "DUFFIELD", "province": "AB", "country": "CA", "postalCode": "T0E0N0", "twitter": "None", "instagram": "None", "facebook": "None", "youtube": "None", "website": "None", "summary": "None", "logo": "None", "latitude": 53.527630000000045, "longitude": -114.34564999999998}, "847605847RR0001": {"name": "Restoring Hope Ministries", "designationCode": "C", "categoryCode": "01", "address": "243 MEADOWBREEZE DR", "city": "KANATA", "province": "ON", "country": "CA", "postalCode": "K2M3A6", "twitter": "None", "instagram": "None", "facebook": "None", "youtube": "None", "website": "None", "summary": "None", "logo": "None", "latitude": 45.27373954567476, "longitude": -75.84870285027976}, "815428446RR0001": {"name": "Restoring Toronto Evangelical Community", "designationCode": "C", "categoryCode": "39", "address": "217-2386 HAINES ROAD", "city": "MISSISSAUGA", "province": "ON", "country": "CA", "postalCode": "L4Y1Y6", "twitter": "None", "instagram": "None", "facebook": "None", "youtube": "None", "website": "None", "summary": "None", "logo": "None", "latitude": 43.59307566521481, "longitude": -79.59055108987761}, "846964039RR0001": {"name": "Resurgence Initiatives Society", "designationCode": "C", "categoryCode": "47", "address": "PO BOX 4100 STN SOUTH CRO", "city": "EDMONTON", "province": "AB", "country": "CA", "postalCode": "T6E4S8", "twitter": "None", "instagram": "None", "facebook": "None", "youtube": "None", "website": "None", "summary": "None", "logo": "None", "latitude": 53.499354000000054, "longitude": -113.46577549999994}, "107910259RR0089": {"name": "Resurrection of Our Lord Jesus Christ Parish", "designationCode": "C", "categoryCode": "38", "address": "1 RESURRECTION RD", "city": "TORONTO", "province": "ON", "country": "CA", "postalCode": "M9A5G1", "twitter": "None", "instagram": "None", "facebook": "None", "youtube": "None", "website": "None", "summary": "None", "logo": "None", "latitude": 43.643364149604665, "longitude": -79.53092027918537}, "868735895RR0001": {"name": "Resurrection Christian Academy", "designationCode": "C", "categoryCode": "20", "address": "400 SPEEDVALE AVENUE EAST", "city": "GUELPH", "province": "ON", "country": "CA", "postalCode": "N1E1N9", "twitter": "None", "instagram": "None", "facebook": "None", "youtube": "None", "website": "None", "summary": "None", "logo": "None", "latitude": 43.56797022485402, "longitude": -80.25516190235982}, "824162788RR0001": {"name": "Resurrection Church", "designationCode": "C", "categoryCode": "39", "address": "126 SHERBROOKE AVE", "city": "OTTAWA", "province": "ON", "country": "CA", "postalCode": "K1Y1R9", "twitter": "None", "instagram": "None", "facebook": "None", "youtube": "None", "website": "None", "summary": "None", "logo": "None", "latitude": 45.39933008436729, "longitude": -75.72355970915787}, "732013099RR0001": {"name": "Resurrection Lutheran Church of Lethbridge", "designationCode": "C", "categoryCode": "39", "address": "55 HERITAGE LANE W", "city": "LETHBRIDGE", "province": "AB", "country": "CA", "postalCode": "T1K7S4", "twitter": "None", "instagram": "None", "facebook": "None", "youtube": "None", "website": "None", "summary": "None", "logo": "None", "latitude": 49.69713246768411, "longitude": -112.88430171856429}, "107890139RR0001": {"name": "Retreat and Camp Corporation of Essex Presbytery, The United Church of Canada", "designationCode": "C", "categoryCode": "56", "address": "P.O. BOX 44", "city": "ESSEX", "province": "ON", "country": "CA", "postalCode": "N8M2Y1", "twitter": "None", "instagram": "None", "facebook": "None", "youtube": "None", "website": "None", "summary": "None", "logo": "None", "latitude": 42.17281800000005, "longitude": -82.81968199999993}, "829294214RR0001": {"name": "Retrouvaille Community of London St. Thomas", "designationCode": "C", "categoryCode": "49", "address": "353 SUNSET DR", "city": "ST THOMAS", "province": "ON", "country": "CA", "postalCode": "N5R3C6", "twitter": "None", "instagram": "None", "facebook": "None", "youtube": "None", "website": "None", "summary": "None", "logo": "None", "latitude": 42.74532393699963, "longitude": -81.1920174430085}, "803753532RR0001": {"name": "Retrouvaille Vancouver Society", "designationCode": "C", "categoryCode": "49", "address": "5 - 7177 179 ST", "city": "SURREY", "province": "BC", "country": "CA", "postalCode": "V3S8C5", "twitter": "None", "instagram": "None", "facebook": "None", "youtube": "None", "website": "None", "summary": "None", "logo": "None", "latitude": 49.132319238415356, "longitude": -122.72538357328744}, "824958920RR0001": {"name": "Returning to Spirit - Residential School Reconciliation Inc.", "designationCode": "C", "categoryCode": "09", "address": "3-4820 PORTAGE AVE", "city": "HEADINGLEY", "province": "MB", "country": "CA", "postalCode": "R4H1C8", "twitter": "None", "instagram": "None", "facebook": "None", "youtube": "None", "website": "None", "summary": "None", "logo": "None", "latitude": 49.875623325728576, "longitude": -97.37409730328048}, "812163087RR0001": {"name": "Rev. C.F. Johnston Foundation", "designationCode": "B", "categoryCode": "03", "address": "108 ASTORIA AVE.", "city": "POINTE CLAIRE", "province": "QC", "country": "CA", "postalCode": "H9S5A8", "twitter": "None", "instagram": "None", "facebook": "None", "youtube": "None", "website": "None", "summary": "None", "logo": "None", "latitude": 45.43552262366542, "longitude": -73.80970585916656}, "830758074RR0001": {"name": "Revelstoke Crime Stoppers Society", "designationCode": "C", "categoryCode": "59", "address": "PO BOX 816", "city": "REVELSTOKE", "province": "BC", "country": "CA", "postalCode": "V0E2S0", "twitter": "None", "instagram": "None", "facebook": "None", "youtube": "None", "website": "None", "summary": "None", "logo": "None", "latitude": 52.00738183978388, "longitude": -118.56208529545198}, "854780202RR0001": {"name": "Revelstoke Visual Arts Society", "designationCode": "C", "categoryCode": "56", "address": "320 WILSON ST                 PO BOX 2655", "city": "REVELSTOKE", "province": "BC", "country": "CA", "postalCode": "V0E2S0", "twitter": "None", "instagram": "None", "facebook": "None", "youtube": "None", "website": "None", "summary": "None", "logo": "None", "latitude": 50.81804158891046, "longitude": -119.68949125903335}, "704294123RR0001": {"name": "Reverent Church", "designationCode": "C", "categoryCode": "39", "address": "43 PORTCHESTER GATE", "city": "STILLWATER LAKE", "province": "NS", "country": "CA", "postalCode": "B3Z1G4", "twitter": "None", "instagram": "None", "facebook": "None", "youtube": "None", "website": "None", "summary": "None", "logo": "None", "latitude": 44.70691195224777, "longitude": -63.843040582289824}, "802869552RR0001": {"name": "Revival Christian Fellowship (Ottawa)", "designationCode": "C", "categoryCode": "39", "address": "163 BELL ST N, PO BOX 57033   SOMERSET WEST PO", "city": "OTTAWA", "province": "ON", "country": "CA", "postalCode": "K1R7E1", "twitter": "None", "instagram": "None", "facebook": "None", "youtube": "None", "website": "None", "summary": "None", "logo": "None"}, "859544892RR0001": {"name": "Revival Glory Ministries", "designationCode": "C", "categoryCode": "39", "address": "16 NORTHCLIFFE ST", "city": "BRAMPTON", "province": "ON", "country": "CA", "postalCode": "L6S4E4", "twitter": "None", "instagram": "None", "facebook": "None", "youtube": "None", "website": "None", "summary": "None", "logo": "None", "latitude": 43.73140253733622, "longitude": -79.75289862851282}, "832038095RR0001": {"name": "Revival Harvest Church", "designationCode": "C", "categoryCode": "39", "address": "1970 TOURANGEAU RD", "city": "WINDSOR", "province": "ON", "country": "CA", "postalCode": "N8W4N3", "twitter": "None", "instagram": "None", "facebook": "None", "youtube": "None", "website": "None", "summary": "None", "logo": "None", "latitude": 42.30664977352988, "longitude": -82.97525513194664}, "811469832RR0001": {"name": "Revival Pioneers Ministry International", "designationCode": "C", "categoryCode": "39", "address": "10029 WHALLEY BLVD", "city": "SURREY", "province": "BC", "country": "CA", "postalCode": "V3T4G1", "twitter": "None", "instagram": "None", "facebook": "None", "youtube": "None", "website": "None", "summary": "None", "logo": "None", "latitude": 49.18482884175998, "longitude": -122.84328297778269}, "814968889RR0001": {"name": "Revive Nations", "designationCode": "C", "categoryCode": "39", "address": "103 - 650 BOUL MARCEL-LAURIN", "city": "SAINT-LAURENT", "province": "QC", "country": "CA", "postalCode": "H4M0A1", "twitter": "None", "instagram": "None", "facebook": "None", "youtube": "None", "website": "None", "summary": "None", "logo": "None", "latitude": 45.50575251843744, "longitude": -73.6812866034103}, "806104451RR0001": {"name": "Revolution Church Society", "designationCode": "C", "categoryCode": "39", "address": "5418 GREENTREE RD", "city": "WEST VANCOUVER", "province": "BC", "country": "CA", "postalCode": "V7W1N4", "twitter": "None", "instagram": "None", "facebook": "None", "youtube": "None", "website": "None", "summary": "None", "logo": "None", "latitude": 49.35033500859835, "longitude": -123.26395376545113}, "848562237RR0001": {"name": "Revolution Youth Theatre", "designationCode": "C", "categoryCode": "22", "address": "840 SOUTH PACIFIC AVENUE", "city": "WINDSOR", "province": "ON", "country": "CA", "postalCode": "N8X2X2", "twitter": "None", "instagram": "None", "facebook": "None", "youtube": "None", "website": "None", "summary": "None", "logo": "None", "latitude": 42.29006150432783, "longitude": -83.00643249708581}, "123925679RR0001": {"name": "Revue d'art contemporain ETC inc.", "designationCode": "C", "categoryCode": "22", "address": "CP 660", "city": "PREVOST", "province": "QC", "country": "CA", "postalCode": "J0R1T0", "twitter": "None", "instagram": "None", "facebook": "None", "youtube": "None", "website": "None", "summary": "None", "logo": "None", "latitude": 45.874615787589505, "longitude": -74.08614673833272}, "819568429RR0001": {"name": "Rexdale Church of Christ", "designationCode": "C", "categoryCode": "39", "address": "29 REVELSTOKE PLACE", "city": "BRAMPTON", "province": "ON", "country": "CA", "postalCode": "L6R3G3", "twitter": "None", "instagram": "None", "facebook": "None", "youtube": "None", "website": "None", "summary": "None", "logo": "None", "latitude": 43.76910854538631, "longitude": -79.73294688799135}, "824684443RR0001": {"name": "Rexdale Community Hub", "designationCode": "C", "categoryCode": "56", "address": "21 PANORAMA CRT", "city": "ETOBICOKE", "province": "ON", "country": "CA", "postalCode": "M9V4E3", "twitter": "None", "instagram": "None", "facebook": "None", "youtube": "None", "website": "None", "summary": "None", "logo": "None", "latitude": 43.74672253173897, "longitude": -79.58154027976228}, "859247298RR0001": {"name": "Rexdale Jame Masjid", "designationCode": "C", "categoryCode": "60", "address": "107-127 WESTMORE DRIVE", "city": "TORONTO", "province": "ON", "country": "CA", "postalCode": "M9V3Y6", "twitter": "None", "instagram": "None", "facebook": "None", "youtube": "None", "website": "None", "summary": "None", "logo": "None", "latitude": 43.73575311881798, "longitude": -79.60147733265133}, "835313891RR0001": {"name": "Rexton Area Health Care Foundation Inc.", "designationCode": "A", "categoryCode": "19", "address": "33 MAIN ST", "city": "REXTON", "province": "NB", "country": "CA", "postalCode": "E4W0E5", "twitter": "None", "instagram": "None", "facebook": "None", "youtube": "None", "website": "None", "summary": "None", "logo": "None", "latitude": 46.65981584025507, "longitude": -64.87568990141207}, "119106409RR0001": {"name": "Reynolds Creek United Church", "designationCode": "C", "categoryCode": "44", "address": "254 KENSINGTON AV", "city": "INGERSOLL", "province": "ON", "country": "CA", "postalCode": "N5C2B3", "twitter": "None", "instagram": "None", "facebook": "None", "youtube": "None", "website": "None", "summary": "None", "logo": "None", "latitude": 43.049169324456095, "longitude": -80.88425976045946}, "845793991RR0001": {"name": "ReForest London", "designationCode": "C", "categoryCode": "52", "address": "PO BOX 25144", "city": "LONDON", "province": "ON", "country": "CA", "postalCode": "N6C6A9", "twitter": "None", "instagram": "None", "facebook": "None", "youtube": "None", "website": "None", "summary": "None", "logo": "None", "latitude": 42.98689500000006, "longitude": -81.24624349999993}, "820812311RR0001": {"name": "ReFrame Peterborough International Film Festival", "designationCode": "C", "categoryCode": "22", "address": "P.O. BOX 895", "city": "PETERBOROUGH", "province": "ON", "country": "CA", "postalCode": "K9J7A2", "twitter": "None", "instagram": "None", "facebook": "None", "youtube": "None", "website": "None", "summary": "None", "logo": "None", "latitude": 44.30591700000005, "longitude": -78.31950199999993}, "813810355RR0001": {"name": "Rhema Chapel of the Redeemed Christian Church of God, Edmonton, Alberta", "designationCode": "C", "categoryCode": "39", "address": "10830 96 ST NW", "city": "EDMONTON", "province": "AB", "country": "CA", "postalCode": "T5H2J9", "twitter": "None", "instagram": "None", "facebook": "None", "youtube": "None", "website": "None", "summary": "None", "logo": "None", "latitude": 53.554753289197336, "longitude": -113.48745844953514}, "775791494RR0001": {"name": "Rhema Food Bank Ltd.", "designationCode": "C", "categoryCode": "09", "address": "10830 96 ST NW", "city": "EDMONTON", "province": "AB", "country": "CA", "postalCode": "T5H2J9", "twitter": "None", "instagram": "None", "facebook": "None", "youtube": "None", "website": "None", "summary": "None", "logo": "None", "latitude": 53.554753289197336, "longitude": -113.48745844953514}, "847490091RR0001": {"name": "Rhema Power of Grace Chapel International", "designationCode": "C", "categoryCode": "39", "address": "350 DEERHIDE CRES", "city": "NORTH YORK", "province": "ON", "country": "CA", "postalCode": "M9M2Y6", "twitter": "None", "instagram": "None", "facebook": "None", "youtube": "None", "website": "None", "summary": "None", "logo": "None", "latitude": 43.74850827811752, "longitude": -79.53438867413027}, "770201291RR0001": {"name": "Rhodes Scholarships in Canada", "designationCode": "C", "categoryCode": "21", "address": "3910-66 WELLINGTON STREET W   PO BOX 142", "city": "TORONTO", "province": "ON", "country": "CA", "postalCode": "M5K1H1", "twitter": "None", "instagram": "None", "facebook": "None", "youtube": "None", "website": "None", "summary": "None", "logo": "None", "latitude": 43.647055248975605, "longitude": -79.38109901041601}, "856422449RR0001": {"name": "Rhythm of the Rockies Chorus Society", "designationCode": "C", "categoryCode": "22", "address": "83 RIVERSIDE WAY SE", "city": "CALGARY", "province": "AB", "country": "CA", "postalCode": "T2C3V8", "twitter": "None", "instagram": "None", "facebook": "None", "youtube": "None", "website": "None", "summary": "None", "logo": "None", "latitude": 50.98259865528882, "longitude": -114.02464388357662}, "893341172RR0001": {"name": "Riceville-Pendleton Pastoral Charge", "designationCode": "C", "categoryCode": "44", "address": "3036 CLEMENS ROAD,R.R.#1", "city": "FOURNIER", "province": "ON", "country": "CA", "postalCode": "K0B1G0", "twitter": "None", "instagram": "None", "facebook": "None", "youtube": "None", "website": "None", "summary": "None", "logo": "None", "latitude": 45.43205113528256, "longitude": -74.95331842712508}, "810988725RR0001": {"name": "Richa & Atul Aggarwal Foundation", "designationCode": "B", "categoryCode": "03", "address": "8 MILLCREEK COURT", "city": "OTTAWA", "province": "ON", "country": "CA", "postalCode": "K2G6Y7", "twitter": "None", "instagram": "None", "facebook": "None", "youtube": "None", "website": "None", "summary": "None", "logo": "None", "latitude": 45.28380894613094, "longitude": -75.70122503678796}, "816665400RR0001": {"name": "Richard and Agnes Corriveau Foundation", "designationCode": "B", "categoryCode": "03", "address": "148 MACCORMACK RD", "city": "MARTENSVILLE", "province": "SK", "country": "CA", "postalCode": "S0K0A2", "twitter": "None", "instagram": "None", "facebook": "None", "youtube": "None", "website": "None", "summary": "None", "logo": "None", "latitude": 52.287702488279464, "longitude": -106.6517591294215}, "119118529RR0001": {"name": "Richard and Edith Strauss Foundation / Fondation de Richard et Edith Strauss", "designationCode": "B", "categoryCode": "03", "address": "SUITE 700                     2000 PEEL STREET", "city": "MONTREAL", "province": "QC", "country": "CA", "postalCode": "H3A2W5", "twitter": "None", "instagram": "None", "facebook": "None", "youtube": "None", "website": "None", "summary": "None", "logo": "None", "latitude": 45.50097208433863, "longitude": -73.57500697478189}, "855009486RR0001": {"name": "Richard and Shelley Baker Family Foundation", "designationCode": "B", "categoryCode": "03", "address": "48 TALLWOOD ROAD", "city": "LONDON", "province": "ON", "country": "CA", "postalCode": "N5X2S1", "twitter": "None", "instagram": "None", "facebook": "None", "youtube": "None", "website": "None", "summary": "None", "logo": "None", "latitude": 43.0181980232162, "longitude": -81.27138112878774}, "853819712RR0001": {"name": "Richard Barnabe Foundation Inc.", "designationCode": "B", "categoryCode": "03", "address": "P.O. BOX 263", "city": "LETELLIER", "province": "MB", "country": "CA", "postalCode": "R0G1C0", "twitter": "None", "instagram": "None", "facebook": "None", "youtube": "None", "website": "None", "summary": "None", "logo": "None", "latitude": 49.13476000000003, "longitude": -97.30428999999998}, "730613528RR0001": {"name": "Richard McBride Parent Advisory Council", "designationCode": "C", "categoryCode": "21", "address": "907 KENT ST", "city": "NEW WESTMINSTER", "province": "BC", "country": "CA", "postalCode": "V3L4W7", "twitter": "None", "instagram": "None", "facebook": "None", "youtube": "None", "website": "None", "summary": "None", "logo": "None", "latitude": 49.233352001673445, "longitude": -122.89911245654694}, "841637556RR0001": {"name": "Richert Family Foundation", "designationCode": "B", "categoryCode": "03", "address": "505-4211 KINGSWAY", "city": "BURNABY", "province": "BC", "country": "CA", "postalCode": "V5H1Z6", "twitter": "None", "instagram": "None", "facebook": "None", "youtube": "None", "website": "None", "summary": "None", "logo": "None", "latitude": 49.23230381100505, "longitude": -123.0109238701624}, "825475965RR0001": {"name": "Richmond Canaan Church", "designationCode": "C", "categoryCode": "39", "address": "10606 MCLENNAN PL", "city": "RICHMOND", "province": "BC", "country": "CA", "postalCode": "V6X3G6", "twitter": "None", "instagram": "None", "facebook": "None", "youtube": "None", "website": "None", "summary": "None", "logo": "None", "latitude": 49.19334953430707, "longitude": -123.10620110646582}, "130565963RR0026": {"name": "Richmond Capstan Alliance Church", "designationCode": "C", "categoryCode": "39", "address": "3360 SEXSMITH ROAD", "city": "RICHMOND", "province": "BC", "country": "CA", "postalCode": "V6X2H8", "twitter": "None", "instagram": "None", "facebook": "None", "youtube": "None", "website": "None", "summary": "None", "logo": "None", "latitude": 49.18856433527614, "longitude": -123.12804144275539}, "796689693RR0001": {"name": "Richmond Chinese Christian Gospel Church", "designationCode": "C", "categoryCode": "39", "address": "606-4160 SARDIS ST", "city": "BURNABY", "province": "BC", "country": "CA", "postalCode": "V5H1K2", "twitter": "None", "instagram": "None", "facebook": "None", "youtube": "None", "website": "None", "summary": "None", "logo": "None", "latitude": 49.233949958540634, "longitude": -123.01201683136127}, "837542125RR0001": {"name": "Richmond Chinese United Church", "designationCode": "C", "categoryCode": "44", "address": "8711 CAMBIE RD", "city": "RICHMOND", "province": "BC", "country": "CA", "postalCode": "V6X1K2", "twitter": "None", "instagram": "None", "facebook": "None", "youtube": "None", "website": "None", "summary": "None", "logo": "None", "latitude": 49.18469147994645, "longitude": -123.12664119317328}, "107516502RR0001": {"name": "Richmond County Early Childhood Education Association", "designationCode": "C", "categoryCode": "20", "address": "PO BOX 474                    2359 HIGHWAY 206", "city": "ARICHAT", "province": "NS", "country": "CA", "postalCode": "B0E1A0", "twitter": "None", "instagram": "None", "facebook": "None", "youtube": "None", "website": "None", "summary": "None", "logo": "None", "latitude": 45.51104519292167, "longitude": -61.02631647195212}, "820451185RR0001": {"name": "Richmond Hill Apostolic Church", "designationCode": "C", "categoryCode": "39", "address": "6 - 28 SENTINEL RD", "city": "NORTH YORK", "province": "ON", "country": "CA", "postalCode": "M3M2Y8", "twitter": "None", "instagram": "None", "facebook": "None", "youtube": "None", "website": "None", "summary": "None", "logo": "None", "latitude": 43.74499946350051, "longitude": -79.49235911506706}, "821292547RR0001": {"name": "Richmond Hill Christian Community Church", "designationCode": "C", "categoryCode": "39", "address": "9670 BAYVIEW AVE", "city": "RICHMOND HILL", "province": "ON", "country": "CA", "postalCode": "L4C9X9", "twitter": "None", "instagram": "None", "facebook": "None", "youtube": "None", "website": "None", "summary": "None", "logo": "None", "latitude": 43.86787806743042, "longitude": -79.41353753785488}, "830987863RR0001": {"name": "Richmond Hill Christian Fellowship", "designationCode": "C", "categoryCode": "39", "address": "30 ROCKWELL ROAD,", "city": "RICHMOND HILL", "province": "ON", "country": "CA", "postalCode": "L4B1B1", "twitter": "None", "instagram": "None", "facebook": "None", "youtube": "None", "website": "None", "summary": "None", "logo": "None", "latitude": 43.84327002386179, "longitude": -79.39691683267905}, "846798718RR0001": {"name": "Richmond Hill Concert Band", "designationCode": "C", "categoryCode": "22", "address": "11 PENTICTON COURT", "city": "RICHMOND HILL", "province": "ON", "country": "CA", "postalCode": "L4C9S1", "twitter": "None", "instagram": "None", "facebook": "None", "youtube": "None", "website": "None", "summary": "None", "logo": "None", "latitude": 43.85105055063776, "longitude": -79.45864180099832}, "836794263RR0001": {"name": "Richmond Hill Korean Community Church", "designationCode": "C", "categoryCode": "39", "address": "210 ELGIN MILLS RD W", "city": "RICHMOND HILL", "province": "ON", "country": "CA", "postalCode": "L4C4M2", "twitter": "None", "instagram": "None", "facebook": "None", "youtube": "None", "website": "None", "summary": "None", "logo": "None", "latitude": 43.888074187950494, "longitude": -79.4488092258063}, "894945633RR0072": {"name": "Richmond Hill Mandarin Alliance Church", "designationCode": "C", "categoryCode": "39", "address": "298 JOHN STREET,              P.O. BOX 87570,", "city": "THORNHILL", "province": "ON", "country": "CA", "postalCode": "L3T6M8", "twitter": "None", "instagram": "None", "facebook": "None", "youtube": "None", "website": "None", "summary": "None", "logo": "None", "latitude": 43.81922420959058, "longitude": -79.39812779560263}, "858679509RR0001": {"name": "Richmond Hill Muslim Association (R.H.M.A.)", "designationCode": "C", "categoryCode": "60", "address": "155 EAST BEAVER CREEK, UNIT 16", "city": "RICHMOND HILL", "province": "ON", "country": "CA", "postalCode": "L4B2N1", "twitter": "None", "instagram": "None", "facebook": "None", "youtube": "None", "website": "None", "summary": "None", "logo": "None", "latitude": 43.8487974012159, "longitude": -79.37762219148871}, "801626508RR0001": {"name": "Richmond Hill Russian Jewish Centre", "designationCode": "C", "categoryCode": "42", "address": "9699 BATHURST STREET,", "city": "RICHMOND HILL", "province": "ON", "country": "CA", "postalCode": "L4C3X4", "twitter": "None", "instagram": "None", "facebook": "None", "youtube": "None", "website": "None", "summary": "None", "logo": "None", "latitude": 43.85878640022505, "longitude": -79.46119673463578}}