{"834225963RR0001": {"name": "The Paz Group Society", "designationCode": "C", "categoryCode": "47", "address": "P.O. BOX 601", "city": "CRANBROOK", "province": "BC", "country": "CA", "postalCode": "V1C4J2", "twitter": "None", "instagram": "None", "facebook": "None", "youtube": "None", "website": "None", "summary": "None", "logo": "None", "latitude": 49.513515000000055, "longitude": -115.76875399999994}, "825227028RR0001": {"name": "The Peacock Family Foundation", "designationCode": "B", "categoryCode": "03", "address": "150 YORK STREET, SUITE 1212", "city": "TORONTO", "province": "ON", "country": "CA", "postalCode": "M5H3S5", "twitter": "None", "instagram": "None", "facebook": "None", "youtube": "None", "website": "None", "summary": "None", "logo": "None", "latitude": 43.64973143574359, "longitude": -79.3843565691325}, "727543498RR0001": {"name": "The Pearl Church of Edmonton", "designationCode": "C", "categoryCode": "39", "address": "13318 102 AVE NW", "city": "EDMONTON", "province": "AB", "country": "CA", "postalCode": "T5N0N3", "twitter": "None", "instagram": "None", "facebook": "None", "youtube": "None", "website": "None", "summary": "None", "logo": "None", "latitude": 53.543050478792615, "longitude": -113.55221258381903}, "851043851RR0001": {"name": "The Pediatric Liver Foundation", "designationCode": "C", "categoryCode": "11", "address": "37 MARBLE ARCH CRESCENT", "city": "OTTAWA", "province": "ON", "country": "CA", "postalCode": "K2G5S7", "twitter": "None", "instagram": "None", "facebook": "None", "youtube": "None", "website": "None", "summary": "None", "logo": "None", "latitude": 45.339123823763586, "longitude": -75.77287545602735}, "794324293RR0001": {"name": "The Peggy Scot Society", "designationCode": "C", "categoryCode": "52", "address": "5740 HIGHWAY 245              RR 3", "city": "ANTIGONISH", "province": "NS", "country": "CA", "postalCode": "B2G2L1", "twitter": "None", "instagram": "None", "facebook": "None", "youtube": "None", "website": "None", "summary": "None", "logo": "None", "latitude": 45.7535177096129, "longitude": -62.16803963027882}, "803670256RR0001": {"name": "The Pelling Foundation", "designationCode": "B", "categoryCode": "05", "address": "PO BOX 1292 STN A", "city": "COMOX", "province": "BC", "country": "CA", "postalCode": "V9M7Z8", "twitter": "None", "instagram": "None", "facebook": "None", "youtube": "None", "website": "None", "summary": "None", "logo": "None", "latitude": 49.673733000000055, "longitude": -124.92743299999994}, "803305465RR0001": {"name": "The Pender Island Celtic Music Society", "designationCode": "C", "categoryCode": "22", "address": "8805 CANAL RD", "city": "PENDER ISLAND", "province": "BC", "country": "CA", "postalCode": "V0N2M3", "twitter": "None", "instagram": "None", "facebook": "None", "youtube": "None", "website": "None", "summary": "None", "logo": "None", "latitude": 48.76666177279288, "longitude": -123.254780449257}, "891790446RR0001": {"name": "The Pender Islands Museum Society", "designationCode": "C", "categoryCode": "50", "address": "2408 SOUTH OTTER BAY ROAD", "city": "PENDER ISLAND", "province": "BC", "country": "CA", "postalCode": "V0N2M1", "twitter": "None", "instagram": "None", "facebook": "None", "youtube": "None", "website": "None", "summary": "None", "logo": "None", "latitude": 48.78974287909269, "longitude": -123.31014910139845}, "859986341RR0001": {"name": "The Peniel Mission Trust", "designationCode": "C", "categoryCode": "39", "address": "318 - 5 DU MAURIER BOULEVARD", "city": "TORONTO", "province": "ON", "country": "CA", "postalCode": "M4N1V1", "twitter": "None", "instagram": "None", "facebook": "None", "youtube": "None", "website": "None", "summary": "None", "logo": "None", "latitude": 43.72561500000006, "longitude": -79.40225599999994}, "839852647RR0001": {"name": "The Pentecostal Life Bridge Church of Red Deer", "designationCode": "C", "categoryCode": "39", "address": "201 - 4742 55 ST", "city": "RED DEER", "province": "AB", "country": "CA", "postalCode": "T4N2J1", "twitter": "None", "instagram": "None", "facebook": "None", "youtube": "None", "website": "None", "summary": "None", "logo": "None", "latitude": 52.27391151875455, "longitude": -113.80859108381902}, "850056359RR0001": {"name": "The Pentecostal Lighthouse Church of Ajax", "designationCode": "C", "categoryCode": "39", "address": "467 WESTNEY ROAD SOUTH        UNIT 7 & 8", "city": "AJAX", "province": "ON", "country": "CA", "postalCode": "L1S6V7", "twitter": "None", "instagram": "None", "facebook": "None", "youtube": "None", "website": "None", "summary": "None", "logo": "None", "latitude": 43.833253065119685, "longitude": -79.03362981465898}, "812223907RR0001": {"name": "The Pentecostals of Gray Rapids Inc.", "designationCode": "C", "categoryCode": "36", "address": "958 ROUTE 118 GREY RAPIDS", "city": "GREY RAPIDS", "province": "NB", "country": "CA", "postalCode": "E9B1E4", "twitter": "None", "instagram": "None", "facebook": "None", "youtube": "None", "website": "None", "summary": "None", "logo": "None", "latitude": 46.62018600000006, "longitude": -65.75798599999993}, "806687182RR0001": {"name": "The Penticton Centre for Exceptional Learning Society", "designationCode": "C", "categoryCode": "20", "address": "120 - 3547 SKAHA LAKE RD", "city": "PENTICTON", "province": "BC", "country": "CA", "postalCode": "V2A7K2", "twitter": "None", "instagram": "None", "facebook": "None", "youtube": "None", "website": "None", "summary": "None", "logo": "None", "latitude": 49.45592507216227, "longitude": -119.58723243020366}, "803182773RR0001": {"name": "The Penticton Church of the Nazarene", "designationCode": "C", "categoryCode": "39", "address": "523 JERMYN AVE", "city": "PENTICTON", "province": "BC", "country": "CA", "postalCode": "V2A2E2", "twitter": "None", "instagram": "None", "facebook": "None", "youtube": "None", "website": "None", "summary": "None", "logo": "None", "latitude": 49.49239619401, "longitude": -119.58188588565407}, "800472714RR0001": {"name": "The People's Foundation of Sierra Leone", "designationCode": "C", "categoryCode": "21", "address": "15564 96B AVE", "city": "SURREY", "province": "BC", "country": "CA", "postalCode": "V3R7N7", "twitter": "None", "instagram": "None", "facebook": "None", "youtube": "None", "website": "None", "summary": "None", "logo": "None", "latitude": 49.177967615267924, "longitude": -122.79137175801466}, "812557429RR0001": {"name": "The People's Workshop", "designationCode": "C", "categoryCode": "20", "address": "1003-40 UNIVERSITY AVE", "city": "TORONTO", "province": "ON", "country": "CA", "postalCode": "M5J1T1", "twitter": "None", "instagram": "None", "facebook": "None", "youtube": "None", "website": "None", "summary": "None", "logo": "None", "latitude": 43.646125516504206, "longitude": -79.3839709091405}, "838117695RR0001": {"name": "The Peoples Serenity Garden, Inc.", "designationCode": "C", "categoryCode": "59", "address": "PO BOX 4698", "city": "SUSSEX", "province": "NB", "country": "CA", "postalCode": "E4E5L8", "twitter": "None", "instagram": "None", "facebook": "None", "youtube": "None", "website": "None", "summary": "None", "logo": "None", "latitude": 45.72363300000005, "longitude": -65.51253349999993}, "136304680RR0001": {"name": "The PepsiCo Canada Foundation", "designationCode": "A", "categoryCode": "59", "address": "5205 SATELLITE DR", "city": "MISSISSAUGA", "province": "ON", "country": "CA", "postalCode": "L4W5J7", "twitter": "None", "instagram": "None", "facebook": "None", "youtube": "None", "website": "None", "summary": "None", "logo": "None", "latitude": 43.6549302101621, "longitude": -79.60768886484142}, "121948038RR0001": {"name": "The Perley and Rideau Veterans' Health Centre Foundation/La Fondation du Centre de sant\u00e9 Perley et Rideau pour anciens combattants", "designationCode": "A", "categoryCode": "13", "address": "1750 RUSSELL ROAD", "city": "OTTAWA", "province": "ON", "country": "CA", "postalCode": "K1G5Z6", "twitter": "None", "instagram": "None", "facebook": "None", "youtube": "None", "website": "None", "summary": "None", "logo": "None", "latitude": 45.40545686727489, "longitude": -75.63413763685045}, "819166729RR0001": {"name": "The Perton Institute for Jewish Education / L'Institut pour l'\u00c9ducation Juive Perton", "designationCode": "C", "categoryCode": "20", "address": "5623 AV MELLING", "city": "COTE SAINT-LUC", "province": "QC", "country": "CA", "postalCode": "H4W2C1", "twitter": "None", "instagram": "None", "facebook": "None", "youtube": "None", "website": "None", "summary": "None", "logo": "None", "latitude": 45.464272552888126, "longitude": -73.66319122632589}, "811371434RR0001": {"name": "The Pet Food Bank of Parkland County", "designationCode": "C", "categoryCode": "54", "address": "21 LINKSIDE COURT", "city": "SPRUCE GROVE", "province": "AB", "country": "CA", "postalCode": "T7X3C4", "twitter": "None", "instagram": "None", "facebook": "None", "youtube": "None", "website": "None", "summary": "None", "logo": "None", "latitude": 53.563548553955975, "longitude": -113.90535249861503}, "810005819RR0001": {"name": "The Pete Crompton Foundation", "designationCode": "A", "categoryCode": "03", "address": "186 COTTINGHAM STREET", "city": "TORONTO", "province": "ON", "country": "CA", "postalCode": "M4V1C5", "twitter": "None", "instagram": "None", "facebook": "None", "youtube": "None", "website": "None", "summary": "None", "logo": "None", "latitude": 43.67976222344037, "longitude": -79.39972884277795}, "856907696RR0001": {"name": "The Pete Miller Charitable Foundation", "designationCode": "B", "categoryCode": "03", "address": "390 BAY STREET                SUITE 1202", "city": "TORONTO", "province": "ON", "country": "CA", "postalCode": "M5H2Y2", "twitter": "None", "instagram": "None", "facebook": "None", "youtube": "None", "website": "None", "summary": "None", "logo": "None", "latitude": 43.65110410687275, "longitude": -79.38169965834723}, "842441792RR0001": {"name": "The Peter and Jean Abt Foundation", "designationCode": "A", "categoryCode": "03", "address": "3050 - 2600 PORTLAND ST SE", "city": "CALGARY", "province": "AB", "country": "CA", "postalCode": "T2G4M6", "twitter": "None", "instagram": "None", "facebook": "None", "youtube": "None", "website": "None", "summary": "None", "logo": "None", "latitude": 51.030945177909835, "longitude": -114.03279939909986}, "829344811RR0001": {"name": "The Peter and Shelagh Godsoe Family Foundation", "designationCode": "B", "categoryCode": "05", "address": "130 KING STREET WEST,         20TH FLOOR", "city": "TORONTO", "province": "ON", "country": "CA", "postalCode": "M5X1K1", "twitter": "None", "instagram": "None", "facebook": "None", "youtube": "None", "website": "None", "summary": "None", "logo": "None", "latitude": 43.64798216515656, "longitude": -79.38336717805407}, "784981482RR0001": {"name": "The Peter and Sonya Koch Foundation", "designationCode": "B", "categoryCode": "03", "address": "17433 LOYALIST PARKWAY,", "city": "WELLINGTON", "province": "ON", "country": "CA", "postalCode": "K0K3L0", "twitter": "None", "instagram": "None", "facebook": "None", "youtube": "None", "website": "None", "summary": "None", "logo": "None", "latitude": 43.93691375327562, "longitude": -77.40490418783506}, "858990021RR0001": {"name": "The Peters Family Foundation", "designationCode": "B", "categoryCode": "03", "address": "505 - 3RD STREET SOUTHWEST    SUITE 100", "city": "CALGARY", "province": "AB", "country": "CA", "postalCode": "T2P3E6", "twitter": "None", "instagram": "None", "facebook": "None", "youtube": "None", "website": "None", "summary": "None", "logo": "None", "latitude": 51.04853955063775, "longitude": -114.07061138926076}, "815203310RR0001": {"name": "The Peterson Group Foundation", "designationCode": "B", "categoryCode": "03", "address": "1701-1166 ALBERNI ST", "city": "VANCOUVER", "province": "BC", "country": "CA", "postalCode": "V6E3Z3", "twitter": "None", "instagram": "None", "facebook": "None", "youtube": "None", "website": "None", "summary": "None", "logo": "None", "latitude": 49.286152466176894, "longitude": -123.12528575074712}, "742945892RR0001": {"name": "The Pew-Halim Family Foundation", "designationCode": "B", "categoryCode": "03", "address": "19 KINGSGARDEN ROAD", "city": "TORONTO", "province": "ON", "country": "CA", "postalCode": "M8X1S7", "twitter": "None", "instagram": "None", "facebook": "None", "youtube": "None", "website": "None", "summary": "None", "logo": "None", "latitude": 43.65554486037866, "longitude": -79.50643622799934}, "822362851RR0001": {"name": "The Phelan Charitable Foundation", "designationCode": "B", "categoryCode": "03", "address": "32 BERRYMAN STREET", "city": "TORONTO", "province": "ON", "country": "CA", "postalCode": "M5R1M6", "twitter": "None", "instagram": "None", "facebook": "None", "youtube": "None", "website": "None", "summary": "None", "logo": "None", "latitude": 43.673487212331885, "longitude": -79.39283818526744}, "836392936RR0001": {"name": "The Philip and Karen Court Family Foundation (BLUKAP)", "designationCode": "B", "categoryCode": "03", "address": "29 MACINTOSH CRESENT", "city": "ST.CATHARINES", "province": "ON", "country": "CA", "postalCode": "L2N7M4", "twitter": "None", "instagram": "None", "facebook": "None", "youtube": "None", "website": "None", "summary": "None", "logo": "None", "latitude": 43.18595529421766, "longitude": -79.28187981173146}, "851460626RR0001": {"name": "The Philip Aziz Foundation of Art", "designationCode": "C", "categoryCode": "22", "address": "5942 EGREMONT DRIVE", "city": "KOMOKA", "province": "ON", "country": "CA", "postalCode": "N0L1R0", "twitter": "None", "instagram": "None", "facebook": "None", "youtube": "None", "website": "None", "summary": "None", "logo": "None", "latitude": 43.00039167837842, "longitude": -81.42461616554117}, "766105290RR0001": {"name": "The Phoenix Leadership Project", "designationCode": "C", "categoryCode": "29", "address": "31 BURBANK DRIVE", "city": "THORNHILL", "province": "ON", "country": "CA", "postalCode": "L4J7T9", "twitter": "None", "instagram": "None", "facebook": "None", "youtube": "None", "website": "None", "summary": "None", "logo": "None", "latitude": 43.81497297584975, "longitude": -79.45967759406216}, "822635850RR0001": {"name": "The Pictou County Fuel Fund Society", "designationCode": "C", "categoryCode": "09", "address": "74 STELLARTON ROAD", "city": "NEW GLASGOW", "province": "NS", "country": "CA", "postalCode": "B2H1L8", "twitter": "None", "instagram": "None", "facebook": "None", "youtube": "None", "website": "None", "summary": "None", "logo": "None", "latitude": 45.58901857005614, "longitude": -62.65032295597002}, "839179819RR0001": {"name": "The Pier Christian Church of Brockville", "designationCode": "C", "categoryCode": "39", "address": "PO BOX 157 LCD MAIN", "city": "BROCKVILLE", "province": "ON", "country": "CA", "postalCode": "K6V5V2", "twitter": "None", "instagram": "None", "facebook": "None", "youtube": "None", "website": "None", "summary": "None", "logo": "None", "latitude": 44.59037100000006, "longitude": -75.68301049999994}, "838120459RR0001": {"name": "The Pierre L.Morrissette Family Foundation", "designationCode": "B", "categoryCode": "03", "address": "2655 BRISTOL CIRCLE", "city": "OAKVILLE", "province": "ON", "country": "CA", "postalCode": "L6H7W1", "twitter": "None", "instagram": "None", "facebook": "None", "youtube": "None", "website": "None", "summary": "None", "logo": "None", "latitude": 43.512266473483834, "longitude": -79.6883767099946}, "810951962RR0001": {"name": "The Pindoff Family Charitable Foundation", "designationCode": "B", "categoryCode": "03", "address": "5 SILVERWOOD AVE", "city": "TORONTO", "province": "ON", "country": "CA", "postalCode": "M5P1W3", "twitter": "None", "instagram": "None", "facebook": "None", "youtube": "None", "website": "None", "summary": "None", "logo": "None", "latitude": 43.695795867592025, "longitude": -79.41627651220502}, "850696386RR0001": {"name": "The Pink Box Foundation", "designationCode": "C", "categoryCode": "09", "address": "604-100 YORKVILLE AVE", "city": "TORONTO", "province": "ON", "country": "CA", "postalCode": "M5R2C3", "twitter": "None", "instagram": "None", "facebook": "None", "youtube": "None", "website": "None", "summary": "None", "logo": "None", "latitude": 43.67097212519463, "longitude": -79.39208639676258}, "839789534RR0001": {"name": "The Pizar Foundation", "designationCode": "B", "categoryCode": "03", "address": "201 BRIDGELAND AVENUE,", "city": "TORONTO", "province": "ON", "country": "CA", "postalCode": "M6A1Y7", "twitter": "None", "instagram": "None", "facebook": "None", "youtube": "None", "website": "None", "summary": "None", "logo": "None", "latitude": 43.724679896445465, "longitude": -79.46720435899367}, "107693947RR0001": {"name": "The Planting Community Church", "designationCode": "C", "categoryCode": "39", "address": "236 NAIRN AVE", "city": "TORONTO", "province": "ON", "country": "CA", "postalCode": "M6E4H4", "twitter": "None", "instagram": "None", "facebook": "None", "youtube": "None", "website": "None", "summary": "None", "logo": "None"}, "858176936RR0001": {"name": "The Plattsville & District Heritage Society", "designationCode": "C", "categoryCode": "50", "address": "41 HONEYSUCKLE CRES", "city": "LONDON", "province": "ON", "country": "CA", "postalCode": "N5Y4P3", "twitter": "None", "instagram": "None", "facebook": "None", "youtube": "None", "website": "None", "summary": "None", "logo": "None", "latitude": 43.023219046338596, "longitude": -81.21907391964342}, "836467993RR0001": {"name": "The Play Through Foundation Inc.", "designationCode": "B", "categoryCode": "03", "address": "475 PANET RD", "city": "WINNIPEG", "province": "MB", "country": "CA", "postalCode": "R2C2Z1", "twitter": "None", "instagram": "None", "facebook": "None", "youtube": "None", "website": "None", "summary": "None", "logo": "None", "latitude": 49.89647126045823, "longitude": -97.0756097467027}, "830622221RR0001": {"name": "The Pleasant Manor and Tabor Manor Foundation", "designationCode": "A", "categoryCode": "03", "address": "1 TABOR DRIVE,", "city": "ST CATHARINES", "province": "ON", "country": "CA", "postalCode": "L2N1V9", "twitter": "None", "instagram": "None", "facebook": "None", "youtube": "None", "website": "None", "summary": "None", "logo": "None", "latitude": 43.189669121011036, "longitude": -79.23398238963614}, "825756521RR0001": {"name": "The Pluralist Foundation", "designationCode": "A", "categoryCode": "23", "address": "76 WILD BRIARWAY", "city": "WILLOWDALE", "province": "ON", "country": "CA", "postalCode": "M2J2L4", "twitter": "None", "instagram": "None", "facebook": "None", "youtube": "None", "website": "None", "summary": "None", "logo": "None", "latitude": 43.78206449235396, "longitude": -79.36671966180968}, "879666915RR0001": {"name": "The Polis Foundation", "designationCode": "C", "categoryCode": "23", "address": "PO BOX 35097 RPO HILLSIDE", "city": "VICTORIA", "province": "BC", "country": "CA", "postalCode": "V8T5G2", "twitter": "None", "instagram": "None", "facebook": "None", "youtube": "None", "website": "None", "summary": "None", "logo": "None", "latitude": 48.44002860505139, "longitude": -123.35437274363011}, "841583313RR0001": {"name": "The Ponheary Ly Foundation Canada", "designationCode": "C", "categoryCode": "09", "address": "101 ROBINSON ST", "city": "TORONTO", "province": "ON", "country": "CA", "postalCode": "M6J1L8", "twitter": "None", "instagram": "None", "facebook": "None", "youtube": "None", "website": "None", "summary": "None", "logo": "None", "latitude": 43.64768282041672, "longitude": -79.40955597945644}, "119095651RR0001": {"name": "The Ponoka Congregation of Jehovah's Witnesses", "designationCode": "C", "categoryCode": "61", "address": "6307 51 ST", "city": "PONOKA", "province": "AB", "country": "CA", "postalCode": "T4J1E4", "twitter": "None", "instagram": "None", "facebook": "None", "youtube": "None", "website": "None", "summary": "None", "logo": "None", "latitude": 52.689166543712844, "longitude": -113.5740948714585}, "824781819RR0001": {"name": "The Pontiac Archives/Les archives du Pontiac", "designationCode": "C", "categoryCode": "50", "address": "358, MAIN STREET              P.O. BOX 506", "city": "SHAWVILLE", "province": "QC", "country": "CA", "postalCode": "J0X2Y0", "twitter": "None", "instagram": "None", "facebook": "None", "youtube": "None", "website": "None", "summary": "None", "logo": "None", "latitude": 45.603813396041446, "longitude": -76.49197407328744}, "839147683RR0001": {"name": "The Potter's House Christian Centre of Etobicoke", "designationCode": "C", "categoryCode": "39", "address": "57 BRICKYARD WAY              UNIT 101", "city": "BRAMPTON", "province": "ON", "country": "CA", "postalCode": "L6V4M3", "twitter": "None", "instagram": "None", "facebook": "None", "youtube": "None", "website": "None", "summary": "None", "logo": "None", "latitude": 43.703470668538436, "longitude": -79.7806370889298}, "140840646RR0001": {"name": "The Potter's House Christian Fellowship Church of Lloydminster", "designationCode": "C", "categoryCode": "39", "address": "BOX 1771", "city": "LLOYDMINSTER", "province": "SK", "country": "CA", "postalCode": "S9V1M6", "twitter": "None", "instagram": "None", "facebook": "None", "youtube": "None", "website": "None", "summary": "None", "logo": "None", "latitude": 53.274840000000054, "longitude": -109.99074949999994}, "848600268RR0001": {"name": "The Potter's House Pentecostal Church", "designationCode": "C", "categoryCode": "39", "address": "146 KING ST", "city": "MIRAMICHI", "province": "NB", "country": "CA", "postalCode": "E1N2N9", "twitter": "None", "instagram": "None", "facebook": "None", "youtube": "None", "website": "None", "summary": "None", "logo": "None", "latitude": 47.02266118647952, "longitude": -65.44915653889409}, "771373891RR0001": {"name": "The Potters House Southside of Edmonton", "designationCode": "C", "categoryCode": "39", "address": "16418 100 AVE NW", "city": "EDMONTON", "province": "AB", "country": "CA", "postalCode": "T5P4Y2", "twitter": "None", "instagram": "None", "facebook": "None", "youtube": "None", "website": "None", "summary": "None", "logo": "None", "latitude": 53.53931253101689, "longitude": -113.60535372300768}, "847537065RR0001": {"name": "The Pottruff Family Foundation", "designationCode": "B", "categoryCode": "03", "address": "19 OS JAMES HUNT CRT", "city": "UXBRIDGE", "province": "ON", "country": "CA", "postalCode": "L9P0E3", "twitter": "None", "instagram": "None", "facebook": "None", "youtube": "None", "website": "None", "summary": "None", "logo": "None", "latitude": 44.11783208859791, "longitude": -79.12763096627639}, "854518859RR0001": {"name": "The Power to Be International", "designationCode": "C", "categoryCode": "21", "address": "209 - 55 BROADWAY AVE", "city": "TORONTO", "province": "ON", "country": "CA", "postalCode": "M4P1T8", "twitter": "None", "instagram": "None", "facebook": "None", "youtube": "None", "website": "None", "summary": "None", "logo": "None", "latitude": 43.71018475376571, "longitude": -79.39564860225646}, "829320431RR0001": {"name": "The Prabhudas and Vijya Ruparell Family Foundation", "designationCode": "B", "categoryCode": "03", "address": "11888 MACLEOD TRAIL SOUTHEAST", "city": "CALGARY", "province": "AB", "country": "CA", "postalCode": "T2J7J2", "twitter": "None", "instagram": "None", "facebook": "None", "youtube": "None", "website": "None", "summary": "None", "logo": "None", "latitude": 50.94843749486412, "longitude": -114.07015705799535}, "897903357RR0001": {"name": "The Prairie Centre for Christian Education", "designationCode": "C", "categoryCode": "20", "address": "N220 9125 50 ST NW", "city": "EDMONTON", "province": "AB", "country": "CA", "postalCode": "T6B2H3", "twitter": "None", "instagram": "None", "facebook": "None", "youtube": "None", "website": "None", "summary": "None", "logo": "None", "latitude": 53.52518032885313, "longitude": -113.41847513511998}, "107701203RR0001": {"name": "The Prairie Rose School Division", "designationCode": "C", "categoryCode": "20", "address": "45 MAIN ST. S. PO BOX 1510", "city": "CARMAN", "province": "MB", "country": "CA", "postalCode": "R0G0J0", "twitter": "None", "instagram": "None", "facebook": "None", "youtube": "None", "website": "None", "summary": "None", "logo": "None", "latitude": 49.50798300000001, "longitude": -98.00155471691467}, "842134686RR0001": {"name": "The Prasad Family Foundation / La Fondation de la Famille Prasad", "designationCode": "B", "categoryCode": "03", "address": "31 CARMICHAEL CRES", "city": "COLLINGWOOD", "province": "ON", "country": "CA", "postalCode": "L9Y4R7", "twitter": "None", "instagram": "None", "facebook": "None", "youtube": "None", "website": "None", "summary": "None", "logo": "None", "latitude": 44.48882178377299, "longitude": -80.20394529641071}, "108092784RR0001": {"name": "The Prayer Palace", "designationCode": "C", "categoryCode": "39", "address": "1111 ARROW ROAD", "city": "TORONTO", "province": "ON", "country": "CA", "postalCode": "M9M3B3", "twitter": "None", "instagram": "None", "facebook": "None", "youtube": "None", "website": "None", "summary": "None", "logo": "None", "latitude": 43.75199616934017, "longitude": -79.53520736323554}, "118983485RR0001": {"name": "The Pregnancy Centre", "designationCode": "C", "categoryCode": "09", "address": "38 FRANCIS ST. S", "city": "KITCHENER", "province": "ON", "country": "CA", "postalCode": "N2G2A2", "twitter": "None", "instagram": "None", "facebook": "None", "youtube": "None", "website": "None", "summary": "None", "logo": "None", "latitude": 43.450724503750926, "longitude": -80.49732025341899}, "137152468RR0001": {"name": "The Pregnancy Resource Center of Saint John Inc.", "designationCode": "C", "categoryCode": "09", "address": "219 WENTWORTH STREET", "city": "SAINT JOHN", "province": "NB", "country": "CA", "postalCode": "E2L2T4", "twitter": "None", "instagram": "None", "facebook": "None", "youtube": "None", "website": "None", "summary": "None", "logo": "None", "latitude": 45.268810962808004, "longitude": -66.05188910242934}, "803320654RR0001": {"name": "The Prenstin Foundation", "designationCode": "B", "categoryCode": "03", "address": "95 WELLINGTON STREET WEST     SUITE 800", "city": "TORONTO", "province": "ON", "country": "CA", "postalCode": "M5J2N7", "twitter": "None", "instagram": "None", "facebook": "None", "youtube": "None", "website": "None", "summary": "None", "logo": "None", "latitude": 43.64677776155599, "longitude": -79.38220741589251}, "132453226RR0001": {"name": "The Prep Program - A Calgary Society to Promote Education for Individuals with Down Syndrome", "designationCode": "C", "categoryCode": "20", "address": "2004 - 12 AVENUE NW", "city": "CALGARY", "province": "AB", "country": "CA", "postalCode": "T2N1J7", "twitter": "None", "instagram": "None", "facebook": "None", "youtube": "None", "website": "None", "summary": "None", "logo": "None", "latitude": 51.06340251875455, "longitude": -114.10812}, "833592108RR0001": {"name": "The Priebe Family Foundation", "designationCode": "B", "categoryCode": "05", "address": "P.O. BOX 24028                RPO TOWNE CENTRE", "city": "KELOWNA", "province": "BC", "country": "CA", "postalCode": "V1Y9H2", "twitter": "None", "instagram": "None", "facebook": "None", "youtube": "None", "website": "None", "summary": "None", "logo": "None", "latitude": 49.886279922817444, "longitude": -119.49080999999995}, "836645291RR0001": {"name": "The Primitive Integrated Naturalist Education (P.I.N.E.) Project", "designationCode": "C", "categoryCode": "29", "address": "1139 COLLEGE ST", "city": "TORONTO", "province": "ON", "country": "CA", "postalCode": "M6H1B5", "twitter": "None", "instagram": "None", "facebook": "None", "youtube": "None", "website": "None", "summary": "None", "logo": "None", "latitude": 43.65221981652157, "longitude": -79.43404654065444}, "758769491RR0001": {"name": "The Primrose Charitable Foundation", "designationCode": "B", "categoryCode": "03", "address": "2200 AVENUE ROAD              SUITE 104", "city": "TORONTO", "province": "ON", "country": "CA", "postalCode": "M5M4B9", "twitter": "None", "instagram": "None", "facebook": "None", "youtube": "None", "website": "None", "summary": "None", "logo": "None", "latitude": 43.740090386635046, "longitude": -79.42308047899509}, "831000559RR0001": {"name": "The Prince Edward County Community Care for Seniors Foundation", "designationCode": "A", "categoryCode": "03", "address": "74A KING ST", "city": "PICTON", "province": "ON", "country": "CA", "postalCode": "K0K2T0", "twitter": "None", "instagram": "None", "facebook": "None", "youtube": "None", "website": "None", "summary": "None", "logo": "None", "latitude": 44.009136388329715, "longitude": -77.14114315434279}, "854407871RR0001": {"name": "The Prince Edward Island Writers' Guild", "designationCode": "C", "categoryCode": "21", "address": "81 PRINCE STREET", "city": "CHARLOTTETOWN", "province": "PE", "country": "CA", "postalCode": "C1A4R3", "twitter": "None", "instagram": "None", "facebook": "None", "youtube": "None", "website": "None", "summary": "None", "logo": "None", "latitude": 46.23527784901036, "longitude": -63.123739081885795}, "819686650RR0001": {"name": "The Princess of Wales' Own Regiment Foundation", "designationCode": "C", "categoryCode": "51", "address": "100 MONTREAL ST", "city": "KINGSTON", "province": "ON", "country": "CA", "postalCode": "K7K3E8", "twitter": "None", "instagram": "None", "facebook": "None", "youtube": "None", "website": "None", "summary": "None", "logo": "None", "latitude": 44.23398417346644, "longitude": -76.4851322914477}, "889007597RR0001": {"name": "The Princess Margaret Cancer Foundation", "designationCode": "A", "categoryCode": "13", "address": "610 UNIVERSITY AVENUE", "city": "TORONTO", "province": "ON", "country": "CA", "postalCode": "M5G2M9", "twitter": "None", "instagram": "None", "facebook": "None", "youtube": "None", "website": "None", "summary": "None", "logo": "None", "latitude": 43.658213888972305, "longitude": -79.38994519057621}, "808694954RR0001": {"name": "The Professional Institute Legacy Foundation / La fondation h\u00e9ritage de l'institut professionnel", "designationCode": "C", "categoryCode": "21", "address": "250 TREMBLAY ROAD", "city": "OTTAWA", "province": "ON", "country": "CA", "postalCode": "K1G3J8", "twitter": "None", "instagram": "None", "facebook": "None", "youtube": "None", "website": "None", "summary": "None", "logo": "None", "latitude": 45.418428484563684, "longitude": -75.64990988773155}, "819107301RR0001": {"name": "The Provident Foundation", "designationCode": "A", "categoryCode": "03", "address": "71 TUSSLEWOOD VIEW NW", "city": "CALGARY", "province": "AB", "country": "CA", "postalCode": "T3L2Y4", "twitter": "None", "instagram": "None", "facebook": "None", "youtube": "None", "website": "None", "summary": "None", "logo": "None", "latitude": 51.137148845951934, "longitude": -114.24819698473657}, "817026289RR0001": {"name": "The Provost Diabetic (Non-Profit) Society", "designationCode": "C", "categoryCode": "11", "address": "P.O.BOX 763", "city": "PROVOST", "province": "AB", "country": "CA", "postalCode": "T0B3S0", "twitter": "None", "instagram": "None", "facebook": "None", "youtube": "None", "website": "None", "summary": "None", "logo": "None", "latitude": 52.82485171250891, "longitude": -110.88936481833932}, "858708928RR0001": {"name": "The Public Good Society of Dartmouth", "designationCode": "C", "categoryCode": "09", "address": "PO BOX 262", "city": "DARTMOUTH", "province": "NS", "country": "CA", "postalCode": "B2Y3Y3", "twitter": "None", "instagram": "None", "facebook": "None", "youtube": "None", "website": "None", "summary": "None", "logo": "None", "latitude": 44.67403500000006, "longitude": -63.57535099999993}, "138084322RR0001": {"name": "The Public Interest Research Centre / Centre pour la recherche de l'int\u00e9r\u00eat public", "designationCode": "C", "categoryCode": "59", "address": "1204 ONE NICHOLAS ST.", "city": "OTTAWA", "province": "ON", "country": "CA", "postalCode": "K1N7B7", "twitter": "None", "instagram": "None", "facebook": "None", "youtube": "None", "website": "None", "summary": "None", "logo": "None", "latitude": 45.42176342184898, "longitude": -75.68497111848781}, "852327204RR0001": {"name": "The Pureaide Project Inc.", "designationCode": "C", "categoryCode": "09", "address": "7 JOLIETTE PLACE", "city": "KESWICK", "province": "ON", "country": "CA", "postalCode": "L4P3Y9", "twitter": "None", "instagram": "None", "facebook": "None", "youtube": "None", "website": "None", "summary": "None", "logo": "None", "latitude": 44.24317068163211, "longitude": -79.452988549397}, "121612428RR0001": {"name": "The Qu\u00e9bec Presbytery of The United Church of Canada / Le Consistoire du Qu\u00e9bec de l'\u00e9glise unie du Canada", "designationCode": "C", "categoryCode": "44", "address": "301 LANSDOWNE AVE.", "city": "WESTMOUNT", "province": "QC", "country": "CA", "postalCode": "H3Z2L5", "twitter": "None", "instagram": "None", "facebook": "None", "youtube": "None", "website": "None", "summary": "None", "logo": "None", "latitude": 45.47961951676294, "longitude": -73.5980915640153}, "819676164RR0001": {"name": "The Quadra Education Foundation", "designationCode": "C", "categoryCode": "21", "address": "360 GOLDSTREAM AVENUE         SUITE 101", "city": "VICTORIA", "province": "BC", "country": "CA", "postalCode": "V9B2W3", "twitter": "None", "instagram": "None", "facebook": "None", "youtube": "None", "website": "None", "summary": "None", "logo": "None", "latitude": 48.443652008627, "longitude": -123.4750159711179}, "828680892RR0001": {"name": "The Quamichan Watershed Stewardship Society", "designationCode": "C", "categoryCode": "59", "address": "1796 STAMPS ROAD", "city": "DUNCAN", "province": "BC", "country": "CA", "postalCode": "V9L5W2", "twitter": "None", "instagram": "None", "facebook": "None", "youtube": "None", "website": "None", "summary": "None", "logo": "None", "latitude": 48.814278505154405, "longitude": -123.65400242459137}, "797020088RR0001": {"name": "The Quarin Family Foundation", "designationCode": "B", "categoryCode": "03", "address": "1212 - 150 YORK ST", "city": "TORONTO", "province": "ON", "country": "CA", "postalCode": "M5H3S5", "twitter": "None", "instagram": "None", "facebook": "None", "youtube": "None", "website": "None", "summary": "None", "logo": "None", "latitude": 43.649604000000004, "longitude": -79.38425925}, "872079694RR0001": {"name": "The Quebec Lodge Foundation / La fondation Qu\u00e9bec Lodge", "designationCode": "C", "categoryCode": "56", "address": "CASE POSTALE 1439", "city": "AYER'S CLIFF", "province": "QC", "country": "CA", "postalCode": "J0B1C0", "twitter": "None", "instagram": "None", "facebook": "None", "youtube": "None", "website": "None", "summary": "None", "logo": "None", "latitude": 45.19664927622602, "longitude": -72.05482201782644}, "886980598RR0001": {"name": "The Queen's York Rangers Regimental Council", "designationCode": "C", "categoryCode": "51", "address": "46 AINO BEACH RD", "city": "LITTLE BRITAIN", "province": "ON", "country": "CA", "postalCode": "K0M2C0", "twitter": "None", "instagram": "None", "facebook": "None", "youtube": "None", "website": "None", "summary": "None", "logo": "None", "latitude": 44.22705914042941, "longitude": -78.7880998536849}, "843396581RR0001": {"name": "The Quercus Foundation", "designationCode": "B", "categoryCode": "05", "address": "215 MEADOW DRIVE", "city": "SALT SPRING ISLAND", "province": "BC", "country": "CA", "postalCode": "V8K1T9", "twitter": "None", "instagram": "None", "facebook": "None", "youtube": "None", "website": "None", "summary": "None", "logo": "None", "latitude": 48.74519105416373, "longitude": -123.44867090561758}, "750824724RR0001": {"name": "The QSLA Foundation", "designationCode": "C", "categoryCode": "21", "address": "106 - 1205 ST CLAIR AVE W", "city": "TORONTO", "province": "ON", "country": "CA", "postalCode": "M6E1B5", "twitter": "None", "instagram": "None", "facebook": "None", "youtube": "None", "website": "None", "summary": "None", "logo": "None", "latitude": 43.67801976972371, "longitude": -79.4430252665196}, "818278459RR0001": {"name": "The R K Grant Family Foundation", "designationCode": "B", "categoryCode": "03", "address": "3045 BEACH DR", "city": "VICTORIA", "province": "BC", "country": "CA", "postalCode": "V8R6L3", "twitter": "None", "instagram": "None", "facebook": "None", "youtube": "None", "website": "None", "summary": "None", "logo": "None", "latitude": 48.44226241796998, "longitude": -123.29375635022244}, "810833830RR0001": {"name": "The Racioppo Family Foundation", "designationCode": "B", "categoryCode": "03", "address": "11 CAMERON CRESCENT", "city": "TORONTO", "province": "ON", "country": "CA", "postalCode": "M4G1Z7", "twitter": "None", "instagram": "None", "facebook": "None", "youtube": "None", "website": "None", "summary": "None", "logo": "None", "latitude": 43.706633721334235, "longitude": -79.3729836315426}, "861114866RR0001": {"name": "The Rainbow Centre Society of Kamloops", "designationCode": "C", "categoryCode": "39", "address": "2381 FLEETWOOD AVE", "city": "KAMPLOOPS", "province": "BC", "country": "CA", "postalCode": "V2B4S8", "twitter": "None", "instagram": "None", "facebook": "None", "youtube": "None", "website": "None", "summary": "None", "logo": "None", "latitude": 50.70565049956731, "longitude": -120.41422186372554}, "119108892RR0001": {"name": "The Rajesh Gupta Foundation", "designationCode": "B", "categoryCode": "03", "address": "601-3100 STEELES AVE E", "city": "MARKHAM", "province": "ON", "country": "CA", "postalCode": "L3R8T3", "twitter": "None", "instagram": "None", "facebook": "None", "youtube": "None", "website": "None", "summary": "None", "logo": "None", "latitude": 43.81385063833762, "longitude": -79.34931800099876}, "833681158RR0001": {"name": "The Rajiv and Zarine Silgardo Foundation", "designationCode": "B", "categoryCode": "05", "address": "37 OLD FOREST HILL ROAD", "city": "TORONTO", "province": "ON", "country": "CA", "postalCode": "M5P2P8", "twitter": "None", "instagram": "None", "facebook": "None", "youtube": "None", "website": "None", "summary": "None", "logo": "None", "latitude": 43.69612165641398, "longitude": -79.41198668760471}, "737738526RR0001": {"name": "The Ralph and Rose Chiodo Family Foundation", "designationCode": "B", "categoryCode": "03", "address": "580 EVANS AVE", "city": "ETOBICOKE", "province": "ON", "country": "CA", "postalCode": "M8W2W1", "twitter": "None", "instagram": "None", "facebook": "None", "youtube": "None", "website": "None", "summary": "None", "logo": "None", "latitude": 43.6114000885509, "longitude": -79.5460880162444}, "735543894RR0001": {"name": "The Rana Family Charitable Foundation", "designationCode": "B", "categoryCode": "03", "address": "311-255 DUNCAN MILL ROAD", "city": "TORONTO", "province": "ON", "country": "CA", "postalCode": "M3B2H9", "twitter": "None", "instagram": "None", "facebook": "None", "youtube": "None", "website": "None", "summary": "None", "logo": "None", "latitude": 43.761636736020755, "longitude": -79.35163791355524}, "832511372RR0001": {"name": "The Randy Starkman Charitable Foundation", "designationCode": "B", "categoryCode": "05", "address": "THE MADISON CENTRE            1906-4950 YONGE ST", "city": "TORONTO", "province": "ON", "country": "CA", "postalCode": "M2N6K1", "twitter": "None", "instagram": "None", "facebook": "None", "youtube": "None", "website": "None", "summary": "None", "logo": "None", "latitude": 43.764914169571306, "longitude": -79.4118300078476}, "761270925RR0001": {"name": "The Rani Project", "designationCode": "C", "categoryCode": "09", "address": "12375 81A AVE", "city": "SURREY", "province": "BC", "country": "CA", "postalCode": "V3W0X8", "twitter": "None", "instagram": "None", "facebook": "None", "youtube": "None", "website": "None", "summary": "None", "logo": "None", "latitude": 49.151256463788975, "longitude": -122.87989192339433}, "804319119RR0001": {"name": "The Ray's Place Scholarship Trust", "designationCode": "B", "categoryCode": "25", "address": "24 ELIZABETH ST E", "city": "CREEMORE", "province": "ON", "country": "CA", "postalCode": "L0M1G0", "twitter": "None", "instagram": "None", "facebook": "None", "youtube": "None", "website": "None", "summary": "None", "logo": "None", "latitude": 44.32573120901365, "longitude": -80.10248870358929}, "846820371RR0001": {"name": "The Reach Foundation Inc.", "designationCode": "C", "categoryCode": "09", "address": "223 MASON ROAD", "city": "STRATFORD", "province": "PE", "country": "CA", "postalCode": "C1B2G1", "twitter": "None", "instagram": "None", "facebook": "None", "youtube": "None", "website": "None", "summary": "None", "logo": "None", "latitude": 46.22137536303304, "longitude": -63.079040593802354}, "752904128RR0001": {"name": "The Read Elliott Family Foundation", "designationCode": "B", "categoryCode": "03", "address": "24 COVERT STREET", "city": "COBOURG", "province": "ON", "country": "CA", "postalCode": "K9A2L6", "twitter": "None", "instagram": "None", "facebook": "None", "youtube": "None", "website": "None", "summary": "None", "logo": "None", "latitude": 43.96072608855089, "longitude": -78.16694699070916}, "828427484RR0001": {"name": "The Read Family Foundation", "designationCode": "B", "categoryCode": "03", "address": "28 WILD ROSE DR", "city": "CALGARY", "province": "AB", "country": "CA", "postalCode": "T3Z3J9", "twitter": "None", "instagram": "None", "facebook": "None", "youtube": "None", "website": "None", "summary": "None", "logo": "None", "latitude": 51.050266738876694, "longitude": -114.24761402516079}, "850757386RR0001": {"name": "The Realistic Success Recovery Society", "designationCode": "C", "categoryCode": "57", "address": "19-8289 121A ST", "city": "SURREY", "province": "BC", "country": "CA", "postalCode": "V3W1G6", "twitter": "None", "instagram": "None", "facebook": "None", "youtube": "None", "website": "None", "summary": "None", "logo": "None", "latitude": 49.153902873160604, "longitude": -122.88670220249278}, "838100642RR0001": {"name": "The Rebecca and Alan Simpson Family Foundation", "designationCode": "B", "categoryCode": "03", "address": "901-175 BLOOR ST.E.           NORTH TOWER", "city": "TORONTO", "province": "ON", "country": "CA", "postalCode": "M4W3R8", "twitter": "None", "instagram": "None", "facebook": "None", "youtube": "None", "website": "None", "summary": "None", "logo": "None", "latitude": 43.66995960097385, "longitude": -79.38816384326431}, "808484620RR0001": {"name": "The Red Deer Catholic Regional Division #39", "designationCode": "C", "categoryCode": "20", "address": "5210 61 ST", "city": "RED DEER", "province": "AB", "country": "CA", "postalCode": "T4N6N8", "twitter": "None", "instagram": "None", "facebook": "None", "youtube": "None", "website": "None", "summary": "None", "logo": "None", "latitude": 52.28137349321933, "longitude": -113.81738416763807}}