{"865580146RR0001": {"name": "HOCKEY HELPS THE HOMELESS/HOCKEY AIDE LES SANS-ABRI", "designationCode": "C", "categoryCode": "09", "address": "4 - 44 EAST BEAVER CREEK RD", "city": "RICHMOND HILL", "province": "ON", "country": "CA", "postalCode": "L4B1G8", "twitter": "None", "instagram": "None", "facebook": "None", "youtube": "None", "website": "None", "summary": "None", "logo": "None", "latitude": 43.85365726780647, "longitude": -79.37809699785268}, "863042826RR0001": {"name": "HOCKEY HERITAGE MONTREAL", "designationCode": "C", "categoryCode": "52", "address": "1650 LINCOLN AVENUE #1517", "city": "MONTREAL", "province": "QC", "country": "CA", "postalCode": "H3H1H1", "twitter": "None", "instagram": "None", "facebook": "None", "youtube": "None", "website": "None", "summary": "None", "logo": "None", "latitude": 45.4955708037683, "longitude": -73.58084136260035}, "125707323RR0001": {"name": "HOCKEY MINISTRIES INTERNATIONAL - MINIST\u00c8RES DE HOCKEY INTERNATIONAUX", "designationCode": "C", "categoryCode": "56", "address": "BOX 7, WINDSOR STN, SUITE 253 1100 DES CANADIENS DE MONTREAL", "city": "MONTREAL", "province": "QC", "country": "CA", "postalCode": "H3B2S2", "twitter": "None", "instagram": "None", "facebook": "None", "youtube": "None", "website": "None", "summary": "None", "logo": "None"}, "824055693RR0001": {"name": "HOCKEY'S GREATEST FAMILY FUND/ LE FONDS DE LA GRANDE FAMILLEDU HOCKEY", "designationCode": "C", "categoryCode": "09", "address": "400 KIPLING AVENUE", "city": "TORONTO", "province": "ON", "country": "CA", "postalCode": "M8V3L1", "twitter": "None", "instagram": "None", "facebook": "None", "youtube": "None", "website": "None", "summary": "None", "logo": "None", "latitude": 43.60422773965611, "longitude": -79.51950545686405}, "118958891RR0001": {"name": "HOCKLEY UNITED CHURCH OF CANADA", "designationCode": "C", "categoryCode": "44", "address": "994176 MONO-ADJALA TLINE", "city": "MONO", "province": "ON", "country": "CA", "postalCode": "L9W6H8", "twitter": "None", "instagram": "None", "facebook": "None", "youtube": "None", "website": "None", "summary": "None", "logo": "None", "latitude": 44.02018972401464, "longitude": -79.96871539586405}, "878026020RR0001": {"name": "HOCKLEY VALLEY BIBLE CHAPEL, INC", "designationCode": "C", "categoryCode": "39", "address": "BOX 384", "city": "TOTTENHAM", "province": "ON", "country": "CA", "postalCode": "L0G1W0", "twitter": "None", "instagram": "None", "facebook": "None", "youtube": "None", "website": "None", "summary": "None", "logo": "None", "latitude": 44.101466326769575, "longitude": -79.82930921542986}, "868478298RR0001": {"name": "HODGEVILLE CHARITABLE TRUST", "designationCode": "B", "categoryCode": "03", "address": "50 1ST AVE NE", "city": "SWIFT CURRENT", "province": "SK", "country": "CA", "postalCode": "S9H4W4", "twitter": "None", "instagram": "None", "facebook": "None", "youtube": "None", "website": "None", "summary": "None", "logo": "None", "latitude": 50.282664378132, "longitude": -107.79863205289816}, "118958925RR0001": {"name": "HODGEVILLE SENIOR CITIZENS ACTIVITY CLUB INC.", "designationCode": "C", "categoryCode": "56", "address": "PO BOX 302", "city": "HODGEVILLE", "province": "SK", "country": "CA", "postalCode": "S0H2B0", "twitter": "None", "instagram": "None", "facebook": "None", "youtube": "None", "website": "None", "summary": "None", "logo": "None", "latitude": 50.109860000000026, "longitude": -106.96109999999999}, "896400306RR0001": {"name": "HODGSON BIBLE CHURCH INC.", "designationCode": "C", "categoryCode": "34", "address": "BOX 277", "city": "HODGSON", "province": "MB", "country": "CA", "postalCode": "R0C1N0", "twitter": "None", "instagram": "None", "facebook": "None", "youtube": "None", "website": "None", "summary": "None", "logo": "None", "latitude": 51.21411000000006, "longitude": -97.57081999999997}, "107485336RR0001": {"name": "HOFFNUNGSFELDER MENNONITE CHURCH", "designationCode": "C", "categoryCode": "34", "address": "BOX 7", "city": "GLENBUSH", "province": "SK", "country": "CA", "postalCode": "S0M0Z0", "twitter": "None", "instagram": "None", "facebook": "None", "youtube": "None", "website": "None", "summary": "None", "logo": "None", "latitude": 53.25621000000007, "longitude": -108.00094999999999}, "118958982RR0001": {"name": "HOFFNUNGSFELDER MENNONITE CHURCH", "designationCode": "C", "categoryCode": "34", "address": "PO BOX 97", "city": "RABBIT LAKE", "province": "SK", "country": "CA", "postalCode": "S0M2L0", "twitter": "None", "instagram": "None", "facebook": "None", "youtube": "None", "website": "None", "summary": "None", "logo": "None", "latitude": 53.13343000000003, "longitude": -107.76795999999996}, "118958966RR0001": {"name": "HOFFNUNGSFELDER MENNONITE CHURCH - MAYFAIR BRANCH", "designationCode": "C", "categoryCode": "34", "address": "PO BOX 105", "city": "MAYFAIR", "province": "SK", "country": "CA", "postalCode": "S0M1S0", "twitter": "None", "instagram": "None", "facebook": "None", "youtube": "None", "website": "None", "summary": "None", "logo": "None", "latitude": 52.98237000000006, "longitude": -107.60025999999999}, "814517074RR0001": {"name": "HOHITE SEMAY ST. MARY ETHIOPIAN ORTHODOX TEWAHIDO CHURCH", "designationCode": "C", "categoryCode": "39", "address": "304-8TH ST", "city": "NEW WESTMINSTER", "province": "BC", "country": "CA", "postalCode": "V3M3R1", "twitter": "None", "instagram": "None", "facebook": "None", "youtube": "None", "website": "None", "summary": "None", "logo": "None", "latitude": 49.20680188913697, "longitude": -122.91861186360502}, "118959022RR0001": {"name": "HOLDEN DISTRICT AGRICULTURAL SOCIETY", "designationCode": "C", "categoryCode": "56", "address": "BOX 394", "city": "HOLDEN", "province": "AB", "country": "CA", "postalCode": "T0B2C0", "twitter": "None", "instagram": "None", "facebook": "None", "youtube": "None", "website": "None", "summary": "None", "logo": "None", "latitude": 53.232710000000054, "longitude": -112.23536999999999}, "888585064RR0001": {"name": "HOLDEN SENIOR CLUB", "designationCode": "C", "categoryCode": "56", "address": "BOX 432", "city": "HOLDEN", "province": "AB", "country": "CA", "postalCode": "T0B2C0", "twitter": "None", "instagram": "None", "facebook": "None", "youtube": "None", "website": "None", "summary": "None", "logo": "None", "latitude": 53.232710000000054, "longitude": -112.23536999999999}, "118959055RR0001": {"name": "HOLDEN UNITED CHURCH", "designationCode": "C", "categoryCode": "44", "address": "BOX 312", "city": "HOLDEN", "province": "AB", "country": "CA", "postalCode": "T0B2C0", "twitter": "None", "instagram": "None", "facebook": "None", "youtube": "None", "website": "None", "summary": "None", "logo": "None", "latitude": 53.232710000000054, "longitude": -112.23536999999999}, "892996166RR0001": {"name": "HOLDFAST CATHOLIC CEMETARY FUND", "designationCode": "C", "categoryCode": "59", "address": "P.O. BOX 181", "city": "HOLDFAST", "province": "SK", "country": "CA", "postalCode": "S0G2H0", "twitter": "None", "instagram": "None", "facebook": "None", "youtube": "None", "website": "None", "summary": "None", "logo": "None", "latitude": 50.966770000000054, "longitude": -105.41784999999999}, "889827663RR0001": {"name": "HOLINESS FAITH AND POWER MINISTRIES", "designationCode": "C", "categoryCode": "39", "address": "879 GENTRY CRES", "city": "OSHAWA", "province": "ON", "country": "CA", "postalCode": "L1K1L6", "twitter": "None", "instagram": "None", "facebook": "None", "youtube": "None", "website": "None", "summary": "None", "logo": "None", "latitude": 43.917507, "longitude": -78.84473966045337}, "894506500RR0001": {"name": "HOLISTIC KRIYA YOGA SANG", "designationCode": "C", "categoryCode": "48", "address": "7-1080 TAPSCOTT ROAD", "city": "SCARBOROUGH", "province": "ON", "country": "CA", "postalCode": "M1X1E7", "twitter": "None", "instagram": "None", "facebook": "None", "youtube": "None", "website": "None", "summary": "None", "logo": "None", "latitude": 43.827195710225745, "longitude": -79.24369361122925}, "856514161RR0001": {"name": "HOLLAND & AREA COMMUNITY FOUNDATION INC.", "designationCode": "A", "categoryCode": "03", "address": "PO BOX 87", "city": "HOLLAND", "province": "MB", "country": "CA", "postalCode": "R0G0X0", "twitter": "None", "instagram": "None", "facebook": "None", "youtube": "None", "website": "None", "summary": "None", "logo": "None", "latitude": 49.7686281543147, "longitude": -97.632704369717}, "860006030RR0001": {"name": "HOLLAND AND AREA DONORS CHOICE", "designationCode": "A", "categoryCode": "05", "address": "P.O. BOX 420", "city": "HOLLAND", "province": "MB", "country": "CA", "postalCode": "R0G0X0", "twitter": "None", "instagram": "None", "facebook": "None", "youtube": "None", "website": "None", "summary": "None", "logo": "None", "latitude": 49.7686281543147, "longitude": -97.632704369717}, "871142634RR0001": {"name": "HOLLAND BLOORVIEW KIDS REHABILITATION HOSPITAL", "designationCode": "C", "categoryCode": "10", "address": "150 KILGOUR RD", "city": "TORONTO", "province": "ON", "country": "CA", "postalCode": "M4G1R8", "twitter": "None", "instagram": "None", "facebook": "None", "youtube": "None", "website": "None", "summary": "None", "logo": "None", "latitude": 43.71784623902094, "longitude": -79.37268689053018}, "889326278RR0001": {"name": "HOLLAND BLOORVIEW KIDS REHABILITATION HOSPITAL FOUNDATION", "designationCode": "A", "categoryCode": "13", "address": "150 KILGOUR RD.", "city": "TORONTO", "province": "ON", "country": "CA", "postalCode": "M4G1R8", "twitter": "None", "instagram": "None", "facebook": "None", "youtube": "None", "website": "None", "summary": "None", "logo": "None", "latitude": 43.71784623902094, "longitude": -79.37268689053018}, "118959105RR0001": {"name": "HOLLAND CENTRE PASTORAL CHARGE", "designationCode": "C", "categoryCode": "44", "address": "BOX 266", "city": "CHATSWORTH", "province": "ON", "country": "CA", "postalCode": "N0H1G0", "twitter": "None", "instagram": "None", "facebook": "None", "youtube": "None", "website": "None", "summary": "None", "logo": "None", "latitude": 34.257250000000056, "longitude": -118.59093999999999}, "118959113RR0001": {"name": "HOLLAND CHRISTIAN HOMES INC.", "designationCode": "C", "categoryCode": "01", "address": "7900 MCLAUGHLIN RD S.", "city": "BRAMPTON", "province": "ON", "country": "CA", "postalCode": "L6Y5A7", "twitter": "None", "instagram": "None", "facebook": "None", "youtube": "None", "website": "None", "summary": "None", "logo": "None", "latitude": 43.654599767932616, "longitude": -79.74123851171407}, "107485633RR0001": {"name": "HOLLAND COLLEGE", "designationCode": "C", "categoryCode": "20", "address": "140 WEYMOUTH STREET", "city": "CHARLOTTETOWN", "province": "PE", "country": "CA", "postalCode": "C1A4Z1", "twitter": "None", "instagram": "None", "facebook": "None", "youtube": "None", "website": "None", "summary": "None", "logo": "None", "latitude": 46.238616376911516, "longitude": -63.12247166527213}, "118959121RR0001": {"name": "HOLLAND COLLEGE FOUNDATION INC.", "designationCode": "A", "categoryCode": "23", "address": "140 WEYMOUTH STREET", "city": "CHARLOTTETOWN", "province": "PE", "country": "CA", "postalCode": "C1A4Z1", "twitter": "None", "instagram": "None", "facebook": "None", "youtube": "None", "website": "None", "summary": "None", "logo": "None", "latitude": 46.238616376911516, "longitude": -63.12247166527213}, "883245235RR0001": {"name": "HOLLAND COMMUNITY HALL INCORPORATED", "designationCode": "C", "categoryCode": "56", "address": "P O BOX 366                   136 BROADWAY AVENUE", "city": "HOLLAND", "province": "MB", "country": "CA", "postalCode": "R0G0X0", "twitter": "None", "instagram": "None", "facebook": "None", "youtube": "None", "website": "None", "summary": "None", "logo": "None", "latitude": 49.202962439818435, "longitude": -98.89498243971752}, "118959147RR0001": {"name": "HOLLAND FRIENDSHIP CENTRE INC.", "designationCode": "C", "categoryCode": "09", "address": "PO BOX 208", "city": "HOLLAND", "province": "MB", "country": "CA", "postalCode": "R0G0X0", "twitter": "None", "instagram": "None", "facebook": "None", "youtube": "None", "website": "None", "summary": "None", "logo": "None", "latitude": 49.7686281543147, "longitude": -97.632704369717}, "107485724RR0001": {"name": "HOLLAND MARSH CHRISTIAN REFORMED CHURCH", "designationCode": "C", "categoryCode": "39", "address": "18935 DUFFERIN ST RR#2", "city": "NEWMARKET", "province": "ON", "country": "CA", "postalCode": "L3Y4V9", "twitter": "None", "instagram": "None", "facebook": "None", "youtube": "None", "website": "None", "summary": "None", "logo": "None", "latitude": 44.0785274768307, "longitude": -79.53930657363415}, "118959154RR0001": {"name": "HOLLAND MARSH DISTRICT CHRISTIAN SCHOOL SOCIETY", "designationCode": "C", "categoryCode": "20", "address": "19740 BATHURST ST", "city": "EAST GWILLIMBURY", "province": "ON", "country": "CA", "postalCode": "L9N0N5", "twitter": "None", "instagram": "None", "facebook": "None", "youtube": "None", "website": "None", "summary": "None", "logo": "None", "latitude": 44.10312049340884, "longitude": -79.5199230826843}, "135411346RR0001": {"name": "HOLLAND RECREATION ARENA BUILDING COMMITTEE", "designationCode": "C", "categoryCode": "56", "address": "130 BROADWAY STREET           PO BOX 40", "city": "HOLLAND", "province": "MB", "country": "CA", "postalCode": "R0G0X0", "twitter": "None", "instagram": "None", "facebook": "None", "youtube": "None", "website": "None", "summary": "None", "logo": "None", "latitude": 49.594758435138985, "longitude": -98.87811097949802}, "118959188RR0001": {"name": "HOLLAND UNITED CHURCH", "designationCode": "C", "categoryCode": "44", "address": "BOX 280", "city": "HOLLAND", "province": "MB", "country": "CA", "postalCode": "R0G0X0", "twitter": "None", "instagram": "None", "facebook": "None", "youtube": "None", "website": "None", "summary": "None", "logo": "None", "latitude": 49.7686281543147, "longitude": -97.632704369717}, "891015786RR0001": {"name": "HOLLY BRUCE MINISTRIES", "designationCode": "C", "categoryCode": "47", "address": "1393 FERNCLIFF CIRCLE", "city": "PICKERING", "province": "ON", "country": "CA", "postalCode": "L1X2N9", "twitter": "None", "instagram": "None", "facebook": "None", "youtube": "None", "website": "None", "summary": "None", "logo": "None", "latitude": 43.84710909244603, "longitude": -79.09482042521199}, "856506589RR0001": {"name": "HOLLY CREEK COMMUNITY CHURCH", "designationCode": "C", "categoryCode": "39", "address": "8018 YONGE ST", "city": "THORNHILL", "province": "ON", "country": "CA", "postalCode": "L4J1W3", "twitter": "None", "instagram": "None", "facebook": "None", "youtube": "None", "website": "None", "summary": "None", "logo": "None", "latitude": 43.82276049042071, "longitude": -79.42601973651077}, "106686728RR0001": {"name": "HOLLY STREET ADVOCACY CENTRE FOR THE ELDERLY INC.", "designationCode": "C", "categoryCode": "59", "address": "2 CARLTON STREET              SUITE 701", "city": "TORONTO", "province": "ON", "country": "CA", "postalCode": "M5B1J3", "twitter": "None", "instagram": "None", "facebook": "None", "youtube": "None", "website": "None", "summary": "None", "logo": "None", "latitude": 43.66141244936224, "longitude": -79.38286545198797}, "863785770RR0001": {"name": "HOLLYBURN FAMILY SERVICES SOCIETY", "designationCode": "C", "categoryCode": "09", "address": "104 - 267 ESPLANADE W", "city": "NORTH VANCOUVER", "province": "BC", "country": "CA", "postalCode": "V7M1A5", "twitter": "None", "instagram": "None", "facebook": "None", "youtube": "None", "website": "None", "summary": "None", "logo": "None", "latitude": 49.313498428790034, "longitude": -123.08529298087007}, "866083835RR0001": {"name": "HOLLYBURN HERITAGE SOCIETY", "designationCode": "C", "categoryCode": "52", "address": "2475 ROSEBERY AVE.", "city": "WEST VANCOUVER", "province": "BC", "country": "CA", "postalCode": "V7V2Z8", "twitter": "None", "instagram": "None", "facebook": "None", "youtube": "None", "website": "None", "summary": "None", "logo": "None", "latitude": 49.343301489901116, "longitude": -123.18127272300768}, "107485872RR0001": {"name": "HOLLYBURN OUT-OF-SCHOOL CARE SOCIETY", "designationCode": "C", "categoryCode": "01", "address": "1150 22ND ST", "city": "WEST VANCOUVER", "province": "BC", "country": "CA", "postalCode": "V7V4C4", "twitter": "None", "instagram": "None", "facebook": "None", "youtube": "None", "website": "None", "summary": "None", "logo": "None", "latitude": 49.33468620843672, "longitude": -123.17084203883677}, "107485989RR0001": {"name": "HOLLYWOOD ALL-STARS CHILDCARE PROGRAM", "designationCode": "C", "categoryCode": "21", "address": "360 HOLLYWOOD AVE", "city": "NORTH YORK", "province": "ON", "country": "CA", "postalCode": "M2N3L4", "twitter": "None", "instagram": "None", "facebook": "None", "youtube": "None", "website": "None", "summary": "None", "logo": "None", "latitude": 43.77017609634118, "longitude": -79.39162613379295}, "852028737RR0001": {"name": "HOLMFIELD COMMUNITY CHURCH", "designationCode": "C", "categoryCode": "39", "address": "PO BOX 1265", "city": "KILLARNEY", "province": "MB", "country": "CA", "postalCode": "R0K1G0", "twitter": "None", "instagram": "None", "facebook": "None", "youtube": "None", "website": "None", "summary": "None", "logo": "None", "latitude": 49.18482000000006, "longitude": -99.66915999999998}, "118959246RR0001": {"name": "HOLSTEIN ASSOCIATION OF CANADA EMPLOYEES CHARITY TRUST", "designationCode": "B", "categoryCode": "75", "address": "PO BOX 610", "city": "BRANTFORD", "province": "ON", "country": "CA", "postalCode": "N3T5R4", "twitter": "None", "instagram": "None", "facebook": "None", "youtube": "None", "website": "None", "summary": "None", "logo": "None", "latitude": 43.14136200000006, "longitude": -80.26173349999993}, "118959261RR0001": {"name": "HOLSTEIN PRESBYTERIAN CHURCH", "designationCode": "C", "categoryCode": "37", "address": "FIRE HALL # 251191, RR 4", "city": "MOUNT FOREST", "province": "ON", "country": "CA", "postalCode": "N0G2L0", "twitter": "None", "instagram": "None", "facebook": "None", "youtube": "None", "website": "None", "summary": "None", "logo": "None", "latitude": 44.031723000000056, "longitude": -81.09871549999994}, "893258368RR0001": {"name": "HOLT CHARITABLE TRUST", "designationCode": "B", "categoryCode": "39", "address": "3425 2 AVENUE SOUTH", "city": "LETHBRIDGE", "province": "AB", "country": "CA", "postalCode": "T1J4V1", "twitter": "None", "instagram": "None", "facebook": "None", "youtube": "None", "website": "None", "summary": "None", "logo": "None", "latitude": 49.696839530439966, "longitude": -112.78914308381903}, "107406316RR0006": {"name": "HOLT FREE METHODIST CHURCH", "designationCode": "C", "categoryCode": "39", "address": "17876 BATHURST STREET", "city": "NEW MARKET", "province": "ON", "country": "CA", "postalCode": "L3Y4V9", "twitter": "None", "instagram": "None", "facebook": "None", "youtube": "None", "website": "None", "summary": "None", "logo": "None", "latitude": 44.058740395781626, "longitude": -79.50844940841934}, "119264174RR0007": {"name": "HOLY ANGELS CATHOLIC CHURCH", "designationCode": "C", "categoryCode": "38", "address": "PO BOX 159", "city": "SCHREIBER", "province": "ON", "country": "CA", "postalCode": "P0T2S0", "twitter": "None", "instagram": "None", "facebook": "None", "youtube": "None", "website": "None", "summary": "None", "logo": "None", "latitude": 48.813860000000034, "longitude": -87.26646999999997}, "119076149RR0001": {"name": "HOLY ANGELS CATHOLIC CHURCH #1707", "designationCode": "C", "categoryCode": "38", "address": "213 LOUCKS STREET             P.O. BOX 117", "city": "PANGMAN", "province": "SK", "country": "CA", "postalCode": "S0C2C0", "twitter": "None", "instagram": "None", "facebook": "None", "youtube": "None", "website": "None", "summary": "None", "logo": "None", "latitude": 49.64428729911037, "longitude": -104.65809274977882}, "119109817RR0032": {"name": "HOLY ANGELS PARISH", "designationCode": "C", "categoryCode": "38", "address": "20 MORRISON DR", "city": "ST THOMAS", "province": "ON", "country": "CA", "postalCode": "N5R4S6", "twitter": "None", "instagram": "None", "facebook": "None", "youtube": "None", "website": "None", "summary": "None", "logo": "None", "latitude": 42.76453428177724, "longitude": -81.17261664915642}, "107486201RR0001": {"name": "HOLY APOSTOLIC CATHOLIC ASSYRIAN CHURCH OF THE EAST (LONDON)", "designationCode": "C", "categoryCode": "39", "address": "P.O. BOX 32042", "city": "NORTHLAND", "province": "ON", "country": "CA", "postalCode": "N5Y4W5", "twitter": "None", "instagram": "None", "facebook": "None", "youtube": "None", "website": "None", "summary": "None", "logo": "None", "latitude": 46.71935000000008, "longitude": -84.14427999999998}, "892674565RR0001": {"name": "HOLY ASCENSION (ANALYPSIS) GREEK ORTHODOX CHURCH INC.", "designationCode": "C", "categoryCode": "39", "address": "197 EUCLID AVENUE", "city": "WINNIPEG", "province": "MB", "country": "CA", "postalCode": "R2W2X3", "twitter": "None", "instagram": "None", "facebook": "None", "youtube": "None", "website": "None", "summary": "None", "logo": "None", "latitude": 49.90925346768411, "longitude": -97.13247960629583}, "896996287RR0001": {"name": "HOLY ASCENSION RUSSO-GREEK ORTHODOX CHURCH CALMAR", "designationCode": "C", "categoryCode": "39", "address": "BOX 799", "city": "CALMAR", "province": "AB", "country": "CA", "postalCode": "T0C0V0", "twitter": "None", "instagram": "None", "facebook": "None", "youtube": "None", "website": "None", "summary": "None", "logo": "None", "latitude": 53.265040000000056, "longitude": -113.80454999999995}, "889832101RR0001": {"name": "HOLY BLOSSOM TEMPLE", "designationCode": "C", "categoryCode": "42", "address": "1950 BATHURST ST", "city": "TORONTO", "province": "ON", "country": "CA", "postalCode": "M5P3K9", "twitter": "None", "instagram": "None", "facebook": "None", "youtube": "None", "website": "None", "summary": "None", "logo": "None", "latitude": 43.698401812366626, "longitude": -79.42455313286932}, "131771990RR0005": {"name": "HOLY CANADIAN MARTYRS' PARISH,", "designationCode": "C", "categoryCode": "38", "address": "100 MAIN ST.", "city": "OTTAWA", "province": "ON", "country": "CA", "postalCode": "K1S1C2", "twitter": "None", "instagram": "None", "facebook": "None", "youtube": "None", "website": "None", "summary": "None", "logo": "None", "latitude": 45.411326047723584, "longitude": -75.67936218030442}, "108094392RR0006": {"name": "HOLY CHILD PARISH", "designationCode": "C", "categoryCode": "38", "address": "PO BOX 369", "city": "SUMMERLAND", "province": "BC", "country": "CA", "postalCode": "V0H1Z0", "twitter": "None", "instagram": "None", "facebook": "None", "youtube": "None", "website": "None", "summary": "None", "logo": "None", "latitude": 49.60131900000006, "longitude": -119.67899299999993}, "118959386RR0001": {"name": "HOLY CHILD PARISH", "designationCode": "C", "categoryCode": "38", "address": "2636 - 7TH AVENUE EAST", "city": "REGINA", "province": "SK", "country": "CA", "postalCode": "S4N6A3", "twitter": "None", "instagram": "None", "facebook": "None", "youtube": "None", "website": "None", "summary": "None", "logo": "None", "latitude": 50.458769347798274, "longitude": -104.54430801569612}, "118959675RR0001": {"name": "HOLY CROSS (MISSION)", "designationCode": "C", "categoryCode": "38", "address": "435 FIELDVILLE RD", "city": "LOW", "province": "QC", "country": "CA", "postalCode": "J0X2C0", "twitter": "None", "instagram": "None", "facebook": "None", "youtube": "None", "website": "None", "summary": "None", "logo": "None", "latitude": 45.81190458670456, "longitude": -76.0250246379479}, "108012188RR0001": {"name": "HOLY CROSS ANGLICAN CHURCH", "designationCode": "C", "categoryCode": "30", "address": "2828 19TH STREET NW", "city": "CALGARY", "province": "AB", "country": "CA", "postalCode": "T2M3V8", "twitter": "None", "instagram": "None", "facebook": "None", "youtube": "None", "website": "None", "summary": "None", "logo": "None", "latitude": 51.077491575076465, "longitude": -114.10625837356463}, "888923463RR0001": {"name": "HOLY CROSS ARMENIAN APOSTOLIC CHURCH", "designationCode": "C", "categoryCode": "39", "address": "4464 BOUL. ST. MARTIN W.", "city": "LAVAL", "province": "QC", "country": "CA", "postalCode": "H7T2V2", "twitter": "None", "instagram": "None", "facebook": "None", "youtube": "None", "website": "None", "summary": "None", "logo": "None", "latitude": 45.5479300496568, "longitude": -73.77102443836931}, "129950804RR0017": {"name": "HOLY CROSS CATHOLIC CHURCH", "designationCode": "C", "categoryCode": "38", "address": "4049 GORDON HEAD RD.", "city": "VICTORIA", "province": "BC", "country": "CA", "postalCode": "V8N3X7", "twitter": "None", "instagram": "None", "facebook": "None", "youtube": "None", "website": "None", "summary": "None", "logo": "None", "latitude": 48.474886613336295, "longitude": -123.31263076302788}, "893351163RR0001": {"name": "HOLY CROSS CEMETERY SOCIETY", "designationCode": "C", "categoryCode": "59", "address": "7050 BARNET STREET", "city": "POWELL RIVER", "province": "BC", "country": "CA", "postalCode": "V8A2A1", "twitter": "None", "instagram": "None", "facebook": "None", "youtube": "None", "website": "None", "summary": "None", "logo": "None", "latitude": 49.84168671187263, "longitude": -124.51766514773122}, "107909939RR0002": {"name": "HOLY CROSS CHURCH", "designationCode": "C", "categoryCode": "38", "address": "BOX 39", "city": "FORT MACLEOD", "province": "AB", "country": "CA", "postalCode": "T0L0Z0", "twitter": "None", "instagram": "None", "facebook": "None", "youtube": "None", "website": "None", "summary": "None", "logo": "None", "latitude": 49.72081000000003, "longitude": -113.42989999999998}, "107910606RR0001": {"name": "HOLY CROSS CHURCH", "designationCode": "C", "categoryCode": "38", "address": "315 DOUGLAS AVE E", "city": "REGINA", "province": "SK", "country": "CA", "postalCode": "S4N1H7", "twitter": "None", "instagram": "None", "facebook": "None", "youtube": "None", "website": "None", "summary": "None", "logo": "None", "latitude": 50.43310553505721, "longitude": -104.57817202553522}, "108094392RR0011": {"name": "HOLY CROSS CHURCH", "designationCode": "C", "categoryCode": "38", "address": "BOX 299", "city": "CRESTON", "province": "BC", "country": "CA", "postalCode": "V0B1G0", "twitter": "None", "instagram": "None", "facebook": "None", "youtube": "None", "website": "None", "summary": "None", "logo": "None", "latitude": 49.738704000000055, "longitude": -115.87167349999993}, "119110443RR0004": {"name": "HOLY CROSS CHURCH", "designationCode": "C", "categoryCode": "38", "address": "BOX 224", "city": "KEMPTVILLE", "province": "ON", "country": "CA", "postalCode": "K0G1J0", "twitter": "None", "instagram": "None", "facebook": "None", "youtube": "None", "website": "None", "summary": "None", "logo": "None", "latitude": 44.98774800000005, "longitude": -75.69332899999993}, "891079840RR0001": {"name": "HOLY CROSS CHURCH", "designationCode": "C", "categoryCode": "38", "address": "BOX 367", "city": "ASHERN", "province": "MB", "country": "CA", "postalCode": "R0C0E0", "twitter": "None", "instagram": "None", "facebook": "None", "youtube": "None", "website": "None", "summary": "None", "logo": "None", "latitude": 51.18065000000007, "longitude": -98.35010999999997}, "106880107RR0062": {"name": "HOLY CROSS CHURCH, POMQUET", "designationCode": "C", "categoryCode": "38", "address": "1148 MONK'S HEAD ROAD", "city": "POMQUET", "province": "NS", "country": "CA", "postalCode": "B2G2L4", "twitter": "None", "instagram": "None", "facebook": "None", "youtube": "None", "website": "None", "summary": "None", "logo": "None", "latitude": 45.629714195914794, "longitude": -61.84762797433724}, "119221380RR0004": {"name": "HOLY CROSS ELEMENTARY SCHOOL", "designationCode": "C", "categoryCode": "20", "address": "3665 BENVOULIN RD.", "city": "KELOWNA", "province": "BC", "country": "CA", "postalCode": "V1W4M7", "twitter": "None", "instagram": "None", "facebook": "None", "youtube": "None", "website": "None", "summary": "None", "logo": "None", "latitude": 49.85056104631423, "longitude": -119.46776856721908}, "118959568RR0001": {"name": "HOLY CROSS EVANGELICAL LUTHERAN CHURCH", "designationCode": "C", "categoryCode": "32", "address": "3455 LAKESHORE RD", "city": "BURLINGTON", "province": "ON", "country": "CA", "postalCode": "L7N1B5", "twitter": "None", "instagram": "None", "facebook": "None", "youtube": "None", "website": "None", "summary": "None", "logo": "None", "latitude": 43.34441472081465, "longitude": -79.76395415021024}, "880871017RR0001": {"name": "HOLY CROSS EVANGELICAL LUTHERAN CHURCH OF SASKATOON INC.", "designationCode": "C", "categoryCode": "32", "address": "1405-31 ST. W", "city": "SASKATOON", "province": "SK", "country": "CA", "postalCode": "S7L0R9", "twitter": "None", "instagram": "None", "facebook": "None", "youtube": "None", "website": "None", "summary": "None", "logo": "None", "latitude": 52.139947988603055, "longitude": -106.69103909065701}, "132527953RR0001": {"name": "HOLY CROSS FATHERS OF THE SACRED HEART PROVINCE", "designationCode": "C", "categoryCode": "46", "address": "201 NIAGARA ST", "city": "WELLAND", "province": "ON", "country": "CA", "postalCode": "L3C1J8", "twitter": "None", "instagram": "None", "facebook": "None", "youtube": "None", "website": "None", "summary": "None", "logo": "None", "latitude": 42.99645516180968, "longitude": -79.25277752654483}, "896359239RR0001": {"name": "HOLY CROSS HELLENIC CHURCH OF GENUINE ORTHODOX CHRISTIAN IN METROPOLITAN TORONTO", "designationCode": "C", "categoryCode": "39", "address": "618 BIRCHMOUNT ROAD", "city": "SCARBOROUGH", "province": "ON", "country": "CA", "postalCode": "M1K1P9", "twitter": "None", "instagram": "None", "facebook": "None", "youtube": "None", "website": "None", "summary": "None", "logo": "None", "latitude": 43.716522437128575, "longitude": -79.27222576758592}, "118959634RR0001": {"name": "HOLY CROSS LUTHERAN CHURCH", "designationCode": "C", "categoryCode": "32", "address": "708 MCCALMAN AVE.", "city": "WINNIPEG", "province": "MB", "country": "CA", "postalCode": "R2L1G7", "twitter": "None", "instagram": "None", "facebook": "None", "youtube": "None", "website": "None", "summary": "None", "logo": "None", "latitude": 49.90387270716732, "longitude": -97.09492903303703}, "131691727RR0001": {"name": "HOLY CROSS LUTHERAN CHURCH", "designationCode": "C", "categoryCode": "39", "address": "1035 WAYNE DRIVE", "city": "NEWMARKET", "province": "ON", "country": "CA", "postalCode": "L3Y2W9", "twitter": "None", "instagram": "None", "facebook": "None", "youtube": "None", "website": "None", "summary": "None", "logo": "None", "latitude": 44.069526343903135, "longitude": -79.4348559790524}, "136029485RR0001": {"name": "HOLY CROSS LUTHERAN CHURCH OF OKOTOKS", "designationCode": "C", "categoryCode": "32", "address": "20 BANISTER GATE", "city": "OKOTOKS", "province": "AB", "country": "CA", "postalCode": "T1S1P3", "twitter": "None", "instagram": "None", "facebook": "None", "youtube": "None", "website": "None", "summary": "None", "logo": "None", "latitude": 50.73922082905296, "longitude": -113.98666927684715}, "130563695RR0001": {"name": "HOLY CROSS LUTHERAN CHURCH,", "designationCode": "C", "categoryCode": "32", "address": "322 EAST AVENUE AT STIRLING AV", "city": "KITCHENER", "province": "ON", "country": "CA", "postalCode": "N2H1Z5", "twitter": "None", "instagram": "None", "facebook": "None", "youtube": "None", "website": "None", "summary": "None", "logo": "None", "latitude": 43.449075732182955, "longitude": -80.47048571088958}, "891747461RR0001": {"name": "HOLY CROSS MISSION", "designationCode": "C", "categoryCode": "38", "address": "2525 WIKWEMIKONG WAY", "city": "WIKWEMIKONG", "province": "ON", "country": "CA", "postalCode": "P0P2J0", "twitter": "None", "instagram": "None", "facebook": "None", "youtube": "None", "website": "None", "summary": "None", "logo": "None", "latitude": 45.801573558902035, "longitude": -81.72502494756989}, "821364148RR0001": {"name": "HOLY CROSS ORTHODOX MONASTERY", "designationCode": "C", "categoryCode": "39", "address": "308328 HOCKLEY RD", "city": "MONO", "province": "ON", "country": "CA", "postalCode": "L9W6N4", "twitter": "None", "instagram": "None", "facebook": "None", "youtube": "None", "website": "None", "summary": "None", "logo": "None", "latitude": 44.005938294028894, "longitude": -79.99751376191205}, "888587854RR0001": {"name": "HOLY CROSS PARENT ACTIVITY COMMITTEE", "designationCode": "C", "categoryCode": "21", "address": "5201 49 ST", "city": "COLD LAKE", "province": "AB", "country": "CA", "postalCode": "T9M0B9", "twitter": "None", "instagram": "None", "facebook": "None", "youtube": "None", "website": "None", "summary": "None", "logo": "None", "latitude": 54.4156947575028, "longitude": -110.2038262885896}, "107876468RR0021": {"name": "HOLY CROSS PARISH", "designationCode": "C", "categoryCode": "38", "address": "PO BOX 340", "city": "HOLYROOD", "province": "NL", "country": "CA", "postalCode": "A0A2R0", "twitter": "None", "instagram": "None", "facebook": "None", "youtube": "None", "website": "None", "summary": "None", "logo": "None", "latitude": 47.43908700000006, "longitude": -53.10030949999994}, "118849470RR0017": {"name": "HOLY CROSS PARISH", "designationCode": "C", "categoryCode": "38", "address": "1450 DELTA AVE", "city": "BURNABY", "province": "BC", "country": "CA", "postalCode": "V5B3G2", "twitter": "None", "instagram": "None", "facebook": "None", "youtube": "None", "website": "None", "summary": "None", "logo": "None", "latitude": 49.27158832526625, "longitude": -122.99213789161152}, "119109817RR0115": {"name": "HOLY CROSS PARISH", "designationCode": "C", "categoryCode": "38", "address": "10 ELM STREET", "city": "LONDON", "province": "ON", "country": "CA", "postalCode": "N5Z2K2", "twitter": "None", "instagram": "None", "facebook": "None", "youtube": "None", "website": "None", "summary": "None", "logo": "None", "latitude": 42.979841024438706, "longitude": -81.20781095207488}, "119110450RR0030": {"name": "HOLY CROSS PARISH", "designationCode": "C", "categoryCode": "38", "address": "14400 ARGYLL ROAD", "city": "GEORGETOWN", "province": "ON", "country": "CA", "postalCode": "L7G5S6", "twitter": "None", "instagram": "None", "facebook": "None", "youtube": "None", "website": "None", "summary": "None", "logo": "None", "latitude": 43.63026923104507, "longitude": -79.88092454168574}, "119110450RR0039": {"name": "HOLY CROSS PARISH", "designationCode": "C", "categoryCode": "38", "address": "1883 KING ST EAST", "city": "HAMILTON", "province": "ON", "country": "CA", "postalCode": "L8K1V9", "twitter": "None", "instagram": "None", "facebook": "None", "youtube": "None", "website": "None", "summary": "None", "logo": "None", "latitude": 43.2317612817242, "longitude": -79.8081576813723}, "122418601RR0013": {"name": "HOLY CROSS PARISH", "designationCode": "C", "categoryCode": "38", "address": "P.O. BOX 25", "city": "PLYMPTON", "province": "NS", "country": "CA", "postalCode": "B0W2R0", "twitter": "None", "instagram": "None", "facebook": "None", "youtube": "None", "website": "None", "summary": "None", "logo": "None", "latitude": 44.51036000000005, "longitude": -65.90906999999999}, "108092693RR0001": {"name": "HOLY CROSS PARISH POLISH NATIONAL CATHOLIC CHURCH", "designationCode": "C", "categoryCode": "39", "address": "3330 LAURIER AVENUE EAST", "city": "MONTREAL", "province": "QC", "country": "CA", "postalCode": "H1X1V2", "twitter": "None", "instagram": "None", "facebook": "None", "youtube": "None", "website": "None", "summary": "None", "logo": "None", "latitude": 45.55105049125743, "longitude": -73.57036434814498}, "128967353RR0012": {"name": "HOLY CROSS PARISH,", "designationCode": "C", "categoryCode": "38", "address": "685 WALKLEY ROAD", "city": "OTTAWA", "province": "ON", "country": "CA", "postalCode": "K1V6R8", "twitter": "None", "instagram": "None", "facebook": "None", "youtube": "None", "website": "None", "summary": "None", "logo": "None", "latitude": 45.36168335307839, "longitude": -75.68468111244134}, "119109817RR0040": {"name": "HOLY CROSS POLISH CATHOLIC COMMUNITY", "designationCode": "C", "categoryCode": "38", "address": "169 INGERSOLL ROAD", "city": "WOODSTOCK", "province": "ON", "country": "CA", "postalCode": "N4S7V6", "twitter": "None", "instagram": "None", "facebook": "None", "youtube": "None", "website": "None", "summary": "None", "logo": "None", "latitude": 43.12181364778699, "longitude": -80.77613927142374}, "119248946RR0001": {"name": "HOLY CROSS PRIORY, THE ORDER OF THE HOLY CROSS", "designationCode": "C", "categoryCode": "46", "address": "204 HIGH PARK AVE", "city": "TORONTO", "province": "ON", "country": "CA", "postalCode": "M6P2S6", "twitter": "None", "instagram": "None", "facebook": "None", "youtube": "None", "website": "None", "summary": "None", "logo": "None", "latitude": 43.660650049397006, "longitude": -79.46834429603533}, "872699491RR0001": {"name": "HOLY CROSS ROMANIAN ORTHODOX PARISH OF LONDON, ONTARIO, CANADA", "designationCode": "C", "categoryCode": "39", "address": "47 ADELAIDE ST S", "city": "LONDON", "province": "ON", "country": "CA", "postalCode": "N5Z3K1", "twitter": "None", "instagram": "None", "facebook": "None", "youtube": "None", "website": "None", "summary": "None", "logo": "None", "latitude": 42.97187202386179, "longitude": -81.22427635140495}, "107486284RR0001": {"name": "HOLY CROSS SCHOOL INC.", "designationCode": "C", "categoryCode": "20", "address": "252 DUBUC ST", "city": "WINNIPEG", "province": "MB", "country": "CA", "postalCode": "R2H1E3", "twitter": "None", "instagram": "None", "facebook": "None", "youtube": "None", "website": "None", "summary": "None", "logo": "None", "latitude": 49.877198488458816, "longitude": -97.11623938911654}, "836896670RR0001": {"name": "HOLY CROSS TRUST FOR THE POOR", "designationCode": "B", "categoryCode": "45", "address": "155 WELLINGTON ST W 20TH FLOOR", "city": "TORONTO", "province": "ON", "country": "CA", "postalCode": "M5V3K7", "twitter": "None", "instagram": "None", "facebook": "None", "youtube": "None", "website": "None", "summary": "None", "logo": "None", "latitude": 43.64596585316531, "longitude": -79.38574575644876}, "881555072RR0001": {"name": "HOLY CROSS UKRAINIAN CATHOLIC CHURCH HISTORICAL SOCIETY (EGREMONT)", "designationCode": "C", "categoryCode": "50", "address": "281 KIRKWOOD AVENUE", "city": "EDMONTON", "province": "AB", "country": "CA", "postalCode": "T6L5A7", "twitter": "None", "instagram": "None", "facebook": "None", "youtube": "None", "website": "None", "summary": "None", "logo": "None", "latitude": 53.48296783345845, "longitude": -113.400178173582}, "118959782RR0001": {"name": "HOLY CROSS UKRAINIAN CATHOLIC PARISH", "designationCode": "C", "categoryCode": "38", "address": "13753 108 AVE", "city": "SURREY", "province": "BC", "country": "CA", "postalCode": "V3T2K6", "twitter": "None", "instagram": "None", "facebook": "None", "youtube": "None", "website": "None", "summary": "None", "logo": "None", "latitude": 49.19888753318127, "longitude": -122.84086049999999}, "891739641RR0001": {"name": "HOLY CROSS UKRAINIAN CATHOLIC PARISH", "designationCode": "C", "categoryCode": "38", "address": "BOX 118", "city": "ELMA", "province": "MB", "country": "CA", "postalCode": "R0E0Z0", "twitter": "None", "instagram": "None", "facebook": "None", "youtube": "None", "website": "None", "summary": "None", "logo": "None", "latitude": 49.87456000000003, "longitude": -95.90721999999994}, "890853997RR0001": {"name": "HOLY CROSS UKRAINIAN ORTHODOX CHURCH OF BOYNE LAKE", "designationCode": "C", "categoryCode": "39", "address": "PO BOX 26", "city": "BOYNE LAKE", "province": "AB", "country": "CA", "postalCode": "T0A0N0", "twitter": "None", "instagram": "None", "facebook": "None", "youtube": "None", "website": "None", "summary": "None", "logo": "None", "latitude": 54.22595000000007, "longitude": -111.65333999999996}, "106880107RR0043": {"name": "HOLY CROSS, GLACE BAY", "designationCode": "C", "categoryCode": "38", "address": "23 DOMINION ST", "city": "GLACE BAY", "province": "NS", "country": "CA", "postalCode": "B1A3M7", "twitter": "None", "instagram": "None", "facebook": "None", "youtube": "None", "website": "None", "summary": "None", "logo": "None", "latitude": 46.18069963615889, "longitude": -59.96745859925536}, "893406769RR0001": {"name": "HOLY EUCHARIST PARISH OF PELLY", "designationCode": "C", "categoryCode": "38", "address": "BOX 191", "city": "PELLY", "province": "SK", "country": "CA", "postalCode": "S0A2Z0", "twitter": "None", "instagram": "None", "facebook": "None", "youtube": "None", "website": "None", "summary": "None", "logo": "None", "latitude": 50.38314143458857, "longitude": -101.69730002519363}, "118959840RR0001": {"name": "HOLY EUCHARIST UKRAINIAN CATHOLIC CATHEDAL", "designationCode": "C", "categoryCode": "38", "address": "408 5TH STREET", "city": "NEW WESTMINSTER", "province": "BC", "country": "CA", "postalCode": "V3L2X6", "twitter": "None", "instagram": "None", "facebook": "None", "youtube": "None", "website": "None", "summary": "None", "logo": "None", "latitude": 49.21103140552393, "longitude": -122.9157038471233}, "118959808RR0001": {"name": "HOLY EUCHARIST UKRAINIAN CATHOLIC CHURCH", "designationCode": "C", "categoryCode": "38", "address": "515 BROADVIEW AVE", "city": "TORONTO", "province": "ON", "country": "CA", "postalCode": "M4K2N6", "twitter": "None", "instagram": "None", "facebook": "None", "youtube": "None", "website": "None", "summary": "None", "logo": "None", "latitude": 43.67068996116323, "longitude": -79.35406852521811}, "118959824RR0001": {"name": "HOLY EUCHARIST UKRAINIAN CATHOLIC PARISH", "designationCode": "C", "categoryCode": "38", "address": "BOX 56", "city": "SELKIRK", "province": "MB", "country": "CA", "postalCode": "R1A2B1", "twitter": "None", "instagram": "None", "facebook": "None", "youtube": "None", "website": "None", "summary": "None", "logo": "None", "latitude": 50.14571100000006, "longitude": -96.87391999999993}}