{"125874990RR0001": {"name": "HAMILTON-WENTWORTH STROKE RECOVERY ASSOCIATION", "designationCode": "C", "categoryCode": "09", "address": "B - 70 KING ST E", "city": "STONEY CREEK", "province": "ON", "country": "CA", "postalCode": "L8G1K2", "twitter": "None", "instagram": "None", "facebook": "None", "youtube": "None", "website": "None", "summary": "None", "logo": "None", "latitude": 43.21726809053504, "longitude": -79.74337803108125}, "897487807RR0001": {"name": "HAMILTON-WENTWORTH 4-H ASSOCIATION", "designationCode": "C", "categoryCode": "29", "address": "927 GARNER ROAD EAST RR 1", "city": "ANCASTER", "province": "ON", "country": "CA", "postalCode": "L9G3K9", "twitter": "None", "instagram": "None", "facebook": "None", "youtube": "None", "website": "None", "summary": "None", "logo": "None", "latitude": 43.204422543962636, "longitude": -79.96579507825226}, "118952068RR0001": {"name": "HAMIOTA AND DISTRICT SPORTS COMPLEX INC.", "designationCode": "C", "categoryCode": "59", "address": "BOX 606", "city": "HAMIOTA", "province": "MB", "country": "CA", "postalCode": "R0M0T0", "twitter": "None", "instagram": "None", "facebook": "None", "youtube": "None", "website": "None", "summary": "None", "logo": "None", "latitude": 50.182510000000036, "longitude": -100.59984999999995}, "870786142RR0001": {"name": "HAMIOTA COMMUNITY FOUNDATION INC.", "designationCode": "A", "categoryCode": "03", "address": "BOX 100                       75 MAPLE AVE E.", "city": "HAMIOTA", "province": "MB", "country": "CA", "postalCode": "R0M0T0", "twitter": "None", "instagram": "None", "facebook": "None", "youtube": "None", "website": "None", "summary": "None", "logo": "None", "latitude": 50.17880821007903, "longitude": -100.5951475262856}, "892989138RR0001": {"name": "HAMIOTA DISTRICT HEALTH CENTRE FOUNDATION INC", "designationCode": "A", "categoryCode": "13", "address": "177 BIRCH AVENUE EAST", "city": "HAMIOTA", "province": "MB", "country": "CA", "postalCode": "R0M0T0", "twitter": "None", "instagram": "None", "facebook": "None", "youtube": "None", "website": "None", "summary": "None", "logo": "None", "latitude": 50.18163577058525, "longitude": -100.59363212636143}, "865305882RR0001": {"name": "HAMIOTA KIDS CLUB INC.", "designationCode": "C", "categoryCode": "01", "address": "P. O. BOX 324", "city": "HAMIOTA", "province": "MB", "country": "CA", "postalCode": "R0M0T0", "twitter": "None", "instagram": "None", "facebook": "None", "youtube": "None", "website": "None", "summary": "None", "logo": "None", "latitude": 50.182510000000036, "longitude": -100.59984999999995}, "118952092RR0001": {"name": "HAMIOTA UNITED CHURCH", "designationCode": "C", "categoryCode": "44", "address": "BOX 445", "city": "HAMIOTA", "province": "MB", "country": "CA", "postalCode": "R0M0T0", "twitter": "None", "instagram": "None", "facebook": "None", "youtube": "None", "website": "None", "summary": "None", "logo": "None", "latitude": 50.182510000000036, "longitude": -100.59984999999995}, "131433492RR0001": {"name": "HAMLIN ST. MARY'S UKRAINIAN ORTHODOX CHURCH", "designationCode": "C", "categoryCode": "39", "address": "6703-93 AVENUE", "city": "EDMONTON", "province": "AB", "country": "CA", "postalCode": "T6B0W4", "twitter": "None", "instagram": "None", "facebook": "None", "youtube": "None", "website": "None", "summary": "None", "logo": "None", "latitude": 53.5295085212074, "longitude": -113.43067208381903}, "107463846RR0001": {"name": "HAMMOND BAY BAPTIST CHURCH", "designationCode": "C", "categoryCode": "31", "address": "4960 HAMMOND BAY ROAD", "city": "NANAIMO", "province": "BC", "country": "CA", "postalCode": "V9T5B4", "twitter": "None", "instagram": "None", "facebook": "None", "youtube": "None", "website": "None", "summary": "None", "logo": "None", "latitude": 49.23135709166415, "longitude": -123.98625493039646}, "118952118RR0001": {"name": "HAMMOND MUSEUM OF RADIO", "designationCode": "C", "categoryCode": "50", "address": "394 EDINBURGH ROAD NORTH", "city": "GUELPH", "province": "ON", "country": "CA", "postalCode": "N1H1E5", "twitter": "None", "instagram": "None", "facebook": "None", "youtube": "None", "website": "None", "summary": "None", "logo": "None", "latitude": 43.552171967366135, "longitude": -80.27878692593669}, "887707735RR0001": {"name": "HAMMONDVALE COMMUNITY CEMETERY", "designationCode": "C", "categoryCode": "59", "address": "29 MULBERRY LANE", "city": "PICADILLY", "province": "NB", "country": "CA", "postalCode": "E4E5R4", "twitter": "None", "instagram": "None", "facebook": "None", "youtube": "None", "website": "None", "summary": "None", "logo": "None", "latitude": 45.72596413878463, "longitude": -65.45520687041929}, "871572533RR0001": {"name": "HAMPDEN AMBULANCE SERVICE", "designationCode": "C", "categoryCode": "59", "address": "P.O. BOX 40", "city": "HAMPDEN WHITE BAY", "province": "NL", "country": "CA", "postalCode": "A0K2Y0", "twitter": "None", "instagram": "None", "facebook": "None", "youtube": "None", "website": "None", "summary": "None", "logo": "None", "latitude": 49.54304400000005, "longitude": -56.858443999999935}, "107833394RR0027": {"name": "HAMPDEN PENTECOSTAL CHURCH", "designationCode": "C", "categoryCode": "36", "address": "PO BOX 113", "city": "HAMPDEN", "province": "NL", "country": "CA", "postalCode": "A0K2Y0", "twitter": "None", "instagram": "None", "facebook": "None", "youtube": "None", "website": "None", "summary": "None", "logo": "None", "latitude": 49.54305000000005, "longitude": -56.85843999999997}, "801732744RR0001": {"name": "HAMPSHIRE CEMETARY", "designationCode": "C", "categoryCode": "59", "address": "R.R. #1", "city": "NORTH WILTSHIRE", "province": "PE", "country": "CA", "postalCode": "C0A1Y0", "twitter": "None", "instagram": "None", "facebook": "None", "youtube": "None", "website": "None", "summary": "None", "logo": "None", "latitude": 46.30209000000008, "longitude": -63.33499999999998}, "891476913RR0001": {"name": "HAMPTON ALLIANCE FOR LIFELONG LEARNING INC.", "designationCode": "C", "categoryCode": "20", "address": "978 MAIN ST", "city": "HAMPTON", "province": "NB", "country": "CA", "postalCode": "E5N6E7", "twitter": "None", "instagram": "None", "facebook": "None", "youtube": "None", "website": "None", "summary": "None", "logo": "None", "latitude": 45.538206008511395, "longitude": -65.83351931298233}, "118952209RR0001": {"name": "HAMPTON BAPTIST CHURCH INC.", "designationCode": "C", "categoryCode": "31", "address": "776 MAIN ST.", "city": "HAMPTON", "province": "NB", "country": "CA", "postalCode": "E5N6E1", "twitter": "None", "instagram": "None", "facebook": "None", "youtube": "None", "website": "None", "summary": "None", "logo": "None", "latitude": 45.53047347322403, "longitude": -65.8315367423974}, "107764573RR0024": {"name": "HAMPTON BIBLE CAMP", "designationCode": "C", "categoryCode": "56", "address": "229 LAKESIDE RD", "city": "HAMPTON", "province": "NB", "country": "CA", "postalCode": "E5N6M7", "twitter": "None", "instagram": "None", "facebook": "None", "youtube": "None", "website": "None", "summary": "None", "logo": "None", "latitude": 45.496669590262464, "longitude": -65.8337519836706}, "888187069RR0001": {"name": "HAMPTON CEMETERY", "designationCode": "C", "categoryCode": "59", "address": "2019 HAMPTON MTN ROAD", "city": "HAMPTON", "province": "NS", "country": "CA", "postalCode": "B0S1L0", "twitter": "None", "instagram": "None", "facebook": "None", "youtube": "None", "website": "None", "summary": "None", "logo": "None", "latitude": 44.91240510739236, "longitude": -65.34139176317117}, "118952175RR0001": {"name": "HAMPTON COMMUNITY CLUB INC.", "designationCode": "C", "categoryCode": "56", "address": "17 CENTENNIAL ROAD UNIT 1", "city": "HAMPTON", "province": "NB", "country": "CA", "postalCode": "E5N6N3", "twitter": "None", "instagram": "None", "facebook": "None", "youtube": "None", "website": "None", "summary": "None", "logo": "None", "latitude": 45.52638020206008, "longitude": -65.82636004622302}, "886077999RR0001": {"name": "HAMPTON COMMUNITY HISTORICAL SOCIETY", "designationCode": "C", "categoryCode": "50", "address": "P.O. BOX 1715", "city": "CAMROSE", "province": "AB", "country": "CA", "postalCode": "T4V1X6", "twitter": "None", "instagram": "None", "facebook": "None", "youtube": "None", "website": "None", "summary": "None", "logo": "None", "latitude": 53.02423500000006, "longitude": -112.82978149999994}, "890093776RR0001": {"name": "HAMPTON CONCERT ORCHESTRA", "designationCode": "C", "categoryCode": "22", "address": "286 HAMPTON ROAD", "city": "VICTORIA", "province": "BC", "country": "CA", "postalCode": "V8Z1H1", "twitter": "None", "instagram": "None", "facebook": "None", "youtube": "None", "website": "None", "summary": "None", "logo": "None", "latitude": 48.45448220511852, "longitude": -123.39201712155928}, "118952183RR0001": {"name": "HAMPTON FOOD BASKET AND CLOTHING CENTRE INC.", "designationCode": "C", "categoryCode": "09", "address": "39 TILLEY STREET, UNIT 2", "city": "HAMPTON", "province": "NB", "country": "CA", "postalCode": "E5N5B4", "twitter": "None", "instagram": "None", "facebook": "None", "youtube": "None", "website": "None", "summary": "None", "logo": "None", "latitude": 45.524132477121235, "longitude": -65.82223602451715}, "141086587RR0001": {"name": "HAMPTON HIGH SCHOOL SCHOLARSHIP AND BURSARY FOUNDATION INC", "designationCode": "C", "categoryCode": "21", "address": "34 ELIZABETH AVENUE", "city": "HAMPTON", "province": "NB", "country": "CA", "postalCode": "E5N5P7", "twitter": "None", "instagram": "None", "facebook": "None", "youtube": "None", "website": "None", "summary": "None", "logo": "None", "latitude": 45.51717682566097, "longitude": -65.83780283937274}, "863251013RR0001": {"name": "HAMPTON LIGHTHOUSE AND HISTORICAL SOCIETY", "designationCode": "C", "categoryCode": "52", "address": "40 PHINNEY COVE RD", "city": "HAMPTON", "province": "NS", "country": "CA", "postalCode": "B0S1L0", "twitter": "None", "instagram": "None", "facebook": "None", "youtube": "None", "website": "None", "summary": "None", "logo": "None", "latitude": 44.88286373463579, "longitude": -65.39118236300439}, "897636627RR0001": {"name": "HAMPTON ROTARY CHARITABLE TRUST INC.", "designationCode": "C", "categoryCode": "65", "address": "P.O.BOX 1202", "city": "HAMPTON", "province": "NB", "country": "CA", "postalCode": "E5N8H2", "twitter": "None", "instagram": "None", "facebook": "None", "youtube": "None", "website": "None", "summary": "None", "logo": "None", "latitude": 45.52417500000006, "longitude": -65.82911299999994}, "131074593RR0002": {"name": "HAMPTON SENIORS RESOURCE CENTER INC", "designationCode": "C", "categoryCode": "56", "address": "31 DEMILLE COURT", "city": "HAMPTON", "province": "NB", "country": "CA", "postalCode": "E5N5S6", "twitter": "None", "instagram": "None", "facebook": "None", "youtube": "None", "website": "None", "summary": "None", "logo": "None", "latitude": 45.51520443216557, "longitude": -65.83305926804726}, "140872482RR0001": {"name": "HAMPTON THEATRE COMMITTEE INC", "designationCode": "A", "categoryCode": "53", "address": "19 JOHN ST", "city": "NAUWIGEWAUK", "province": "NB", "country": "CA", "postalCode": "E5N6W7", "twitter": "None", "instagram": "None", "facebook": "None", "youtube": "None", "website": "None", "summary": "None", "logo": "None", "latitude": 45.49320821097554, "longitude": -65.87289227578022}, "118952191RR0001": {"name": "HAMPTON UNITED BAPTIST CHURCH", "designationCode": "C", "categoryCode": "31", "address": "652 PORT LORNE RD", "city": "PARADISE", "province": "NS", "country": "CA", "postalCode": "B0S1R0", "twitter": "None", "instagram": "None", "facebook": "None", "youtube": "None", "website": "None", "summary": "None", "logo": "None", "latitude": 44.94785064669047, "longitude": -65.26427317831387}, "118952217RR0001": {"name": "HAMPTON UNITED CHURCH", "designationCode": "C", "categoryCode": "44", "address": "24 ROBB CRT", "city": "HAMPTON", "province": "NB", "country": "CA", "postalCode": "E5N4Z8", "twitter": "None", "instagram": "None", "facebook": "None", "youtube": "None", "website": "None", "summary": "None", "logo": "None", "latitude": 45.52314907660567, "longitude": -65.82561070552254}, "890412398RR0001": {"name": "HAN KNAKST TSITXW (HELPING HANDS) SOCIETY", "designationCode": "C", "categoryCode": "09", "address": "P.O. BOX 144", "city": "LYTTON", "province": "BC", "country": "CA", "postalCode": "V0K1Z0", "twitter": "None", "instagram": "None", "facebook": "None", "youtube": "None", "website": "None", "summary": "None", "logo": "None", "latitude": 51.53781143121373, "longitude": -120.98021143685018}, "140834128RR0001": {"name": "HAN-DROITS L'ASSOCIATION DE PROMOTION ET DE DEFENSE DES DROI", "designationCode": "C", "categoryCode": "09", "address": "C.P. 462", "city": "MAGOG", "province": "QC", "country": "CA", "postalCode": "J1X4W3", "twitter": "None", "instagram": "None", "facebook": "None", "youtube": "None", "website": "None", "summary": "None", "logo": "None", "latitude": 45.26478600000006, "longitude": -72.14726149999993}, "886783398RR0001": {"name": "HAND IN HAND CHILD CARE SOCIETY", "designationCode": "C", "categoryCode": "01", "address": "PO BOX 561 STN MAIN           DELIVERY", "city": "ABBOTSFORD", "province": "BC", "country": "CA", "postalCode": "V2S6R7", "twitter": "None", "instagram": "None", "facebook": "None", "youtube": "None", "website": "None", "summary": "None", "logo": "None", "latitude": 49.03851976853707, "longitude": -122.29441300000173}, "119272722RR0001": {"name": "HAND IN HAND DAYCARE INC", "designationCode": "C", "categoryCode": "01", "address": "1147 BREEZY POINT RD", "city": "SELKIRK", "province": "MB", "country": "CA", "postalCode": "R1A2A7", "twitter": "None", "instagram": "None", "facebook": "None", "youtube": "None", "website": "None", "summary": "None", "logo": "None", "latitude": 50.29087174863949, "longitude": -96.86659702836786}, "892503764RR0001": {"name": "HANDHILL CHARITABLE TRUST", "designationCode": "B", "categoryCode": "39", "address": "3425-2 AVENUE SOUTH", "city": "LETHBRIDGE", "province": "AB", "country": "CA", "postalCode": "T1J4V1", "twitter": "None", "instagram": "None", "facebook": "None", "youtube": "None", "website": "None", "summary": "None", "logo": "None", "latitude": 49.696839530439966, "longitude": -112.78914308381903}, "118952241RR0001": {"name": "HANDHILLS LAKE CLUB (1980)", "designationCode": "C", "categoryCode": "56", "address": "RR 3", "city": "CRAIGMYLE", "province": "AB", "country": "CA", "postalCode": "T0J0T0", "twitter": "None", "instagram": "None", "facebook": "None", "youtube": "None", "website": "None", "summary": "None", "logo": "None", "latitude": 51.67194670187799, "longitude": -112.24446440082241}, "892178112RR0001": {"name": "HANDI-CAPABLE", "designationCode": "C", "categoryCode": "59", "address": "932 RUE F\u00c9D\u00c9RAL", "city": "SHERBROOKE", "province": "QC", "country": "CA", "postalCode": "J1H5A7", "twitter": "None", "instagram": "None", "facebook": "None", "youtube": "None", "website": "None", "summary": "None", "logo": "None", "latitude": 45.392014121011016, "longitude": -71.88595447971623}, "118952332RR0001": {"name": "HANDI-TRANSIT WINDSOR", "designationCode": "C", "categoryCode": "09", "address": "3737 WALKER RD", "city": "WINDSOR", "province": "ON", "country": "CA", "postalCode": "N8W3S9", "twitter": "None", "instagram": "None", "facebook": "None", "youtube": "None", "website": "None", "summary": "None", "logo": "None", "latitude": 42.268950975013034, "longitude": -82.97311105831245}, "106728322RR0001": {"name": "HANDICAP ACTION AUTONOMIE BOIS-FRANCS", "designationCode": "C", "categoryCode": "09", "address": "59, RUE MONFETTE              LOCAL 224", "city": "VICTORIAVILLE", "province": "QC", "country": "CA", "postalCode": "G6P1J8", "twitter": "None", "instagram": "None", "facebook": "None", "youtube": "None", "website": "None", "summary": "None", "logo": "None", "latitude": 46.06164779188039, "longitude": -71.9668892342031}, "889147401RR0001": {"name": "HANDICAP INTERNATIONAL", "designationCode": "C", "categoryCode": "09", "address": "50 RUE SAINTE-CATHERINE O     UNITE 500", "city": "MONTREAL", "province": "QC", "country": "CA", "postalCode": "H2X3V4", "twitter": "None", "instagram": "None", "facebook": "None", "youtube": "None", "website": "None", "summary": "None", "logo": "None", "latitude": 45.50894347293556, "longitude": -73.56455956090953}, "890226376RR0001": {"name": "HANDICAP-VIE-DIGNITE-POUR LE RESPECT DU DROIT \u00c0 LA VIE ET \u00c0 LA DIGNITE DES PERSONNES LOURDEMENT HANDICAPEES", "designationCode": "C", "categoryCode": "09", "address": "375, RUE COUTURE", "city": "GRANBY", "province": "QC", "country": "CA", "postalCode": "J2H0R1", "twitter": "None", "instagram": "None", "facebook": "None", "youtube": "None", "website": "None", "summary": "None", "logo": "None", "latitude": 45.377939552965714, "longitude": -72.67186893304769}, "118952266RR0001": {"name": "HANDICAPPED ACTION GROUP INCORPORATED", "designationCode": "C", "categoryCode": "01", "address": "1201 JASPER DR", "city": "THUNDER BAY", "province": "ON", "country": "CA", "postalCode": "P7B6R2", "twitter": "None", "instagram": "None", "facebook": "None", "youtube": "None", "website": "None", "summary": "None", "logo": "None", "latitude": 48.4191547943619, "longitude": -89.25506380451903}, "118952282RR0001": {"name": "HANDICAPPED ORGANIZATION PROMOTING EQUALITY (HOPE)", "designationCode": "C", "categoryCode": "09", "address": "PO BOX 562", "city": "YARMOUTH", "province": "NS", "country": "CA", "postalCode": "B5A4B4", "twitter": "None", "instagram": "None", "facebook": "None", "youtube": "None", "website": "None", "summary": "None", "logo": "None", "latitude": 43.841274000000055, "longitude": -66.11887249999994}, "118952340RR0001": {"name": "HANDIYA BABA FOUNDATION", "designationCode": "B", "categoryCode": "09", "address": "101A-1124 LONSDALE AVENUE", "city": "NORTH VANCOUVER", "province": "BC", "country": "CA", "postalCode": "V7M2H1", "twitter": "None", "instagram": "None", "facebook": "None", "youtube": "None", "website": "None", "summary": "None", "logo": "None", "latitude": 49.31843282653355, "longitude": -123.07238792890558}, "891072126RR0001": {"name": "HANDS ACROSS BORDERS SOCIETY", "designationCode": "C", "categoryCode": "09", "address": "1975 BAZAN BAY RD.", "city": "SIDNEY", "province": "BC", "country": "CA", "postalCode": "V8L1C6", "twitter": "None", "instagram": "None", "facebook": "None", "youtube": "None", "website": "None", "summary": "None", "logo": "None", "latitude": 48.62452148124546, "longitude": -123.41779285928214}, "861864122RR0001": {"name": "HANDS ACROSS THE NATIONS", "designationCode": "C", "categoryCode": "09", "address": "199 GOLDHAWK TRAIL", "city": "TORONTO", "province": "ON", "country": "CA", "postalCode": "M1V1X1", "twitter": "None", "instagram": "None", "facebook": "None", "youtube": "None", "website": "None", "summary": "None", "logo": "None", "latitude": 43.82089955398464, "longitude": -79.28321614628645}, "867503567RR0001": {"name": "HANDS EXTENDED", "designationCode": "A", "categoryCode": "09", "address": "3998 - NINTH STREET", "city": "ST. CATHARINES", "province": "ON", "country": "CA", "postalCode": "L2R6P9", "twitter": "None", "instagram": "None", "facebook": "None", "youtube": "None", "website": "None", "summary": "None", "logo": "None", "latitude": 43.13076821286105, "longitude": -79.31665011078832}, "884282716RR0001": {"name": "HANDS FOR HUMANITY INC.", "designationCode": "C", "categoryCode": "09", "address": "6 ROBERT SIMONE WAY", "city": "AYR", "province": "ON", "country": "CA", "postalCode": "N0B1E0", "twitter": "None", "instagram": "None", "facebook": "None", "youtube": "None", "website": "None", "summary": "None", "logo": "None", "latitude": 43.28003957784644, "longitude": -80.43831550363534}, "808824940RR0001": {"name": "HANDS OF COMPASSION SOCIETY", "designationCode": "B", "categoryCode": "01", "address": "1463 JOHNSTON RD.             P.O. BOX 71585", "city": "WHITE ROCK", "province": "BC", "country": "CA", "postalCode": "V4B5J5", "twitter": "None", "instagram": "None", "facebook": "None", "youtube": "None", "website": "None", "summary": "None", "logo": "None", "latitude": 49.028614491335006, "longitude": -122.80129978786238}, "867002917RR0001": {"name": "HANDS OF HOPE INC.", "designationCode": "C", "categoryCode": "09", "address": "50 BARNES STREET", "city": "WINNIPEG", "province": "MB", "country": "CA", "postalCode": "R3T4Z7", "twitter": "None", "instagram": "None", "facebook": "None", "youtube": "None", "website": "None", "summary": "None", "logo": "None", "latitude": 49.79988251621574, "longitude": -97.16501003240187}, "889698668RR0001": {"name": "HANDSWORTH SECONDARY SCHOOL ASSOCIATION", "designationCode": "C", "categoryCode": "21", "address": "1044 EDGEWOOD RD", "city": "NORTH VANCOUVER", "province": "BC", "country": "CA", "postalCode": "V7R1Y7", "twitter": "None", "instagram": "None", "facebook": "None", "youtube": "None", "website": "None", "summary": "None", "logo": "None", "latitude": 49.35084353043998, "longitude": -123.10100210505509}, "118952357RR0001": {"name": "HANEN EARLY LANGUAGE PROGRAM", "designationCode": "C", "categoryCode": "11", "address": "1075 BAY STREET SUITE 515", "city": "TORONTO", "province": "ON", "country": "CA", "postalCode": "M5S2B1", "twitter": "None", "instagram": "None", "facebook": "None", "youtube": "None", "website": "None", "summary": "None", "logo": "None", "latitude": 43.66706909132086, "longitude": -79.38833126807685}, "129933727RR0001": {"name": "HANEY PRESBYTERIAN CHURCH", "designationCode": "C", "categoryCode": "37", "address": "11858 216 ST", "city": "MAPLE RIDGE", "province": "BC", "country": "CA", "postalCode": "V2X5H8", "twitter": "None", "instagram": "None", "facebook": "None", "youtube": "None", "website": "None", "summary": "None", "logo": "None", "latitude": 49.21789407799065, "longitude": -122.6228084400141}, "118952399RR0001": {"name": "HANEY-PITT MEADOWS CHRISTIAN SCHOOL ASSOCIATION", "designationCode": "C", "categoryCode": "20", "address": "12140 - 204B STREET", "city": "MAPLE RIDGE", "province": "BC", "country": "CA", "postalCode": "V2X2Z5", "twitter": "None", "instagram": "None", "facebook": "None", "youtube": "None", "website": "None", "summary": "None", "logo": "None", "latitude": 49.22336365228873, "longitude": -122.65455492567908}, "107464356RR0001": {"name": "HANLEY EVANGELICAL LUTHERAN CHURCH", "designationCode": "C", "categoryCode": "32", "address": "BOX 296", "city": "HANLEY", "province": "SK", "country": "CA", "postalCode": "S0G2E0", "twitter": "None", "instagram": "None", "facebook": "None", "youtube": "None", "website": "None", "summary": "None", "logo": "None", "latitude": 50.464156556285296, "longitude": -104.39770045961419}, "118952431RR0001": {"name": "HANLEY MENNONITE CHURCH", "designationCode": "C", "categoryCode": "34", "address": "PO BOX 387", "city": "HANLEY", "province": "SK", "country": "CA", "postalCode": "S0G2E0", "twitter": "None", "instagram": "None", "facebook": "None", "youtube": "None", "website": "None", "summary": "None", "logo": "None", "latitude": 50.464156556285296, "longitude": -104.39770045961419}, "887998862RR0001": {"name": "HANLEY SENIOR CITIZENS INC", "designationCode": "C", "categoryCode": "56", "address": "BOX 155", "city": "HANLEY", "province": "SK", "country": "CA", "postalCode": "S0G2E0", "twitter": "None", "instagram": "None", "facebook": "None", "youtube": "None", "website": "None", "summary": "None", "logo": "None", "latitude": 50.464156556285296, "longitude": -104.39770045961419}, "118952456RR0001": {"name": "HANLEY UNITED CHURCH", "designationCode": "C", "categoryCode": "44", "address": "BOX 219", "city": "HANLEY", "province": "SK", "country": "CA", "postalCode": "S0G2E0", "twitter": "None", "instagram": "None", "facebook": "None", "youtube": "None", "website": "None", "summary": "None", "logo": "None", "latitude": 50.464156556285296, "longitude": -104.39770045961419}, "119288918RR0584": {"name": "HANLON CONGREGATION OF JEHOVAH'S WITNESSES, GUELPH, ONTARIO", "designationCode": "C", "categoryCode": "61", "address": "11 TORCH LANE", "city": "GUELPH", "province": "ON", "country": "CA", "postalCode": "N1G2L6", "twitter": "None", "instagram": "None", "facebook": "None", "youtube": "None", "website": "None", "summary": "None", "logo": "None", "latitude": 43.515810165993294, "longitude": -80.24409196728007}, "873084719RR0001": {"name": "HANMAUM SEONWON OF TORONTO", "designationCode": "C", "categoryCode": "35", "address": "20 MOBILE DR", "city": "NORTH YORK", "province": "ON", "country": "CA", "postalCode": "M4A1H9", "twitter": "None", "instagram": "None", "facebook": "None", "youtube": "None", "website": "None", "summary": "None", "logo": "None", "latitude": 43.72516413240798, "longitude": -79.31560014821967}, "119288918RR0052": {"name": "HANMER, ONTARIO, CONGREGATION OF JEHOVAH'S WITNESSES", "designationCode": "C", "categoryCode": "61", "address": "1551 CAMPEAU STR", "city": "VAL CARON", "province": "ON", "country": "CA", "postalCode": "P3N1J1", "twitter": "None", "instagram": "None", "facebook": "None", "youtube": "None", "website": "None", "summary": "None", "logo": "None", "latitude": 46.63456650678068, "longitude": -81.00603386081136}, "107464414RR0001": {"name": "HANNA AND DISTRICT HISTORICAL SOCIETY", "designationCode": "C", "categoryCode": "50", "address": "BOX 1528", "city": "HANNA", "province": "AB", "country": "CA", "postalCode": "T0J1P0", "twitter": "None", "instagram": "None", "facebook": "None", "youtube": "None", "website": "None", "summary": "None", "logo": "None", "latitude": 51.64780345530559, "longitude": -111.93814762829588}, "118952506RR0001": {"name": "HANNA CHRISTIAN & MISSIONARY ALLIANCE, WESTERN CANADIAN DISTRICT", "designationCode": "C", "categoryCode": "39", "address": "PO BOX 714", "city": "HANNA", "province": "AB", "country": "CA", "postalCode": "T0J1P0", "twitter": "None", "instagram": "None", "facebook": "None", "youtube": "None", "website": "None", "summary": "None", "logo": "None", "latitude": 51.64780345530559, "longitude": -111.93814762829588}, "886289198RR0001": {"name": "HANNA FOOD BANK ASSOCIATION", "designationCode": "C", "categoryCode": "01", "address": "BOX 1613", "city": "HANNA", "province": "AB", "country": "CA", "postalCode": "T0J1P0", "twitter": "None", "instagram": "None", "facebook": "None", "youtube": "None", "website": "None", "summary": "None", "logo": "None", "latitude": 51.64780345530559, "longitude": -111.93814762829588}, "107464430RR0001": {"name": "HANNA FULL GOSPEL FELLOWSHIP", "designationCode": "C", "categoryCode": "36", "address": "PO BOX 957", "city": "HANNA", "province": "AB", "country": "CA", "postalCode": "T0J1P0", "twitter": "None", "instagram": "None", "facebook": "None", "youtube": "None", "website": "None", "summary": "None", "logo": "None", "latitude": 51.64780345530559, "longitude": -111.93814762829588}, "118952597RR0001": {"name": "HANNA SEVENTH-DAY ADVENTIST CHURCH", "designationCode": "C", "categoryCode": "41", "address": "5816 HIGHWAY 2A", "city": "LACOMBE", "province": "AB", "country": "CA", "postalCode": "T4L2G5", "twitter": "None", "instagram": "None", "facebook": "None", "youtube": "None", "website": "None", "summary": "None", "logo": "None", "latitude": 52.474063600197404, "longitude": -113.71692568401835}, "107464406RR0001": {"name": "HANNA VOLUNTEER ASSOCIATION", "designationCode": "C", "categoryCode": "59", "address": "BOX 1255", "city": "HANNA", "province": "AB", "country": "CA", "postalCode": "T0J1P0", "twitter": "None", "instagram": "None", "facebook": "None", "youtube": "None", "website": "None", "summary": "None", "logo": "None", "latitude": 51.64780345530559, "longitude": -111.93814762829588}, "892253642RR0001": {"name": "HANNAH AND HERBERT AITKEN FOUNDATION", "designationCode": "C", "categoryCode": "22", "address": "3 LEE ANN PLACE", "city": "ST. CATHARINES", "province": "ON", "country": "CA", "postalCode": "L2M1Y9", "twitter": "None", "instagram": "None", "facebook": "None", "youtube": "None", "website": "None", "summary": "None", "logo": "None", "latitude": 43.20099148600596, "longitude": -79.23113116763805}, "841195159RR0001": {"name": "HANNAH'S HEROES FOUNDATION", "designationCode": "A", "categoryCode": "13", "address": "1399 RAILSPUR ALLEY", "city": "VANCOUVER", "province": "BC", "country": "CA", "postalCode": "V6H4G9", "twitter": "None", "instagram": "None", "facebook": "None", "youtube": "None", "website": "None", "summary": "None", "logo": "None", "latitude": 49.270564582866804, "longitude": -123.13449433378159}, "855581195RR0001": {"name": "HANNE HOWARD FUND", "designationCode": "C", "categoryCode": "09", "address": "2245 DUNEDIN RD", "city": "OAKVILLE", "province": "ON", "country": "CA", "postalCode": "L6J5V4", "twitter": "None", "instagram": "None", "facebook": "None", "youtube": "None", "website": "None", "summary": "None", "logo": "None", "latitude": 43.48399752429447, "longitude": -79.65041353762467}, "107464646RR0001": {"name": "HANOVER & DISTRICT HOSPITAL", "designationCode": "C", "categoryCode": "10", "address": "90-7TH AVE", "city": "HANOVER", "province": "ON", "country": "CA", "postalCode": "N4N1N1", "twitter": "None", "instagram": "None", "facebook": "None", "youtube": "None", "website": "None", "summary": "None", "logo": "None", "latitude": 44.14202386315864, "longitude": -81.02823173835745}, "126781442RR0001": {"name": "HANOVER AND DISTRICT HOSPITAL FOUNDATION", "designationCode": "A", "categoryCode": "03", "address": "90 7TH AVE", "city": "HANOVER", "province": "ON", "country": "CA", "postalCode": "N4N1N1", "twitter": "None", "instagram": "None", "facebook": "None", "youtube": "None", "website": "None", "summary": "None", "logo": "None", "latitude": 44.14202386315864, "longitude": -81.02823173835745}, "829764166RR0001": {"name": "HANOVER COMMUNITY PLAYERS", "designationCode": "C", "categoryCode": "22", "address": "839 SIDE ROAD 20              RR#1", "city": "ELMWOOD", "province": "ON", "country": "CA", "postalCode": "N0G1S0", "twitter": "None", "instagram": "None", "facebook": "None", "youtube": "None", "website": "None", "summary": "None", "logo": "None", "latitude": 44.02762336937962, "longitude": -81.46611123408854}, "119288918RR0319": {"name": "HANOVER CONGREGATION OF JEHOVAH'S WITNESSES, ONTARIO", "designationCode": "C", "categoryCode": "61", "address": "762 15TH ST", "city": "HANOVER", "province": "ON", "country": "CA", "postalCode": "N4N3W7", "twitter": "None", "instagram": "None", "facebook": "None", "youtube": "None", "website": "None", "summary": "None", "logo": "None", "latitude": 44.160388842014235, "longitude": -81.01034026944372}, "118952662RR0001": {"name": "HANOVER MENNONITE CHURCH", "designationCode": "C", "categoryCode": "34", "address": "176266 CONC. 6  RR#3", "city": "CHATSWORTH", "province": "ON", "country": "CA", "postalCode": "N0H1G0", "twitter": "None", "instagram": "None", "facebook": "None", "youtube": "None", "website": "None", "summary": "None", "logo": "None", "latitude": 44.40737732386504, "longitude": -80.95757945873622}, "119245538RR0001": {"name": "HANOVER MISSIONARY CHURCH", "designationCode": "C", "categoryCode": "39", "address": "628-11TH STREET", "city": "HANOVER", "province": "ON", "country": "CA", "postalCode": "N4N1T7", "twitter": "None", "instagram": "None", "facebook": "None", "youtube": "None", "website": "None", "summary": "None", "logo": "None", "latitude": 44.15505724176223, "longitude": -81.01574681432854}, "108126947RR0001": {"name": "HANOVER PUBLIC LIBRARY BOARD", "designationCode": "C", "categoryCode": "50", "address": "451 10TH AVENUE", "city": "HANOVER", "province": "ON", "country": "CA", "postalCode": "N4N2P1", "twitter": "None", "instagram": "None", "facebook": "None", "youtube": "None", "website": "None", "summary": "None", "logo": "None", "latitude": 44.15211607660569, "longitude": -81.02642788354795}, "868931890RR0001": {"name": "HANS HANSMA CANADIAN YOUTH SCHOLARSHIP FUND", "designationCode": "C", "categoryCode": "21", "address": "9151 KALAMALKA RD", "city": "COLDSTREAM", "province": "BC", "country": "CA", "postalCode": "V1B3C4", "twitter": "None", "instagram": "None", "facebook": "None", "youtube": "None", "website": "None", "summary": "None", "logo": "None", "latitude": 50.22373427643869, "longitude": -119.21736239541558}, "131951667RR0001": {"name": "HANS HEALTH ACTION NETWORK SOCIETY", "designationCode": "C", "categoryCode": "11", "address": "3 - 1530 7TH AVE W", "city": "VANCOUVER", "province": "BC", "country": "CA", "postalCode": "V6J1S3", "twitter": "None", "instagram": "None", "facebook": "None", "youtube": "None", "website": "None", "summary": "None", "logo": "None", "latitude": 49.265260647214205, "longitude": -123.13905699197058}, "878219922RR0001": {"name": "HANSARANG PRESBYTERIAN CHURCH", "designationCode": "C", "categoryCode": "37", "address": "56 CUMMER AVE", "city": "TORONTO", "province": "ON", "country": "CA", "postalCode": "M2M2E5", "twitter": "None", "instagram": "None", "facebook": "None", "youtube": "None", "website": "None", "summary": "None", "logo": "None", "latitude": 43.78763012519463, "longitude": -79.41465848058161}, "868680547RR0001": {"name": "HANSON MEMORIAL UNDENOMINATIONAL CHURCH OF CHARLESTON", "designationCode": "C", "categoryCode": "39", "address": "4 CENTRAL STREET              P.O. BOX 222", "city": "ATHENS", "province": "ON", "country": "CA", "postalCode": "K0E1B0", "twitter": "None", "instagram": "None", "facebook": "None", "youtube": "None", "website": "None", "summary": "None", "logo": "None", "latitude": 44.62526837082334, "longitude": -75.9506851557215}, "131454860RR0001": {"name": "HANT'S HARBOUR PASTORAL CHARGE,", "designationCode": "C", "categoryCode": "44", "address": "PO BOX 3", "city": "HANTS HR", "province": "NL", "country": "CA", "postalCode": "A0B1Y0", "twitter": "None", "instagram": "None", "facebook": "None", "youtube": "None", "website": "None", "summary": "None", "logo": "None", "latitude": 48.006789000000055, "longitude": -53.26317349999994}, "890169063RR0001": {"name": "HANTI SIDRA ONE GLOBAL FAMILY SOCIETY", "designationCode": "C", "categoryCode": "09", "address": "PO BOX 20004", "city": "SIDNEY", "province": "BC", "country": "CA", "postalCode": "V8L5C9", "twitter": "None", "instagram": "None", "facebook": "None", "youtube": "None", "website": "None", "summary": "None", "logo": "None", "latitude": 48.65020800000005, "longitude": -123.39842299999994}, "859625873RR0001": {"name": "HANTS AQUATIC CENTRE SOCIETY", "designationCode": "C", "categoryCode": "56", "address": "100 KING STREET               P. O. BOX 158", "city": "WINDSOR", "province": "NS", "country": "CA", "postalCode": "B0N2T0", "twitter": "None", "instagram": "None", "facebook": "None", "youtube": "None", "website": "None", "summary": "None", "logo": "None", "latitude": 44.9950728734204, "longitude": -64.13668227090413}, "861559979RR0001": {"name": "HANTS COMMUNITY HOSPITAL AUXILIARY SOCIETY", "designationCode": "C", "categoryCode": "11", "address": "PO BOX 2836", "city": "WINDSOR", "province": "NS", "country": "CA", "postalCode": "B0N2T0", "twitter": "None", "instagram": "None", "facebook": "None", "youtube": "None", "website": "None", "summary": "None", "logo": "None", "latitude": 44.990170000000035, "longitude": -64.12904999999995}, "869664896RR0001": {"name": "HANTS COMMUNITY HOSPITAL FOUNDATION", "designationCode": "C", "categoryCode": "11", "address": "9 PAYZANT DRIVE", "city": "WINDSOR", "province": "NS", "country": "CA", "postalCode": "B0N2T0", "twitter": "None", "instagram": "None", "facebook": "None", "youtube": "None", "website": "None", "summary": "None", "logo": "None", "latitude": 44.98956645647427, "longitude": -64.12113448232869}, "882425416RR0001": {"name": "HANTS COUNTY COMMUNITY ACCESS NETWORK SOCIETY (HANTS COUNTY CAN)", "designationCode": "C", "categoryCode": "09", "address": "80 WATER STREET               PO BOX 2618", "city": "WINDSOR", "province": "NS", "country": "CA", "postalCode": "B0N2T0", "twitter": "None", "instagram": "None", "facebook": "None", "youtube": "None", "website": "None", "summary": "None", "logo": "None", "latitude": 44.99477375411148, "longitude": -64.13938114366071}, "129557823RR0001": {"name": "HANTS COUNTY RESIDENCE FOR SENIOR CITIZENS", "designationCode": "C", "categoryCode": "01", "address": "124 COTTAGE STREET", "city": "WINDSOR", "province": "NS", "country": "CA", "postalCode": "B0N2T0", "twitter": "None", "instagram": "None", "facebook": "None", "youtube": "None", "website": "None", "summary": "None", "logo": "None", "latitude": 44.98052778815907, "longitude": -64.12701461726012}, "865078778RR0001": {"name": "HANTS LEARNING NETWORK ASSOCIATION", "designationCode": "C", "categoryCode": "20", "address": "90 SANDFORD DRIVE             PO BOX 2465", "city": "WINDSOR", "province": "NS", "country": "CA", "postalCode": "B0N2T0", "twitter": "None", "instagram": "None", "facebook": "None", "youtube": "None", "website": "None", "summary": "None", "logo": "None", "latitude": 44.991107663079084, "longitude": -64.10423382240728}, "878384205RR0001": {"name": "HANTS NORTH COMMUNITY FOOD BANK", "designationCode": "C", "categoryCode": "09", "address": "6 BARR SETTLEMENT ROAD", "city": "EAST GORE", "province": "NS", "country": "CA", "postalCode": "B2S0A5", "twitter": "None", "instagram": "None", "facebook": "None", "youtube": "None", "website": "None", "summary": "None", "logo": "None", "latitude": 45.116386188441425, "longitude": -63.68282261420169}, "136720190RR0001": {"name": "HANTS NORTH MEDICAL ASSOCIATION", "designationCode": "C", "categoryCode": "10", "address": "P O BOX 52", "city": "NOEL", "province": "NS", "country": "CA", "postalCode": "B0N2C0", "twitter": "None", "instagram": "None", "facebook": "None", "youtube": "None", "website": "None", "summary": "None", "logo": "None", "latitude": 45.304215000000056, "longitude": -63.75491899999993}, "890458243RR0001": {"name": "HANTS NORTH RURAL HIGH SCHOOL PRIZE FUND COMMITTEE", "designationCode": "C", "categoryCode": "21", "address": "4369 HIGHWAY 236", "city": "KENNETCOOK", "province": "NS", "country": "CA", "postalCode": "B0N1P0", "twitter": "None", "instagram": "None", "facebook": "None", "youtube": "None", "website": "None", "summary": "None", "logo": "None", "latitude": 45.18131286137022, "longitude": -63.71647480717589}, "118952795RR0001": {"name": "HANTS SHORE HEALTH ASSOCIATION", "designationCode": "C", "categoryCode": "11", "address": "5638 HIGHWAY 215", "city": "NEWPORT", "province": "NS", "country": "CA", "postalCode": "B0N2A0", "twitter": "None", "instagram": "None", "facebook": "None", "youtube": "None", "website": "None", "summary": "None", "logo": "None", "latitude": 45.1296952737968, "longitude": -64.19389469974891}, "886938489RR0001": {"name": "HANTSPORT & AREA HISTORICAL SOCIETY", "designationCode": "C", "categoryCode": "50", "address": "PO BOX 525", "city": "HANTSPORT", "province": "NS", "country": "CA", "postalCode": "B0P1P0", "twitter": "None", "instagram": "None", "facebook": "None", "youtube": "None", "website": "None", "summary": "None", "logo": "None", "latitude": 45.054843212991415, "longitude": -64.17704290496583}, "118952761RR0001": {"name": "HANTSPORT BAPTIST CHURCH", "designationCode": "C", "categoryCode": "31", "address": "P O BOX 152", "city": "HANTSPORT", "province": "NS", "country": "CA", "postalCode": "B0P1P0", "twitter": "None", "instagram": "None", "facebook": "None", "youtube": "None", "website": "None", "summary": "None", "logo": "None", "latitude": 45.054843212991415, "longitude": -64.17704290496583}, "118952779RR0001": {"name": "HANTSPORT MEMORIAL SCHOLARSHIP FOUNDATION", "designationCode": "C", "categoryCode": "21", "address": "PO BOX 392", "city": "HANTSPORT", "province": "NS", "country": "CA", "postalCode": "B0P1P0", "twitter": "None", "instagram": "None", "facebook": "None", "youtube": "None", "website": "None", "summary": "None", "logo": "None", "latitude": 45.054843212991415, "longitude": -64.17704290496583}, "107465601RR0001": {"name": "HANTSPORT PASTORAL CHARGE", "designationCode": "C", "categoryCode": "44", "address": "P.O. BOX 414", "city": "HANTSPORT", "province": "NS", "country": "CA", "postalCode": "B0P1P0", "twitter": "None", "instagram": "None", "facebook": "None", "youtube": "None", "website": "None", "summary": "None", "logo": "None", "latitude": 45.054843212991415, "longitude": -64.17704290496583}, "870360609RR0001": {"name": "HANWELL COMMUNITY CHURCH, INC.", "designationCode": "C", "categoryCode": "31", "address": "3 DEERWOOD DRIVE", "city": "HANWELL", "province": "NB", "country": "CA", "postalCode": "E3E1B9", "twitter": "None", "instagram": "None", "facebook": "None", "youtube": "None", "website": "None", "summary": "None", "logo": "None", "latitude": 45.900927293533805, "longitude": -66.75737390949004}, "130588098RR0001": {"name": "HANWOOL PRESBYTERIAN CHURCH", "designationCode": "C", "categoryCode": "37", "address": "2183 KING ROAD", "city": "KING CITY", "province": "ON", "country": "CA", "postalCode": "L7B1G3", "twitter": "None", "instagram": "None", "facebook": "None", "youtube": "None", "website": "None", "summary": "None", "logo": "None", "latitude": 43.929309889232094, "longitude": -79.5253253845289}, "747962496RR0001": {"name": "HANY", "designationCode": "C", "categoryCode": "09", "address": "M2 - 333 RUE SHERBROOKE E", "city": "MONTREAL", "province": "QC", "country": "CA", "postalCode": "H2X4E3", "twitter": "None", "instagram": "None", "facebook": "None", "youtube": "None", "website": "None", "summary": "None", "logo": "None", "latitude": 45.51470699730257, "longitude": -73.56848157816805}, "889455598RR0001": {"name": "HAPNOT COLLEGIATE SCHOLARSHIP/ENDOWMENT FUND", "designationCode": "C", "categoryCode": "21", "address": "9 TERRACE", "city": "FLIN FLON", "province": "MB", "country": "CA", "postalCode": "R8A1S2", "twitter": "None", "instagram": "None", "facebook": "None", "youtube": "None", "website": "None", "summary": "None", "logo": "None", "latitude": 54.76462678706465, "longitude": -101.87110200415802}}