{"130387665RR0006": {"name": "SPONSORING COMMITTEE OF NO. 999 SQUADRON, ROYAL CANADIAN AI R CADETS", "designationCode": "C", "categoryCode": "29", "address": "PO BOX 447", "city": "ODESSA", "province": "ON", "country": "CA", "postalCode": "K0H2H0", "twitter": "None", "instagram": "None", "facebook": "None", "youtube": "None", "website": "None", "summary": "None", "logo": "None", "latitude": 44.27698000000004, "longitude": -76.71890999999994}, "865191910RR0001": {"name": "SPONSORING COMMITTEE, 902 (KIWANIS) SQUADRON, SUMMERLAND, ACL OF C", "designationCode": "C", "categoryCode": "29", "address": "BOX 927", "city": "SUMMERLAND", "province": "BC", "country": "CA", "postalCode": "V0H1Z0", "twitter": "None", "instagram": "None", "facebook": "None", "youtube": "None", "website": "None", "summary": "None", "logo": "None", "latitude": 49.60131900000006, "longitude": -119.67899299999993}, "129721395RR0001": {"name": "SPORT BY ABILITY NIAGARA INC", "designationCode": "C", "categoryCode": "56", "address": "8 NAPIER ST.", "city": "ST. CATHARINES", "province": "ON", "country": "CA", "postalCode": "L2R6B4", "twitter": "None", "instagram": "None", "facebook": "None", "youtube": "None", "website": "None", "summary": "None", "logo": "None", "latitude": 43.162959132667794, "longitude": -79.25216626934626}, "136121878RR0001": {"name": "SPORT CENTRAL ASSOCIATION", "designationCode": "C", "categoryCode": "09", "address": "11847 WAYNE GRETZKY DRIVE     NORTH", "city": "EDMONTON", "province": "AB", "country": "CA", "postalCode": "T5B1Y2", "twitter": "None", "instagram": "None", "facebook": "None", "youtube": "None", "website": "None", "summary": "None", "logo": "None", "latitude": 53.57172536081134, "longitude": -113.4521372490625}, "124419680RR0001": {"name": "SPORT MEDICINE COUNCIL OF ALBERTA", "designationCode": "C", "categoryCode": "11", "address": "11759 GROAT ROAD", "city": "EDMONTON", "province": "AB", "country": "CA", "postalCode": "T5M3K6", "twitter": "None", "instagram": "None", "facebook": "None", "youtube": "None", "website": "None", "summary": "None", "logo": "None", "latitude": 53.56974075240938, "longitude": -113.54923837596016}, "892418641RR0001": {"name": "SPORT MEDICINE INSTITUTE OF NOVA SCOTIA", "designationCode": "C", "categoryCode": "11", "address": "5595 FENWICK STREET           SUITE 311", "city": "HALIFAX", "province": "NS", "country": "CA", "postalCode": "B3H4M2", "twitter": "None", "instagram": "None", "facebook": "None", "youtube": "None", "website": "None", "summary": "None", "logo": "None", "latitude": 44.63779507080594, "longitude": -63.57447772052618}, "118795830RR0001": {"name": "SPORTAID INTERNATIONAL", "designationCode": "C", "categoryCode": "47", "address": "20385 64TH AVE", "city": "LANGLEY", "province": "BC", "country": "CA", "postalCode": "V2Y1N5", "twitter": "None", "instagram": "None", "facebook": "None", "youtube": "None", "website": "None", "summary": "None", "logo": "None", "latitude": 49.119045277109755, "longitude": -122.6577146462147}, "122570963RR0001": {"name": "SPORTPLEX INC", "designationCode": "C", "categoryCode": "56", "address": "22 RUE SPORTPLEX,UNITE 1", "city": "NEGUAC", "province": "NB", "country": "CA", "postalCode": "E9G1X4", "twitter": "None", "instagram": "None", "facebook": "None", "youtube": "None", "website": "None", "summary": "None", "logo": "None", "latitude": 47.259835313189846, "longitude": -65.07151484137066}, "885701300RR0001": {"name": "SPORTS FOR SPECIAL ATHLETES INC.", "designationCode": "C", "categoryCode": "56", "address": "PO BOX 310", "city": "ST JACOBS", "province": "ON", "country": "CA", "postalCode": "N0B2N0", "twitter": "None", "instagram": "None", "facebook": "None", "youtube": "None", "website": "None", "summary": "None", "logo": "None", "latitude": 43.323228, "longitude": -80.84048254759267}, "104969787RR0001": {"name": "SPOT JEUNESSE DE SHERBROOKE", "designationCode": "C", "categoryCode": "09", "address": "CP 414", "city": "SHERBROOKE", "province": "QC", "country": "CA", "postalCode": "J1H5J7", "twitter": "None", "instagram": "None", "facebook": "None", "youtube": "None", "website": "None", "summary": "None", "logo": "None", "latitude": 45.403251000000054, "longitude": -71.88894349999994}, "804959435RR0001": {"name": "SPOT, Clinique communautaire de sant\u00e9 et d'enseignement", "designationCode": "C", "categoryCode": "11", "address": "945 RUE SOEURS-DE-LA-CHARITE  BUREAU 225", "city": "QUEBEC", "province": "QC", "country": "CA", "postalCode": "G1R1H8", "twitter": "None", "instagram": "None", "facebook": "None", "youtube": "None", "website": "None", "summary": "None", "logo": "None", "latitude": 46.81337857868314, "longitude": -71.21607016610885}, "118806579RR0001": {"name": "SPRAGGE BIBLE CHURCH, INC.", "designationCode": "C", "categoryCode": "39", "address": "PO BOX 1", "city": "SPRAGGE", "province": "ON", "country": "CA", "postalCode": "P0R1K0", "twitter": "None", "instagram": "None", "facebook": "None", "youtube": "None", "website": "None", "summary": "None", "logo": "None", "latitude": 46.208840000000066, "longitude": -82.65385999999995}, "857564876RR0001": {"name": "SPRAGUE & DISTRICT HISTORICAL MUSEUM INC.", "designationCode": "C", "categoryCode": "50", "address": "BOX 123", "city": "SPRAGUE", "province": "MB", "country": "CA", "postalCode": "R0A1Z0", "twitter": "None", "instagram": "None", "facebook": "None", "youtube": "None", "website": "None", "summary": "None", "logo": "None", "latitude": 49.03615000000008, "longitude": -95.64291999999995}, "119160463RR0001": {"name": "SPRAGUE BAPTIST CHURCH", "designationCode": "C", "categoryCode": "31", "address": "BOX 53", "city": "SOUTH JUNCTION", "province": "MB", "country": "CA", "postalCode": "R0A1Y0", "twitter": "None", "instagram": "None", "facebook": "None", "youtube": "None", "website": "None", "summary": "None", "logo": "None", "latitude": 49.00470504591054, "longitude": -97.20074632623003}, "119160497RR0001": {"name": "SPRING BAY PENTECOSTAL ASSEMBLY", "designationCode": "C", "categoryCode": "36", "address": "9351 HWY 542, BOX 86", "city": "SPRING BAY", "province": "ON", "country": "CA", "postalCode": "P0P2B0", "twitter": "None", "instagram": "None", "facebook": "None", "youtube": "None", "website": "None", "summary": "None", "logo": "None", "latitude": 45.731731968811864, "longitude": -82.32426631529002}, "119160513RR0001": {"name": "SPRING BROOK UNITED CHURCH", "designationCode": "C", "categoryCode": "44", "address": "147 HUFF ROAD", "city": "MARMORA", "province": "ON", "country": "CA", "postalCode": "K0K2M0", "twitter": "None", "instagram": "None", "facebook": "None", "youtube": "None", "website": "None", "summary": "None", "logo": "None", "latitude": 44.43306794535528, "longitude": -77.63912402051677}, "133923953RR0001": {"name": "SPRING CREEK CANADIAN REFORMED CHURCH", "designationCode": "C", "categoryCode": "39", "address": "1887 HIGHWAY 20               RR 2", "city": "ST ANNS", "province": "ON", "country": "CA", "postalCode": "L0R1Y0", "twitter": "None", "instagram": "None", "facebook": "None", "youtube": "None", "website": "None", "summary": "None", "logo": "None", "latitude": 43.07551139887356, "longitude": -79.5090993432137}, "892903071RR0001": {"name": "SPRING CREEK CHARITABLE TRUST", "designationCode": "B", "categoryCode": "39", "address": "3425 2 AVE S", "city": "LETHBRIDGE", "province": "AB", "country": "CA", "postalCode": "T1J4V1", "twitter": "None", "instagram": "None", "facebook": "None", "youtube": "None", "website": "None", "summary": "None", "logo": "None", "latitude": 49.696839530439966, "longitude": -112.78914308381903}, "108000522RR0001": {"name": "SPRING GARDEN BAPTIST CHURCH", "designationCode": "C", "categoryCode": "31", "address": "20 WOODTHRUSH COURT", "city": "NORTH YORK", "province": "ON", "country": "CA", "postalCode": "M2K2B1", "twitter": "None", "instagram": "None", "facebook": "None", "youtube": "None", "website": "None", "summary": "None", "logo": "None", "latitude": 43.7838351107679, "longitude": -79.38145794295694}, "865331730RR0001": {"name": "SPRING HILL CHARITABLE TRUST", "designationCode": "B", "categoryCode": "39", "address": "1401 PRINCESS AVENUE", "city": "BRANDON", "province": "MB", "country": "CA", "postalCode": "R7A7L7", "twitter": "None", "instagram": "None", "facebook": "None", "youtube": "None", "website": "None", "summary": "None", "logo": "None", "latitude": 49.84694947489748, "longitude": -99.957294}, "892465840RR0001": {"name": "SPRING LAKE CHARITABLE TRUST", "designationCode": "B", "categoryCode": "39", "address": "50-1ST AVE NE", "city": "SWIFT CURRENT", "province": "SK", "country": "CA", "postalCode": "S9H4W4", "twitter": "None", "instagram": "None", "facebook": "None", "youtube": "None", "website": "None", "summary": "None", "logo": "None", "latitude": 50.282664378132, "longitude": -107.79863205289816}, "120650833RR0001": {"name": "SPRING MEADOWS SCHOOL AGE CENTRE", "designationCode": "C", "categoryCode": "01", "address": "95 BOURNAIS DR", "city": "WINNIPEG", "province": "MB", "country": "CA", "postalCode": "R2C3Z2", "twitter": "None", "instagram": "None", "facebook": "None", "youtube": "None", "website": "None", "summary": "None", "logo": "None", "latitude": 49.89008153984638, "longitude": -97.04218568855606}, "857172449RR0001": {"name": "SPRING OF LIFE MISSIONS", "designationCode": "C", "categoryCode": "39", "address": "18 PRIMULA CRESCENT", "city": "TORONTO", "province": "ON", "country": "CA", "postalCode": "M9L1K1", "twitter": "None", "instagram": "None", "facebook": "None", "youtube": "None", "website": "None", "summary": "None", "logo": "None", "latitude": 43.762101023601986, "longitude": -79.57425250288553}, "130918113RR0001": {"name": "SPRING PARK UNITED CHURCH", "designationCode": "C", "categoryCode": "44", "address": "65 KIRKWOOD DR", "city": "CHARLOTTETOWN", "province": "PE", "country": "CA", "postalCode": "C1A2T8", "twitter": "None", "instagram": "None", "facebook": "None", "youtube": "None", "website": "None", "summary": "None", "logo": "None", "latitude": 46.24279489148247, "longitude": -63.14295909048413}, "141049569RR0001": {"name": "SPRING POINT CHARITABLE TRUST", "designationCode": "B", "categoryCode": "45", "address": "PO BOX 249", "city": "PINCHER CREEK", "province": "AB", "country": "CA", "postalCode": "T0K1W0", "twitter": "None", "instagram": "None", "facebook": "None", "youtube": "None", "website": "None", "summary": "None", "logo": "None", "latitude": 49.48739000000006, "longitude": -113.9366800732874}, "863875209RR0001": {"name": "SPRING RAINS DEVELOPMENTS", "designationCode": "C", "categoryCode": "39", "address": "121 DORY ROW                  RR 1", "city": "THORNBURY", "province": "ON", "country": "CA", "postalCode": "N0H2P0", "twitter": "None", "instagram": "None", "facebook": "None", "youtube": "None", "website": "None", "summary": "None", "logo": "None", "latitude": 44.58021000000005, "longitude": -80.49160699999993}, "863032389RR0001": {"name": "SPRING VALLEY & DISTRICT INTERPRETIVE CENTRE INC.", "designationCode": "C", "categoryCode": "50", "address": "BOX 8", "city": "SPRING VALLEY", "province": "SK", "country": "CA", "postalCode": "S0H3X0", "twitter": "None", "instagram": "None", "facebook": "None", "youtube": "None", "website": "None", "summary": "None", "logo": "None", "latitude": 49.94365000000005, "longitude": -105.40342999999996}, "138415179RR0001": {"name": "SPRING VALLEY CHARITABLE TRUST", "designationCode": "B", "categoryCode": "39", "address": "1401 PRINCESS AVENUE", "city": "BRANDON", "province": "MB", "country": "CA", "postalCode": "R7A7L7", "twitter": "None", "instagram": "None", "facebook": "None", "youtube": "None", "website": "None", "summary": "None", "logo": "None", "latitude": 49.84694947489748, "longitude": -99.957294}, "872556568RR0001": {"name": "SPRING VALLEY CHARITABLE TRUST", "designationCode": "B", "categoryCode": "39", "address": "3425-2 AVENUE SOUTH", "city": "LETHBRIDGE", "province": "AB", "country": "CA", "postalCode": "T1J4V1", "twitter": "None", "instagram": "None", "facebook": "None", "youtube": "None", "website": "None", "summary": "None", "logo": "None", "latitude": 49.696839530439966, "longitude": -112.78914308381903}, "834946162RR0001": {"name": "SPRING VALLEY CHURCH OF CHRIST", "designationCode": "C", "categoryCode": "39", "address": "106 - 1580 SPRINGFIELD RD", "city": "KELOWNA", "province": "BC", "country": "CA", "postalCode": "V1Y5V4", "twitter": "None", "instagram": "None", "facebook": "None", "youtube": "None", "website": "None", "summary": "None", "logo": "None", "latitude": 49.87686463526881, "longitude": -119.46391130883526}, "123275224RR0001": {"name": "SPRINGBANK PARK FOR ALL SEASONS AGRICULTURAL SOCIETY", "designationCode": "C", "categoryCode": "56", "address": "32224A SPRINGBANK ROAD", "city": "CALGARY", "province": "AB", "country": "CA", "postalCode": "T3Z2L9", "twitter": "None", "instagram": "None", "facebook": "None", "youtube": "None", "website": "None", "summary": "None", "logo": "None", "latitude": 51.067053888877474, "longitude": -114.34611801473338}, "134175520RR0001": {"name": "SPRINGBANK UNITED CHURCH", "designationCode": "C", "categoryCode": "44", "address": "250011 RANGE ROAD 33", "city": "CALGARY", "province": "AB", "country": "CA", "postalCode": "T3Z1L2", "twitter": "None", "instagram": "None", "facebook": "None", "youtube": "None", "website": "None", "summary": "None", "logo": "None", "latitude": 51.09825006419584, "longitude": -114.35039356955724}, "107560443RR0001": {"name": "SPRINGBOARD CENTRE FOR ADULTS WITH DISABILITIES", "designationCode": "C", "categoryCode": "20", "address": "STE 14, 2115 27TH AVE NE", "city": "CALGARY", "province": "AB", "country": "CA", "postalCode": "T2E7E4", "twitter": "None", "instagram": "None", "facebook": "None", "youtube": "None", "website": "None", "summary": "None", "logo": "None", "latitude": 51.076879495095255, "longitude": -114.0105015}, "888267242RR0001": {"name": "SPRINGBOARD DANCE COLLECTIVE CALGARY SOCIETY", "designationCode": "C", "categoryCode": "22", "address": "205 8TH AVE SE                2ND FLOOR", "city": "CALGARY", "province": "AB", "country": "CA", "postalCode": "T2G0K9", "twitter": "None", "instagram": "None", "facebook": "None", "youtube": "None", "website": "None", "summary": "None", "logo": "None", "latitude": 51.04534220984015, "longitude": -114.05999708058519}, "119160505RR0001": {"name": "SPRINGBROOK BIBLE CHAPEL", "designationCode": "C", "categoryCode": "39", "address": "450 RYLESTONE ROAD, R.R. #4", "city": "MARMORA", "province": "ON", "country": "CA", "postalCode": "K0K2M0", "twitter": "None", "instagram": "None", "facebook": "None", "youtube": "None", "website": "None", "summary": "None", "logo": "None", "latitude": 44.39638196091528, "longitude": -77.70637834214634}, "108000142RR0001": {"name": "SPRINGDALE CHRISTIAN REFORMED CHURCH", "designationCode": "C", "categoryCode": "39", "address": "1466 SIDEROAD 5", "city": "BRADFORD", "province": "ON", "country": "CA", "postalCode": "L3Z4A8", "twitter": "None", "instagram": "None", "facebook": "None", "youtube": "None", "website": "None", "summary": "None", "logo": "None", "latitude": 44.11572900000006, "longitude": -79.62258049999993}, "120570338RR0001": {"name": "SPRINGDALE CHURCH, TORONTO", "designationCode": "C", "categoryCode": "39", "address": "30 MERRITT ROAD", "city": "TORONTO", "province": "ON", "country": "CA", "postalCode": "M4B3K5", "twitter": "None", "instagram": "None", "facebook": "None", "youtube": "None", "website": "None", "summary": "None", "logo": "None", "latitude": 43.70851287621902, "longitude": -79.30390877589579}, "119288918RR1010": {"name": "SPRINGDALE CONGREGATION OF JEHOVAH'S WITNESSES, BRAMPTON, ONTARIO", "designationCode": "C", "categoryCode": "61", "address": "69 REVELSTOKE PL", "city": "BRAMPTON", "province": "ON", "country": "CA", "postalCode": "L6R3G4", "twitter": "None", "instagram": "None", "facebook": "None", "youtube": "None", "website": "None", "summary": "None", "logo": "None", "latitude": 43.76963595143971, "longitude": -79.73472718722934}, "818402877RR0001": {"name": "SPRINGDALE HERITAGE SOCIETY INC.", "designationCode": "C", "categoryCode": "50", "address": "PO BOX 896", "city": "SPRINGDALE", "province": "NL", "country": "CA", "postalCode": "A0J1T0", "twitter": "None", "instagram": "None", "facebook": "None", "youtube": "None", "website": "None", "summary": "None", "logo": "None", "latitude": 49.497243000000054, "longitude": -56.07671299999993}, "119160554RR0001": {"name": "SPRINGDALE PASTORAL CHARGE", "designationCode": "C", "categoryCode": "44", "address": "P O BOX 38", "city": "SPRINGDALE", "province": "NL", "country": "CA", "postalCode": "A0J1T0", "twitter": "None", "instagram": "None", "facebook": "None", "youtube": "None", "website": "None", "summary": "None", "logo": "None", "latitude": 49.497243000000054, "longitude": -56.07671299999993}, "107833394RR0075": {"name": "SPRINGDALE PENTECOSTAL CHURCH", "designationCode": "C", "categoryCode": "36", "address": "P O BOX 8", "city": "SPRINGDALE", "province": "NL", "country": "CA", "postalCode": "A0J1T0", "twitter": "None", "instagram": "None", "facebook": "None", "youtube": "None", "website": "None", "summary": "None", "logo": "None", "latitude": 49.497243000000054, "longitude": -56.07671299999993}, "859058372RR0001": {"name": "SPRINGFIELD BAPTIST CHURCH,", "designationCode": "C", "categoryCode": "31", "address": "P.O. BOX 116                  12471 WHITTAKER RD.", "city": "SPRINGFIELD", "province": "ON", "country": "CA", "postalCode": "N0L2J0", "twitter": "None", "instagram": "None", "facebook": "None", "youtube": "None", "website": "None", "summary": "None", "logo": "None", "latitude": 42.83408758673323, "longitude": -80.93710620788846}, "888465093RR0001": {"name": "SPRINGFIELD CHARITABLE TRUST", "designationCode": "B", "categoryCode": "39", "address": "3425 2 AVE S", "city": "LETHBRIDGE", "province": "AB", "country": "CA", "postalCode": "T1J4V1", "twitter": "None", "instagram": "None", "facebook": "None", "youtube": "None", "website": "None", "summary": "None", "logo": "None", "latitude": 49.696839530439966, "longitude": -112.78914308381903}, "119160570RR0001": {"name": "SPRINGFIELD COMMUNITY CHURCH INC.", "designationCode": "C", "categoryCode": "39", "address": "BOX 338", "city": "OAKBANK", "province": "MB", "country": "CA", "postalCode": "R0E1J0", "twitter": "None", "instagram": "None", "facebook": "None", "youtube": "None", "website": "None", "summary": "None", "logo": "None", "latitude": 49.93758600000005, "longitude": -96.84243349999993}, "108000324RR0001": {"name": "SPRINGFIELD HEIGHTS MENNONITE CHURCH", "designationCode": "C", "categoryCode": "34", "address": "570 SHARRON BAY", "city": "WINNIPEG", "province": "MB", "country": "CA", "postalCode": "R2G0H9", "twitter": "None", "instagram": "None", "facebook": "None", "youtube": "None", "website": "None", "summary": "None", "logo": "None", "latitude": 49.93560884098895, "longitude": -97.07954338868383}, "119160596RR0001": {"name": "SPRINGFIELD HEIGHTS NURSERY SCHOOL INC.", "designationCode": "C", "categoryCode": "20", "address": "570 SHARRON BAY", "city": "WINNIPEG", "province": "MB", "country": "CA", "postalCode": "R2G0H9", "twitter": "None", "instagram": "None", "facebook": "None", "youtube": "None", "website": "None", "summary": "None", "logo": "None", "latitude": 49.93560884098895, "longitude": -97.07954338868383}, "100221910RR0001": {"name": "SPRINGFIELD LEARNING CENTRES INCORPORATED", "designationCode": "C", "categoryCode": "01", "address": "PO BOX 255", "city": "DUGALD", "province": "MB", "country": "CA", "postalCode": "R0E0K0", "twitter": "None", "instagram": "None", "facebook": "None", "youtube": "None", "website": "None", "summary": "None", "logo": "None", "latitude": 49.88499864004564, "longitude": -96.36123557915003}, "890147143RR0001": {"name": "SPRINGFIELD PARENTS FOR PERFORMING ARTS INC.", "designationCode": "C", "categoryCode": "21", "address": "PO BOX 56", "city": "DUGALD", "province": "MB", "country": "CA", "postalCode": "R0E0K0", "twitter": "None", "instagram": "None", "facebook": "None", "youtube": "None", "website": "None", "summary": "None", "logo": "None", "latitude": 49.88499864004564, "longitude": -96.36123557915003}, "108000480RR0001": {"name": "SPRINGFIELD TINY TOTS INC.", "designationCode": "C", "categoryCode": "01", "address": "6-530 MAIN STREET             BOX 460", "city": "OAKBANK", "province": "MB", "country": "CA", "postalCode": "R0E1J0", "twitter": "None", "instagram": "None", "facebook": "None", "youtube": "None", "website": "None", "summary": "None", "logo": "None", "latitude": 49.93843057004887, "longitude": -96.842483418905}, "108000498RR0001": {"name": "SPRINGFIELD UNITED BAPTIST CHURCH", "designationCode": "C", "categoryCode": "31", "address": "749 LAKE PLEASANT RD.", "city": "SPRINGFIELD", "province": "NS", "country": "CA", "postalCode": "B0R1H0", "twitter": "None", "instagram": "None", "facebook": "None", "youtube": "None", "website": "None", "summary": "None", "logo": "None", "latitude": 44.62473375797797, "longitude": -64.88042063881328}, "820092955RR0001": {"name": "SPRINGFIELD WEST - O'LEARY BAPTIST CHURCH INC.", "designationCode": "C", "categoryCode": "31", "address": "P.O. BOX 481", "city": "O'LEARY", "province": "PE", "country": "CA", "postalCode": "C0B1V0", "twitter": "None", "instagram": "None", "facebook": "None", "youtube": "None", "website": "None", "summary": "None", "logo": "None", "latitude": 46.71305115704506, "longitude": -64.19110057190973}, "886199397RR0001": {"name": "SPRINGFORD BAPTIST CHURCH,", "designationCode": "C", "categoryCode": "31", "address": "244881 MILLDALE ROAD          RR 1", "city": "OTTERVILLE", "province": "ON", "country": "CA", "postalCode": "N0J1R0", "twitter": "None", "instagram": "None", "facebook": "None", "youtube": "None", "website": "None", "summary": "None", "logo": "None", "latitude": 42.92900783218318, "longitude": -80.68849051609261}, "813401189RR0001": {"name": "SPRINGFORD REFORMED CHURCH INC.", "designationCode": "C", "categoryCode": "39", "address": "308 CHURCH ST. P.O. BOX 8", "city": "SPRINGFORD", "province": "ON", "country": "CA", "postalCode": "N0J1X0", "twitter": "None", "instagram": "None", "facebook": "None", "youtube": "None", "website": "None", "summary": "None", "logo": "None", "latitude": 42.92764244119321, "longitude": -80.60735037036744}, "108000571RR0001": {"name": "SPRINGHILL COMMUNITY PRE-SCHOOL SOCIETY", "designationCode": "C", "categoryCode": "20", "address": "7730 106 STREET NW", "city": "EDMONTON", "province": "AB", "country": "CA", "postalCode": "T6E4W3", "twitter": "None", "instagram": "None", "facebook": "None", "youtube": "None", "website": "None", "summary": "None", "logo": "None", "latitude": 53.51375252787249, "longitude": -113.50354018053464}, "865653539RR0001": {"name": "SPRINGHILL GROUND SEARCH & RESCUE (EMO)", "designationCode": "C", "categoryCode": "59", "address": "30 MINERS MEMORIAL DRIVE      P.O. BOX 329", "city": "SPRINGHILL", "province": "NS", "country": "CA", "postalCode": "B0M1X0", "twitter": "None", "instagram": "None", "facebook": "None", "youtube": "None", "website": "None", "summary": "None", "logo": "None", "latitude": 45.645134247540014, "longitude": -64.0657158441389}, "860212737RR0001": {"name": "SPRINGHILL JUNCTION CEMETERY COMPANY", "designationCode": "C", "categoryCode": "59", "address": "16 VILLAGE ROAD", "city": "SPRINGHILL JUNCTION", "province": "NS", "country": "CA", "postalCode": "B0M1X0", "twitter": "None", "instagram": "None", "facebook": "None", "youtube": "None", "website": "None", "summary": "None", "logo": "None", "latitude": 45.69308778714565, "longitude": -64.11238128712155}, "119160711RR0002": {"name": "SPRINGHILL UNITED BAPTIST CHURCH", "designationCode": "C", "categoryCode": "31", "address": "PO BOX 819", "city": "SPRINGHILL", "province": "NS", "country": "CA", "postalCode": "B0M1X0", "twitter": "None", "instagram": "None", "facebook": "None", "youtube": "None", "website": "None", "summary": "None", "logo": "None", "latitude": 45.65057000000007, "longitude": -64.05729999999994}, "119160745RR0001": {"name": "SPRINGRIDGE MENNONITE CHURCH", "designationCode": "C", "categoryCode": "34", "address": "PO BOX 69", "city": "PINCHER CREEK", "province": "AB", "country": "CA", "postalCode": "T0K1W0", "twitter": "None", "instagram": "None", "facebook": "None", "youtube": "None", "website": "None", "summary": "None", "logo": "None", "latitude": 49.48739000000006, "longitude": -113.9366800732874}, "135667921RR0001": {"name": "SPRINGS OF JOY CHRISTIAN FELLOWSHIP OF COCHRANE", "designationCode": "C", "categoryCode": "36", "address": "BOX 1168", "city": "COCHRANE", "province": "AB", "country": "CA", "postalCode": "T4C1B2", "twitter": "None", "instagram": "None", "facebook": "None", "youtube": "None", "website": "None", "summary": "None", "logo": "None", "latitude": 51.19089900000006, "longitude": -114.46804249999994}, "857269237RR0001": {"name": "SPRINGS OF LIFE FAMILY CHURCH INC.", "designationCode": "C", "categoryCode": "39", "address": "828 GILLIES CRES", "city": "SASKATOON", "province": "SK", "country": "CA", "postalCode": "S7V0C2", "twitter": "None", "instagram": "None", "facebook": "None", "youtube": "None", "website": "None", "summary": "None", "logo": "None", "latitude": 52.09151275408283, "longitude": -106.5625325757976}, "887736924RR0001": {"name": "SPRINGS OF LIFE FELLOWSHIP", "designationCode": "C", "categoryCode": "39", "address": "1398 MCQUARRIE ST", "city": "TRAIL", "province": "BC", "country": "CA", "postalCode": "V1R1X3", "twitter": "None", "instagram": "None", "facebook": "None", "youtube": "None", "website": "None", "summary": "None", "logo": "None", "latitude": 49.09653218973414, "longitude": -117.70051613577675}, "865113575RR0001": {"name": "SPRINGS OF LIFE MINISTRIES INC.", "designationCode": "C", "categoryCode": "39", "address": "333 SILVERSTONE DRIVE", "city": "ETOBICOKE", "province": "ON", "country": "CA", "postalCode": "M9V3J8", "twitter": "None", "instagram": "None", "facebook": "None", "youtube": "None", "website": "None", "summary": "None", "logo": "None", "latitude": 43.74957041603675, "longitude": -79.60012382018557}, "871716494RR0001": {"name": "SPRINGS OF LIFE VICTORY CHURCH", "designationCode": "C", "categoryCode": "39", "address": "P.O. BOX 413                  35 HERITAGE PL", "city": "ILDERTON", "province": "ON", "country": "CA", "postalCode": "N0M2A0", "twitter": "None", "instagram": "None", "facebook": "None", "youtube": "None", "website": "None", "summary": "None", "logo": "None", "latitude": 43.074618917981, "longitude": -81.37502562914275}, "108000654RR0001": {"name": "SPRINGS OF LIVING WATER CENTRE INC.", "designationCode": "C", "categoryCode": "39", "address": "725 LAGIMODIERE BLVD.", "city": "WINNIPEG", "province": "MB", "country": "CA", "postalCode": "R2J0T8", "twitter": "None", "instagram": "None", "facebook": "None", "youtube": "None", "website": "None", "summary": "None", "logo": "None", "latitude": 49.8647055937768, "longitude": -97.06305950921325}, "119160794RR0001": {"name": "SPRINGS OF LIVING WATER CHRISTIAN ACADEMY INCORPORATED", "designationCode": "C", "categoryCode": "20", "address": "725 LAGIMODIERE BLVD", "city": "WINNIPEG", "province": "MB", "country": "CA", "postalCode": "R2J0T8", "twitter": "None", "instagram": "None", "facebook": "None", "youtube": "None", "website": "None", "summary": "None", "logo": "None", "latitude": 49.8647055937768, "longitude": -97.06305950921325}, "119160802RR0001": {"name": "SPRINGS OF LIVING WATER CHRISTIAN MINISTRIES", "designationCode": "C", "categoryCode": "36", "address": "SUITE 405                     17109-67 AVENUE NW", "city": "EDMONTON", "province": "AB", "country": "CA", "postalCode": "T5T6E6", "twitter": "None", "instagram": "None", "facebook": "None", "youtube": "None", "website": "None", "summary": "None", "logo": "None", "latitude": 53.502882520630465, "longitude": -113.61775249570084}, "864638630RR0001": {"name": "SPRINGS OF LIVING WATERS MINISTRIES", "designationCode": "C", "categoryCode": "39", "address": "104 7011 133A STREET", "city": "SURREY", "province": "BC", "country": "CA", "postalCode": "V3W7Z8", "twitter": "None", "instagram": "None", "facebook": "None", "youtube": "None", "website": "None", "summary": "None", "logo": "None", "latitude": 49.130341314444124, "longitude": -122.85330009146509}, "889753174RR0001": {"name": "SPRINGS OF SALVATION OF CHURCH (SCARBOROUGH)", "designationCode": "C", "categoryCode": "39", "address": "1319 NEILSON RD", "city": "SCARBOROUGH", "province": "ON", "country": "CA", "postalCode": "M1B5V9", "twitter": "None", "instagram": "None", "facebook": "None", "youtube": "None", "website": "None", "summary": "None", "logo": "None", "latitude": 43.80788930091141, "longitude": -79.21962865624204}, "119160752RR0001": {"name": "SPRINGSIDE APOSTOLIC BIBLE CAMP", "designationCode": "C", "categoryCode": "56", "address": "PO BOX 1832 STN DEL.CENTRE", "city": "YORKTON", "province": "SK", "country": "CA", "postalCode": "S3N3R2", "twitter": "None", "instagram": "None", "facebook": "None", "youtube": "None", "website": "None", "summary": "None", "logo": "None", "latitude": 51.20403900000005, "longitude": -102.44985199999994}, "108000647RR0001": {"name": "SPRINGSIDE BAPTIST CHURCH", "designationCode": "C", "categoryCode": "31", "address": "BOX 280", "city": "SPRINGSIDE", "province": "SK", "country": "CA", "postalCode": "S0A3V0", "twitter": "None", "instagram": "None", "facebook": "None", "youtube": "None", "website": "None", "summary": "None", "logo": "None", "latitude": 51.71668000000005, "longitude": -101.91761999999994}, "892918673RR0001": {"name": "SPRINGSIDE CHARITABLE TRUST", "designationCode": "B", "categoryCode": "39", "address": "3425 2 AVE S", "city": "LETHBRIDGE", "province": "AB", "country": "CA", "postalCode": "T1J4V1", "twitter": "None", "instagram": "None", "facebook": "None", "youtube": "None", "website": "None", "summary": "None", "logo": "None", "latitude": 49.696839530439966, "longitude": -112.78914308381903}, "119160778RR0001": {"name": "SPRINGSIDE UNITED CHURCH", "designationCode": "C", "categoryCode": "44", "address": "PO BOX 40", "city": "SPRINGSIDE", "province": "SK", "country": "CA", "postalCode": "S0A3V0", "twitter": "None", "instagram": "None", "facebook": "None", "youtube": "None", "website": "None", "summary": "None", "logo": "None", "latitude": 51.71668000000005, "longitude": -101.91761999999994}, "132172115RR0001": {"name": "SPRINGSTEIN MENNONITE CHURCH,", "designationCode": "C", "categoryCode": "34", "address": "BOX 38", "city": "SPRINGSTEIN", "province": "MB", "country": "CA", "postalCode": "R0G2N0", "twitter": "None", "instagram": "None", "facebook": "None", "youtube": "None", "website": "None", "summary": "None", "logo": "None", "latitude": 49.80460000000005, "longitude": -97.50215999999995}, "108053653RR0001": {"name": "SPRINGTIDE RESOURCES INC.", "designationCode": "C", "categoryCode": "09", "address": "THE ROBERTSON BUILDING        220-215 SPADINA AVE", "city": "TORONTO", "province": "ON", "country": "CA", "postalCode": "M5T2C7", "twitter": "None", "instagram": "None", "facebook": "None", "youtube": "None", "website": "None", "summary": "None", "logo": "None", "latitude": 43.65063316348313, "longitude": -79.39697013165816}, "119160828RR0001": {"name": "SPRINGVALE BAPTIST CHURCH", "designationCode": "C", "categoryCode": "31", "address": "3885 STOUFFVILLE RD", "city": "STOUFFVILLE", "province": "ON", "country": "CA", "postalCode": "L4A7X5", "twitter": "None", "instagram": "None", "facebook": "None", "youtube": "None", "website": "None", "summary": "None", "logo": "None", "latitude": 43.95348581652157, "longitude": -79.32821812877265}, "119160844RR0001": {"name": "SPRINGVALE UNITED CHURCH", "designationCode": "C", "categoryCode": "44", "address": "126 CON 13 WALPOLE            RR 4", "city": "HAGERSVILLE", "province": "ON", "country": "CA", "postalCode": "N0A1H0", "twitter": "None", "instagram": "None", "facebook": "None", "youtube": "None", "website": "None", "summary": "None", "logo": "None", "latitude": 42.9592620525243, "longitude": -80.05596711299623}, "888479292RR0001": {"name": "SPRINGVIEW CHARITABLE TRUST", "designationCode": "B", "categoryCode": "39", "address": "3425 2 AVE S", "city": "LETHBRIDGE", "province": "AB", "country": "CA", "postalCode": "T1J4V1", "twitter": "None", "instagram": "None", "facebook": "None", "youtube": "None", "website": "None", "summary": "None", "logo": "None", "latitude": 49.696839530439966, "longitude": -112.78914308381903}, "890369572RR0001": {"name": "SPRINGVILLE CEMETERY", "designationCode": "C", "categoryCode": "59", "address": "2719 EAST RIVER, EAST SIDE RD", "city": "SPRINGVILLE", "province": "NS", "country": "CA", "postalCode": "B2H5C5", "twitter": "None", "instagram": "None", "facebook": "None", "youtube": "None", "website": "None", "summary": "None", "logo": "None", "latitude": 45.46387065269267, "longitude": -62.624214714638605}, "119160877RR0001": {"name": "SPRINGVILLE PRESBYTERIAN CHURCH", "designationCode": "C", "categoryCode": "37", "address": "5013 EAST RIVER WEST SIDE RD", "city": "SPRINGVILLE", "province": "NS", "country": "CA", "postalCode": "B0K1B0", "twitter": "None", "instagram": "None", "facebook": "None", "youtube": "None", "website": "None", "summary": "None", "logo": "None", "latitude": 45.45409652065912, "longitude": -62.63717017643795}, "119160893RR0001": {"name": "SPRINGWATER PASTORAL CHARGE", "designationCode": "C", "categoryCode": "44", "address": "BOX 6", "city": "KELFIELD", "province": "SK", "country": "CA", "postalCode": "S0K2C0", "twitter": "None", "instagram": "None", "facebook": "None", "youtube": "None", "website": "None", "summary": "None", "logo": "None", "latitude": 51.939850000000035, "longitude": -108.60675999999995}, "119160901RR0001": {"name": "SPRINT-PIONEERS MINISTRIES INC.", "designationCode": "C", "categoryCode": "47", "address": "51 BYRON AVE", "city": "DORCHESTER", "province": "ON", "country": "CA", "postalCode": "N0L1G2", "twitter": "None", "instagram": "None", "facebook": "None", "youtube": "None", "website": "None", "summary": "None", "logo": "None", "latitude": 42.97996661945316, "longitude": -81.05977738758732}, "132530718RR0001": {"name": "SPRUCE GROVE ALLIANCE CHURCH", "designationCode": "C", "categoryCode": "39", "address": "250 CENTURY RD", "city": "SPRUCE GROVE", "province": "AB", "country": "CA", "postalCode": "T7X1W6", "twitter": "None", "instagram": "None", "facebook": "None", "youtube": "None", "website": "None", "summary": "None", "logo": "None", "latitude": 53.55154696335628, "longitude": -113.88524728339856}, "108000902RR0001": {"name": "SPRUCE GROVE COMMUNITY CHURCH", "designationCode": "C", "categoryCode": "36", "address": "BOX 4205", "city": "SPRUCE GROVE", "province": "AB", "country": "CA", "postalCode": "T7X3B4", "twitter": "None", "instagram": "None", "facebook": "None", "youtube": "None", "website": "None", "summary": "None", "logo": "None", "latitude": 53.544624000000056, "longitude": -113.90185249999993}, "107454498RR0001": {"name": "SPRUCE GROVE GOLDEN AGE CLUB", "designationCode": "C", "categoryCode": "56", "address": "301 JESPERSEN AVE", "city": "SPRUCE GROVE", "province": "AB", "country": "CA", "postalCode": "T7X2J1", "twitter": "None", "instagram": "None", "facebook": "None", "youtube": "None", "website": "None", "summary": "None", "logo": "None", "latitude": 53.54462249321933, "longitude": -113.90254483389116}, "867321465RR0001": {"name": "SPRUCE GROVE PUBLIC LIBRARY", "designationCode": "C", "categoryCode": "50", "address": "35 FIFTH AVENUE", "city": "SPRUCE GROVE", "province": "AB", "country": "CA", "postalCode": "T7X2C5", "twitter": "None", "instagram": "None", "facebook": "None", "youtube": "None", "website": "None", "summary": "None", "logo": "None", "latitude": 53.54583860899681, "longitude": -113.89847400831326}, "889413332RR0001": {"name": "SPRUCE GROVE SPECIALIZED TRANSIT SERVICE", "designationCode": "C", "categoryCode": "09", "address": "315 JESPERSEN AVE", "city": "SPRUCE GROVE", "province": "AB", "country": "CA", "postalCode": "T7X3E8", "twitter": "None", "instagram": "None", "facebook": "None", "youtube": "None", "website": "None", "summary": "None", "logo": "None", "latitude": 53.54467446047074, "longitude": -113.90145133389115}, "828545871RR0001": {"name": "SPRUCE HAVEN CEMETERY", "designationCode": "C", "categoryCode": "59", "address": "4651 FLAGG ROAD               RR 1", "city": "IROQUOIS", "province": "ON", "country": "CA", "postalCode": "K0E1K0", "twitter": "None", "instagram": "None", "facebook": "None", "youtube": "None", "website": "None", "summary": "None", "logo": "None", "latitude": 44.93362452844943, "longitude": -75.27274673091352}, "108001033RR0001": {"name": "SPRUCE LODGE HOME FOR THE AGED", "designationCode": "C", "categoryCode": "10", "address": "643 WEST GORE STREET", "city": "STRATFORD", "province": "ON", "country": "CA", "postalCode": "N5A1L4", "twitter": "None", "instagram": "None", "facebook": "None", "youtube": "None", "website": "None", "summary": "None", "logo": "None", "latitude": 43.368050472857504, "longitude": -80.99903109589285}, "108001041RR0001": {"name": "SPRUCE MANOR SPECIAL CARE HOME INCORPORATED", "designationCode": "C", "categoryCode": "01", "address": "BOX 190", "city": "DALMENY", "province": "SK", "country": "CA", "postalCode": "S0K1E0", "twitter": "None", "instagram": "None", "facebook": "None", "youtube": "None", "website": "None", "summary": "None", "logo": "None", "latitude": 52.143390000000004, "longitude": -106.76546549999999}, "104974175RR0001": {"name": "SPRUCEDALE INDUSTRIES INC.", "designationCode": "C", "categoryCode": "09", "address": "BOX 225", "city": "AUSTIN", "province": "MB", "country": "CA", "postalCode": "R0H0C0", "twitter": "None", "instagram": "None", "facebook": "None", "youtube": "None", "website": "None", "summary": "None", "logo": "None", "latitude": 49.95037000000008, "longitude": -98.93634999999995}, "108000837RR0001": {"name": "SPRUCEDALE UNITED CHURCH", "designationCode": "C", "categoryCode": "44", "address": "493 VICTORIA AVE", "city": "CHATHAM", "province": "ON", "country": "CA", "postalCode": "N7L3B4", "twitter": "None", "instagram": "None", "facebook": "None", "youtube": "None", "website": "None", "summary": "None", "logo": "None", "latitude": 42.42159069972281, "longitude": -82.20238213956401}, "119288918RR0502": {"name": "SPRUCELAND CONGREGATION OF JEHOVAH'S WITNESSES PRINCE GEORGE BRITISH COLUMBIA", "designationCode": "C", "categoryCode": "61", "address": "4350 15TH AVE", "city": "PRINCE GEORGE", "province": "BC", "country": "CA", "postalCode": "V2M5K7", "twitter": "None", "instagram": "None", "facebook": "None", "youtube": "None", "website": "None", "summary": "None", "logo": "None", "latitude": 53.91047448268776, "longitude": -122.808933}, "842290744RR0001": {"name": "SPRUCEWOOD ACADEMY TRUST FUND", "designationCode": "C", "categoryCode": "21", "address": "26 PRICE'S AVENUE", "city": "GRAND FALLS-WINDSOR", "province": "NL", "country": "CA", "postalCode": "A2B1C9", "twitter": "None", "instagram": "None", "facebook": "None", "youtube": "None", "website": "None", "summary": "None", "logo": "None", "latitude": 48.956715536949055, "longitude": -55.662072620837755}, "119160992RR0001": {"name": "SPRUSTON ROAD BIBLE CAMP", "designationCode": "C", "categoryCode": "56", "address": "2530 MONTE VISTA WAY", "city": "VICTORIA", "province": "BC", "country": "CA", "postalCode": "V8Z6Y3", "twitter": "None", "instagram": "None", "facebook": "None", "youtube": "None", "website": "None", "summary": "None", "logo": "None", "latitude": 48.55963138561782, "longitude": -123.39607990896594}, "809373590RR0001": {"name": "SPRYFIELD CHRISTIAN COMMUNITY CHURCH", "designationCode": "C", "categoryCode": "31", "address": "PO BOX 20081 RPO SPRYFIELD", "city": "HALIFAX", "province": "NS", "country": "CA", "postalCode": "B3R2K9", "twitter": "None", "instagram": "None", "facebook": "None", "youtube": "None", "website": "None", "summary": "None", "logo": "None", "latitude": 44.606310000000065, "longitude": -63.620529999999974}, "119161065RR0001": {"name": "SPY HILL UNITED CHURCH", "designationCode": "C", "categoryCode": "44", "address": "BOX 181", "city": "SPY HILL", "province": "SK", "country": "CA", "postalCode": "S0A3W0", "twitter": "None", "instagram": "None", "facebook": "None", "youtube": "None", "website": "None", "summary": "None", "logo": "None", "latitude": 50.60239000000007, "longitude": -101.68677999999994}, "813604683RR0001": {"name": "SQx Danza", "designationCode": "C", "categoryCode": "22", "address": "983 KELLY DRIVE", "city": "CASTLEGAR", "province": "BC", "country": "CA", "postalCode": "V1N4P5", "twitter": "None", "instagram": "None", "facebook": "None", "youtube": "None", "website": "None", "summary": "None", "logo": "None", "latitude": 49.425677510098886, "longitude": -117.5330327216227}, "108001223RR0001": {"name": "SQUAMISH BAPTIST CHURCH", "designationCode": "C", "categoryCode": "31", "address": "2262 READ CRES", "city": "SQUAMISH", "province": "BC", "country": "CA", "postalCode": "V8B0L1", "twitter": "None", "instagram": "None", "facebook": "None", "youtube": "None", "website": "None", "summary": "None", "logo": "None", "latitude": 49.73575372326748, "longitude": -123.12322615061427}, "890264591RR0001": {"name": "SQUAMISH COMMUNITY CHRISTMAS CARE", "designationCode": "C", "categoryCode": "09", "address": "P.O. BOX 516", "city": "SQUAMISH", "province": "BC", "country": "CA", "postalCode": "V8B0A4", "twitter": "None", "instagram": "None", "facebook": "None", "youtube": "None", "website": "None", "summary": "None", "logo": "None", "latitude": 49.69853700000006, "longitude": -123.15505399999994}, "131968851RR0001": {"name": "SQUAMISH COMMUNITY CHURCH", "designationCode": "C", "categoryCode": "36", "address": "38647 BUCKLEY AVE             PO BOX 375", "city": "SQUAMISH", "province": "BC", "country": "CA", "postalCode": "V8B0A3", "twitter": "None", "instagram": "None", "facebook": "None", "youtube": "None", "website": "None", "summary": "None", "logo": "None", "latitude": 49.709018640573625, "longitude": -123.15348877880997}}