{"889463774RR0001": {"name": "REMINGTON PARK TABERNACLE,", "designationCode": "C", "categoryCode": "36", "address": "604 CHARLES STREET", "city": "WINDSOR", "province": "ON", "country": "CA", "postalCode": "N8X3G5", "twitter": "None", "instagram": "None", "facebook": "None", "youtube": "None", "website": "None", "summary": "None", "logo": "None", "latitude": 42.281639589531835, "longitude": -83.00757078616758}, "858136203RR0001": {"name": "REMNANT PRESBYTERIAN CHURCH", "designationCode": "C", "categoryCode": "37", "address": "904 - 7191 YONGE ST", "city": "THORNHILL", "province": "ON", "country": "CA", "postalCode": "L3T0C4", "twitter": "None", "instagram": "None", "facebook": "None", "youtube": "None", "website": "None", "summary": "None", "logo": "None", "latitude": 43.80370508130886, "longitude": -79.42151410208356}, "119115368RR0001": {"name": "REMNANT TABERNACLE", "designationCode": "C", "categoryCode": "39", "address": "22 FAIRHAVEN DRIVE", "city": "ETOBICOKE", "province": "ON", "country": "CA", "postalCode": "M9P2P6", "twitter": "None", "instagram": "None", "facebook": "None", "youtube": "None", "website": "None", "summary": "None", "logo": "None", "latitude": 43.701410125194634, "longitude": -79.54237658993587}, "892119447RR0001": {"name": "REMOTE AREA MEDICAL VOLUNTEERS (CANADA)", "designationCode": "C", "categoryCode": "11", "address": "54 ROSS AVENUE", "city": "OTTAWA", "province": "ON", "country": "CA", "postalCode": "K1Y0N3", "twitter": "None", "instagram": "None", "facebook": "None", "youtube": "None", "website": "None", "summary": "None", "logo": "None", "latitude": 45.40026672355594, "longitude": -75.73837928284935}, "867381857RR0001": {"name": "RENAISSANCE CHRISTIAN CHURCH", "designationCode": "C", "categoryCode": "39", "address": "409 EAST BROADWAY", "city": "VANCOUVER", "province": "BC", "country": "CA", "postalCode": "V5T1W8", "twitter": "None", "instagram": "None", "facebook": "None", "youtube": "None", "website": "None", "summary": "None", "logo": "None", "latitude": 49.262569394973575, "longitude": -123.09561902677596}, "892452608RR0001": {"name": "RENAISSANCE II FOUNDATION", "designationCode": "A", "categoryCode": "03", "address": "671 ISLAND PACIFIC SCHOOL", "city": "BOWEN ISLAND", "province": "BC", "country": "CA", "postalCode": "V0N1G0", "twitter": "None", "instagram": "None", "facebook": "None", "youtube": "None", "website": "None", "summary": "None", "logo": "None", "latitude": 49.380840000000035, "longitude": -123.35020999999995}, "107885451RR0001": {"name": "RENASCENCE HOMES ASSOCIATION", "designationCode": "C", "categoryCode": "01", "address": "56026 RGE RD 234", "city": "STURGEON COUNTY", "province": "AB", "country": "CA", "postalCode": "T0A0K4", "twitter": "None", "instagram": "None", "facebook": "None", "youtube": "None", "website": "None", "summary": "None", "logo": "None", "latitude": 53.81453857146979, "longitude": -113.36994744338962}, "119115426RR0001": {"name": "RENASCENT FELLOWSHIP", "designationCode": "C", "categoryCode": "57", "address": "38 ISABELLA STREET", "city": "TORONTO", "province": "ON", "country": "CA", "postalCode": "M4Y1N1", "twitter": "None", "instagram": "None", "facebook": "None", "youtube": "None", "website": "None", "summary": "None", "logo": "None", "latitude": 43.667985183478415, "longitude": -79.3837074805816}, "119115434RR0001": {"name": "RENASCENT FOUNDATION INC.", "designationCode": "C", "categoryCode": "57", "address": "38 ISABELLA STREET", "city": "TORONTO", "province": "ON", "country": "CA", "postalCode": "M4Y1N1", "twitter": "None", "instagram": "None", "facebook": "None", "youtube": "None", "website": "None", "summary": "None", "logo": "None", "latitude": 43.667985183478415, "longitude": -79.3837074805816}, "870796562RR0001": {"name": "RENCONTRE CATHOLIQUE DE fiances (quebec) inc.", "designationCode": "C", "categoryCode": "49", "address": "26 GRONDIN", "city": "ST ETIENNE DE LAUZON", "province": "QC", "country": "CA", "postalCode": "G6T1P4", "twitter": "None", "instagram": "None", "facebook": "None", "youtube": "None", "website": "None", "summary": "None", "logo": "None", "latitude": 46.652190000000076, "longitude": -71.29896999999994}, "119115442RR0001": {"name": "RENCONTRE JEUNESSE MONTREAL", "designationCode": "C", "categoryCode": "49", "address": "BP 47529 COMPTOIR POSTAL PLATE", "city": "MONTREAL", "province": "QC", "country": "CA", "postalCode": "H2H2S8", "twitter": "None", "instagram": "None", "facebook": "None", "youtube": "None", "website": "None", "summary": "None", "logo": "None", "latitude": 45.51239400000006, "longitude": -73.55469049999994}, "894411537RR0001": {"name": "RENCONTRE OTTAWA CARLETON CORPORATION", "designationCode": "C", "categoryCode": "09", "address": "40, RUE COBOURG", "city": "OTTAWA", "province": "ON", "country": "CA", "postalCode": "K1N8Z6", "twitter": "None", "instagram": "None", "facebook": "None", "youtube": "None", "website": "None", "summary": "None", "logo": "None", "latitude": 45.43513221201476, "longitude": -75.68109349601795}, "860382456RR0001": {"name": "RENCONTRES SILENCE INTERIEUR ET PRIERE", "designationCode": "C", "categoryCode": "49", "address": "11789 DE ST-R\u00c9AL", "city": "MONTR\u00c9AL", "province": "QC", "country": "CA", "postalCode": "H3M2Y9", "twitter": "None", "instagram": "None", "facebook": "None", "youtube": "None", "website": "None", "summary": "None", "logo": "None", "latitude": 45.54150682266707, "longitude": -73.68789259587982}, "890292188RR0001": {"name": "RENCONTRES-CUISINES", "designationCode": "C", "categoryCode": "09", "address": "2349 RUE ROUEN", "city": "MONTR\u00c9AL", "province": "QC", "country": "CA", "postalCode": "H2K1L8", "twitter": "None", "instagram": "None", "facebook": "None", "youtube": "None", "website": "None", "summary": "None", "logo": "None", "latitude": 45.53278805551385, "longitude": -73.55801643326208}, "895034189RR0001": {"name": "RENDER EFFECTIVE AID TO CHILDREN INC.", "designationCode": "C", "categoryCode": "09", "address": "P.O. BOX 70529                1801 DUNDAS STREET EAST", "city": "WHITBY", "province": "ON", "country": "CA", "postalCode": "L1N9G3", "twitter": "None", "instagram": "None", "facebook": "None", "youtube": "None", "website": "None", "summary": "None", "logo": "None", "latitude": 43.888361037771496, "longitude": -78.90408382573438}, "869049429RR0001": {"name": "RENDEZ-VOUS A LA RIVIERE POUR L'AN 2000", "designationCode": "C", "categoryCode": "52", "address": "500 - 11505 1RE AV", "city": "SAINT-GEORGES", "province": "QC", "country": "CA", "postalCode": "G5Y7X3", "twitter": "None", "instagram": "None", "facebook": "None", "youtube": "None", "website": "None", "summary": "None", "logo": "None", "latitude": 46.11630257357594, "longitude": -70.66661517122108}, "119115467RR0001": {"name": "RENDEZ-VOUS FAMILIAL POINTE ST-CHARLES INC.", "designationCode": "C", "categoryCode": "09", "address": "100 CH. VAL-NOTRE-DAME", "city": "H\u00c9ROUXVILLE", "province": "QC", "country": "CA", "postalCode": "G0X1J0", "twitter": "None", "instagram": "None", "facebook": "None", "youtube": "None", "website": "None", "summary": "None", "logo": "None", "latitude": 46.699599089387604, "longitude": -72.64044241773884}, "107885667RR0001": {"name": "RENDEZVOUS CHILD CARE CENTRE", "designationCode": "C", "categoryCode": "20", "address": "18 DALLINGTON DRIVE", "city": "NORTH YORK", "province": "ON", "country": "CA", "postalCode": "M2J2G3", "twitter": "None", "instagram": "None", "facebook": "None", "youtube": "None", "website": "None", "summary": "None", "logo": "None", "latitude": 43.77735407741375, "longitude": -79.35414480826901}, "896209970RR0001": {"name": "RENEW CREW FOUNDATION", "designationCode": "A", "categoryCode": "53", "address": "102 1193 KINGSWAY", "city": "VANCOUVER", "province": "BC", "country": "CA", "postalCode": "V5V3C9", "twitter": "None", "instagram": "None", "facebook": "None", "youtube": "None", "website": "None", "summary": "None", "logo": "None", "latitude": 49.25233337803671, "longitude": -123.08039195501773}, "891963563RR0001": {"name": "RENEWAL FELLOWSHIP WITHIN THE PRESBYTERIAN CHURCH IN CANADA, THE", "designationCode": "C", "categoryCode": "49", "address": "3819 BLOOR ST W", "city": "ETOBICOKE", "province": "ON", "country": "CA", "postalCode": "M9B1K7", "twitter": "None", "instagram": "None", "facebook": "None", "youtube": "None", "website": "None", "summary": "None", "logo": "None", "latitude": 43.64144495141106, "longitude": -79.53691545100702}, "875058828RR0001": {"name": "RENEWED COMPUTER TECHNOLOGIES (ONTARIO)", "designationCode": "C", "categoryCode": "22", "address": "945 MEYERSIDE DR", "city": "MISSISSAUGA", "province": "ON", "country": "CA", "postalCode": "L5T1P9", "twitter": "None", "instagram": "None", "facebook": "None", "youtube": "None", "website": "None", "summary": "None", "logo": "None", "latitude": 43.64987746520262, "longitude": -79.6661498045181}, "107885980RR0001": {"name": "RENFORTH BAPTIST CHURCH", "designationCode": "C", "categoryCode": "31", "address": "627 BURNHAMTHORPE RD", "city": "ETOBICOKE", "province": "ON", "country": "CA", "postalCode": "M9C2Y9", "twitter": "None", "instagram": "None", "facebook": "None", "youtube": "None", "website": "None", "summary": "None", "logo": "None", "latitude": 43.64324308191444, "longitude": -79.57296896185572}, "119288918RR0240": {"name": "RENFORTH CONGREGATION OF JEHOVAH'S WITNESSES", "designationCode": "C", "categoryCode": "61", "address": "423 BURNHAMTHORPE RD", "city": "ETOBICOKE", "province": "ON", "country": "CA", "postalCode": "M9B2A9", "twitter": "None", "instagram": "None", "facebook": "None", "youtube": "None", "website": "None", "summary": "None", "logo": "None", "latitude": 43.64643018347844, "longitude": -79.55945578740833}, "828727479RR0001": {"name": "RENFREW & AREA COMMUNITY RESOURCE CENTRE", "designationCode": "C", "categoryCode": "09", "address": "115 VETERANS MEMORIAL         BOULEVARD", "city": "RENFREW", "province": "ON", "country": "CA", "postalCode": "K7V2R5", "twitter": "None", "instagram": "None", "facebook": "None", "youtube": "None", "website": "None", "summary": "None", "logo": "None", "latitude": 45.468954179712284, "longitude": -76.67620158333509}, "119115616RR0001": {"name": "RENFREW & DISTRICT FOOD BANK INC.", "designationCode": "C", "categoryCode": "01", "address": "115 VETERANS MEMORIAL DRIVE", "city": "RENFREW", "province": "ON", "country": "CA", "postalCode": "K7V2R5", "twitter": "None", "instagram": "None", "facebook": "None", "youtube": "None", "website": "None", "summary": "None", "logo": "None", "latitude": 45.468954179712284, "longitude": -76.67620158333509}, "107886145RR0001": {"name": "RENFREW & DISTRICT HISTORICAL AND MUSEUM SOCIETY INC.", "designationCode": "C", "categoryCode": "50", "address": "PO BOX 582 STN MAIN", "city": "RENFREW", "province": "ON", "country": "CA", "postalCode": "K7V4E7", "twitter": "None", "instagram": "None", "facebook": "None", "youtube": "None", "website": "None", "summary": "None", "logo": "None", "latitude": 45.47460300000006, "longitude": -76.68749149999994}, "133279802RR0001": {"name": "RENFREW AND AREA SENIORS' HOME SUPPORT INC.", "designationCode": "C", "categoryCode": "59", "address": "P.O. BOX 919", "city": "RENFREW", "province": "ON", "country": "CA", "postalCode": "K7V4H3", "twitter": "None", "instagram": "None", "facebook": "None", "youtube": "None", "website": "None", "summary": "None", "logo": "None", "latitude": 45.47460300000006, "longitude": -76.68749149999994}, "132538810RR0001": {"name": "RENFREW BAPTIST CHURCH", "designationCode": "C", "categoryCode": "31", "address": "165 KUNOPASKI RD              RR 4", "city": "RENFREW", "province": "ON", "country": "CA", "postalCode": "K7V3Z7", "twitter": "None", "instagram": "None", "facebook": "None", "youtube": "None", "website": "None", "summary": "None", "logo": "None", "latitude": 45.446786446275176, "longitude": -76.74951324150244}, "874893100RR0001": {"name": "RENFREW BAPTIST CHURCH", "designationCode": "C", "categoryCode": "31", "address": "1204 RENFREW DR NE", "city": "CALGARY", "province": "AB", "country": "CA", "postalCode": "T2E5J5", "twitter": "None", "instagram": "None", "facebook": "None", "youtube": "None", "website": "None", "summary": "None", "logo": "None", "latitude": 51.06254803269168, "longitude": -114.03351439385006}, "866141575RR0001": {"name": "RENFREW CHARITY FOCUS GROUP", "designationCode": "C", "categoryCode": "21", "address": "154 QUARRY AVENUE", "city": "RENFREW", "province": "ON", "country": "CA", "postalCode": "K7V2W4", "twitter": "None", "instagram": "None", "facebook": "None", "youtube": "None", "website": "None", "summary": "None", "logo": "None", "latitude": 45.472765346673086, "longitude": -76.67964805525405}, "107886087RR0001": {"name": "RENFREW COUNTY CATHOLIC DISTRICT SCHOOL BOARD", "designationCode": "C", "categoryCode": "20", "address": "499 PEMBROKE STREET WEST", "city": "PEMBROKE", "province": "ON", "country": "CA", "postalCode": "K8A5P1", "twitter": "None", "instagram": "None", "facebook": "None", "youtube": "None", "website": "None", "summary": "None", "logo": "None", "latitude": 45.82416342050879, "longitude": -77.12579824701369}, "119115574RR0001": {"name": "RENFREW COUNTY CHINESE CULTURAL SOCIETY", "designationCode": "C", "categoryCode": "22", "address": "240 MACKAY ST", "city": "PEMBROKE", "province": "ON", "country": "CA", "postalCode": "K8A1C5", "twitter": "None", "instagram": "None", "facebook": "None", "youtube": "None", "website": "None", "summary": "None", "logo": "None", "latitude": 45.82556667915061, "longitude": -77.11054003182495}, "140988429RR0001": {"name": "RENFREW COUNTY COMMUNITY UPGRADING PROGRAM", "designationCode": "C", "categoryCode": "21", "address": "PO BOX 74", "city": "EGANVILLE", "province": "ON", "country": "CA", "postalCode": "K0J1T0", "twitter": "None", "instagram": "None", "facebook": "None", "youtube": "None", "website": "None", "summary": "None", "logo": "None", "latitude": 45.57147000000006, "longitude": -77.04741949999993}, "107886046RR0002": {"name": "RENFREW COUNTY DISTRICT SCHOOL BOARD", "designationCode": "C", "categoryCode": "20", "address": "1270 PEMBROKE ST W", "city": "PEMBROKE", "province": "ON", "country": "CA", "postalCode": "K8A4G4", "twitter": "None", "instagram": "None", "facebook": "None", "youtube": "None", "website": "None", "summary": "None", "logo": "None", "latitude": 45.83311370543978, "longitude": -77.14882363698626}, "119115582RR0001": {"name": "RENFREW COUNTY EDUCATIONAL ENRICHMENT FUND", "designationCode": "C", "categoryCode": "21", "address": "1270 PEMBROKE ST.W.", "city": "PEMBROKE", "province": "ON", "country": "CA", "postalCode": "K8A4G4", "twitter": "None", "instagram": "None", "facebook": "None", "youtube": "None", "website": "None", "summary": "None", "logo": "None", "latitude": 45.83311370543978, "longitude": -77.14882363698626}, "137774931RR0001": {"name": "RENFREW COUNTY SEXUAL ASSAULT/RAPE CRISIS SUPPORT CENTRE", "designationCode": "C", "categoryCode": "09", "address": "PO BOX 1274                   526 PEMBROKE ST. W.", "city": "PEMBROKE", "province": "ON", "country": "CA", "postalCode": "K8A5P3", "twitter": "None", "instagram": "None", "facebook": "None", "youtube": "None", "website": "None", "summary": "None", "logo": "None", "latitude": 45.824160553955984, "longitude": -77.1266316947025}, "137275517RR0001": {"name": "RENFREW COUNTY YOUTH SERVICES", "designationCode": "C", "categoryCode": "11", "address": "130 PEMBROKE ST.W. SUITE 200", "city": "PEMBROKE", "province": "ON", "country": "CA", "postalCode": "K8A5M8", "twitter": "None", "instagram": "None", "facebook": "None", "youtube": "None", "website": "None", "summary": "None", "logo": "None", "latitude": 45.82537622176694, "longitude": -77.11576249648023}, "107886129RR0001": {"name": "RENFREW EDUCATIONAL SERVICES SOCIETY", "designationCode": "C", "categoryCode": "20", "address": "2050 - 21 STREET N.E.", "city": "CALGARY", "province": "AB", "country": "CA", "postalCode": "T2E6S5", "twitter": "None", "instagram": "None", "facebook": "None", "youtube": "None", "website": "None", "summary": "None", "logo": "None", "latitude": 51.069518580904855, "longitude": -114.00901876421037}, "119288918RR0329": {"name": "RENFREW ONTARIO CONGREGATION OF JEHOVAH'S WITNESSES", "designationCode": "C", "categoryCode": "61", "address": "2338 EADY RD RR#5", "city": "RENFREW", "province": "ON", "country": "CA", "postalCode": "K7V3Z8", "twitter": "None", "instagram": "None", "facebook": "None", "youtube": "None", "website": "None", "summary": "None", "logo": "None", "latitude": 45.53819690732283, "longitude": -76.67553173879072}, "119115657RR0001": {"name": "RENFREW PRESBYTERIAN CHURCH", "designationCode": "C", "categoryCode": "37", "address": "460 RAGLAN ST S", "city": "RENFREW", "province": "ON", "country": "CA", "postalCode": "K7V1R8", "twitter": "None", "instagram": "None", "facebook": "None", "youtube": "None", "website": "None", "summary": "None", "logo": "None", "latitude": 45.467904146833845, "longitude": -76.67977350866455}, "888795747RR0001": {"name": "RENFREW PUBLIC LIBRARY", "designationCode": "C", "categoryCode": "50", "address": "13 RAILWAY AVENUE EAST", "city": "RENFREW", "province": "ON", "country": "CA", "postalCode": "K7V3A9", "twitter": "None", "instagram": "None", "facebook": "None", "youtube": "None", "website": "None", "summary": "None", "logo": "None", "latitude": 45.472713818866474, "longitude": -76.68457783431192}, "888174844RR0001": {"name": "RENFREW SNOWSUIT FUND", "designationCode": "C", "categoryCode": "09", "address": "323 CARSWELL ST S.", "city": "RENFREW", "province": "ON", "country": "CA", "postalCode": "K7V2G6", "twitter": "None", "instagram": "None", "facebook": "None", "youtube": "None", "website": "None", "summary": "None", "logo": "None", "latitude": 45.46741830030584, "longitude": -76.68599258808953}, "119115665RR0001": {"name": "RENFREW ST. REGULAR BAPTIST CHURCH", "designationCode": "C", "categoryCode": "31", "address": "1899 RENFREW STREET", "city": "VANCOUVER", "province": "BC", "country": "CA", "postalCode": "V5M3J1", "twitter": "None", "instagram": "None", "facebook": "None", "youtube": "None", "website": "None", "summary": "None", "logo": "None", "latitude": 49.26767844935423, "longitude": -123.04431661138007}, "130516321RR0001": {"name": "RENFREW UNITED CHURCH,", "designationCode": "C", "categoryCode": "44", "address": "956 RADNOR AVE NE", "city": "CALGARY", "province": "AB", "country": "CA", "postalCode": "T2E5H5", "twitter": "None", "instagram": "None", "facebook": "None", "youtube": "None", "website": "None", "summary": "None", "logo": "None", "latitude": 51.06372205580231, "longitude": -114.03945431750253}, "108172602RR0001": {"name": "RENFREW VICTORIA HOSPITAL", "designationCode": "C", "categoryCode": "10", "address": "499 RAGLAN ST N", "city": "RENFREW", "province": "ON", "country": "CA", "postalCode": "K7V1P6", "twitter": "None", "instagram": "None", "facebook": "None", "youtube": "None", "website": "None", "summary": "None", "logo": "None", "latitude": 45.48242303312533, "longitude": -76.69720326124678}, "119115632RR0001": {"name": "RENFREW VICTORIA HOSPITAL AUXILIARY", "designationCode": "C", "categoryCode": "19", "address": "185 RENFREW AVE W", "city": "RENFREW", "province": "ON", "country": "CA", "postalCode": "K7V2Y4", "twitter": "None", "instagram": "None", "facebook": "None", "youtube": "None", "website": "None", "summary": "None", "logo": "None", "latitude": 45.46896060225648, "longitude": -76.6867269519593}, "889863999RR0001": {"name": "RENFREW VICTORIA HOSPITAL FOUNDATION", "designationCode": "A", "categoryCode": "13", "address": "499 RAGLAN ST N", "city": "RENFREW", "province": "ON", "country": "CA", "postalCode": "K7V1R9", "twitter": "None", "instagram": "None", "facebook": "None", "youtube": "None", "website": "None", "summary": "None", "logo": "None", "latitude": 45.48242303312533, "longitude": -76.69720326124678}, "119115558RR0001": {"name": "RENFREW/COLLINGWOOD SENIORS SOCIETY", "designationCode": "C", "categoryCode": "09", "address": "2970 EAST 22ND AVE", "city": "VANCOUVER", "province": "BC", "country": "CA", "postalCode": "V5M2Y4", "twitter": "None", "instagram": "None", "facebook": "None", "youtube": "None", "website": "None", "summary": "None", "logo": "None", "latitude": 49.25052249104389, "longitude": -123.04228614355172}, "131133159RR0001": {"name": "RENOUS RECREATION COUNCIL INC", "designationCode": "C", "categoryCode": "56", "address": "2 YOUNG ST", "city": "RENOUS", "province": "NB", "country": "CA", "postalCode": "E9E2G2", "twitter": "None", "instagram": "None", "facebook": "None", "youtube": "None", "website": "None", "summary": "None", "logo": "None", "latitude": 46.80844635727111, "longitude": -65.79504331194715}, "119115731RR0001": {"name": "RENOUVEAU CHARISMATIQUE DU DIOCESE DE MONTREAL", "designationCode": "C", "categoryCode": "38", "address": "103 BOUL DES CHATEAUX", "city": "BLAINVILLE", "province": "QC", "country": "CA", "postalCode": "J7B1K2", "twitter": "None", "instagram": "None", "facebook": "None", "youtube": "None", "website": "None", "summary": "None", "logo": "None", "latitude": 45.65759887067912, "longitude": -73.80403443294496}, "119115756RR0001": {"name": "RENOUVEAU CHARISMATIQUE GATINEAU-HULL", "designationCode": "C", "categoryCode": "38", "address": "163 CH PROULX", "city": "GATINEAU", "province": "QC", "country": "CA", "postalCode": "J8R3B9", "twitter": "None", "instagram": "None", "facebook": "None", "youtube": "None", "website": "None", "summary": "None", "logo": "None", "latitude": 45.53661945657561, "longitude": -75.58108558826244}, "894785831RR0001": {"name": "REP\u00c8RE, RELATION D'ENTRAIDE POUR UNE PARENTALIT\u00c9 RENOUVEL\u00c9E", "designationCode": "C", "categoryCode": "09", "address": "10780 RUE LAVERDURE", "city": "MONTREAL", "province": "QC", "country": "CA", "postalCode": "H3L2L9", "twitter": "None", "instagram": "None", "facebook": "None", "youtube": "None", "website": "None", "summary": "None", "logo": "None", "latitude": 45.55253309351391, "longitude": -73.67173931738695}, "892466368RR0001": {"name": "REPAIRER OF THE BREACH MESSIANIC CONGREGATION", "designationCode": "C", "categoryCode": "39", "address": "923 STEVENSON ROAD", "city": "KELOWNA", "province": "BC", "country": "CA", "postalCode": "V1Z1N3", "twitter": "None", "instagram": "None", "facebook": "None", "youtube": "None", "website": "None", "summary": "None", "logo": "None", "latitude": 49.85889149235397, "longitude": -119.55511197016561}, "125098871RR0001": {"name": "REPERCUSSION THEATRE/THEATRE REPERCUSSION", "designationCode": "C", "categoryCode": "22", "address": "610-460 RUE ST CATHARINE OUEST", "city": "MONTREAL", "province": "QC", "country": "CA", "postalCode": "H3B1A7", "twitter": "None", "instagram": "None", "facebook": "None", "youtube": "None", "website": "None", "summary": "None", "logo": "None", "latitude": 45.502655033330136, "longitude": -73.57032347325419}, "896798113RR0001": {"name": "REPIT \"UNE HEURE POUR MOI\" INC.", "designationCode": "C", "categoryCode": "09", "address": "750 16IEME AVENUE             BUREAU 10", "city": "MONTREAL", "province": "QC", "country": "CA", "postalCode": "H1B3Z7", "twitter": "None", "instagram": "None", "facebook": "None", "youtube": "None", "website": "None", "summary": "None", "logo": "None", "latitude": 45.64382617129106, "longitude": -73.49287285982386}, "894343540RR0001": {"name": "REPIT JEUNESSE", "designationCode": "C", "categoryCode": "59", "address": "115, ST-LOUIS", "city": "VICTORIAVILLE", "province": "QC", "country": "CA", "postalCode": "G6P3P7", "twitter": "None", "instagram": "None", "facebook": "None", "youtube": "None", "website": "None", "summary": "None", "logo": "None", "latitude": 46.05713270664773, "longitude": -71.95909148089872}, "860222538RR0001": {"name": "REPIT LE ZEPHYR", "designationCode": "C", "categoryCode": "01", "address": "663 BOUL DU BORD-DE-L'EAU", "city": "SALABERRY-DE-VALLEYFIELD", "province": "QC", "country": "CA", "postalCode": "J6S0B5", "twitter": "None", "instagram": "None", "facebook": "None", "youtube": "None", "website": "None", "summary": "None", "logo": "None", "latitude": 45.276848465722196, "longitude": -74.16100232653355}, "887019024RR0001": {"name": "REPIT PABOK INC", "designationCode": "C", "categoryCode": "56", "address": "328 BOUL REN\u00c9 L\u00c9VESQUE", "city": "CHANDLER", "province": "QC", "country": "CA", "postalCode": "G0C1K0", "twitter": "None", "instagram": "None", "facebook": "None", "youtube": "None", "website": "None", "summary": "None", "logo": "None", "latitude": 48.349095542270554, "longitude": -64.69187013918864}, "896296563RR0001": {"name": "REPIT PROVIDENCE, MAISON HOCHELAGA-MAISONNEUVE", "designationCode": "C", "categoryCode": "01", "address": "1855 RUE D\u00c9ZERY", "city": "MONTR\u00c9AL", "province": "QC", "country": "CA", "postalCode": "H1W2S1", "twitter": "None", "instagram": "None", "facebook": "None", "youtube": "None", "website": "None", "summary": "None", "logo": "None", "latitude": 45.54083391759462, "longitude": -73.5465556898264}, "874937154RR0001": {"name": "REPIT-LOISIRS-AUTONOMIE", "designationCode": "C", "categoryCode": "09", "address": "35 - 200 AV LEONIDAS S", "city": "RIMOUSKI", "province": "QC", "country": "CA", "postalCode": "G5L2T2", "twitter": "None", "instagram": "None", "facebook": "None", "youtube": "None", "website": "None", "summary": "None", "logo": "None", "latitude": 48.46157526011275, "longitude": -68.50791460580582}, "893934620RR0001": {"name": "REPRISE CONCERTS INC.", "designationCode": "C", "categoryCode": "22", "address": "42 HARRIET ST.", "city": "TORONTO", "province": "ON", "country": "CA", "postalCode": "M4L2E9", "twitter": "None", "instagram": "None", "facebook": "None", "youtube": "None", "website": "None", "summary": "None", "logo": "None"}, "854780400RR0001": {"name": "REPTILE RESCUE, ADOPTION AND EDUCATION SOCIETY", "designationCode": "C", "categoryCode": "54", "address": "8080 GILBERT RD", "city": "RICHMOND", "province": "BC", "country": "CA", "postalCode": "V7C3W7", "twitter": "None", "instagram": "None", "facebook": "None", "youtube": "None", "website": "None", "summary": "None", "logo": "None", "latitude": 49.154814000000016, "longitude": -123.14778101272462}, "866840929RR0001": {"name": "RERUM NOVARUM FOUNDATION", "designationCode": "A", "categoryCode": "43", "address": "500 HURON STREET", "city": "TORONTO", "province": "ON", "country": "CA", "postalCode": "M5R2R3", "twitter": "None", "instagram": "None", "facebook": "None", "youtube": "None", "website": "None", "summary": "None", "logo": "None", "latitude": 43.668802582289835, "longitude": -79.4021951034103}, "848804548RR0001": {"name": "RESCUE LAKE SIMCOE CHARITABLE FOUNDATION", "designationCode": "C", "categoryCode": "52", "address": "120 PRIMEAU DR", "city": "AURORA", "province": "ON", "country": "CA", "postalCode": "L4G6Z4", "twitter": "None", "instagram": "None", "facebook": "None", "youtube": "None", "website": "None", "summary": "None", "logo": "None", "latitude": 43.99516996029786, "longitude": -79.44425194090813}, "810073544RR0001": {"name": "RESCUE ME", "designationCode": "C", "categoryCode": "54", "address": "130 DIVADALE DRIVE", "city": "TORONTO", "province": "ON", "country": "CA", "postalCode": "M4G2P4", "twitter": "None", "instagram": "None", "facebook": "None", "youtube": "None", "website": "None", "summary": "None", "logo": "None", "latitude": 43.71517017236993, "longitude": -79.36656990397594}, "832467278RR0001": {"name": "RESCUING OUR AFRICAN DAUGHTERS-SECOURS AUX JEUNES AFRICAINES", "designationCode": "C", "categoryCode": "01", "address": "33 LYNEDOCK CRES", "city": "TORONTO", "province": "ON", "country": "CA", "postalCode": "M3A2A7", "twitter": "None", "instagram": "None", "facebook": "None", "youtube": "None", "website": "None", "summary": "None", "logo": "None", "latitude": 43.76219591866247, "longitude": -79.33105517692888}, "119116762RR0001": {"name": "RESEARCH AND COORDINATING INSTITUTE FOR CATHOLIC EDUCATION IN ONTARIO", "designationCode": "C", "categoryCode": "21", "address": "2F - 44 HUNT ST", "city": "HAMILTON", "province": "ON", "country": "CA", "postalCode": "L8R3R1", "twitter": "None", "instagram": "None", "facebook": "None", "youtube": "None", "website": "None", "summary": "None", "logo": "None", "latitude": 43.26377460453547, "longitude": -79.88997374441662}, "119116788RR0001": {"name": "RESEARCH AND DEVELOPMENT FUND OF THE APPRAISAL INSTITUTE OF CANADA", "designationCode": "C", "categoryCode": "21", "address": "200 CATHERINE STREET          SUITE 403", "city": "OTTAWA", "province": "ON", "country": "CA", "postalCode": "K2P2K9", "twitter": "None", "instagram": "None", "facebook": "None", "youtube": "None", "website": "None", "summary": "None", "logo": "None", "latitude": 45.40978069856897, "longitude": -75.69132875324611}, "867363525RR0001": {"name": "RESEARCH INSTITUTE FOR ELECTRO-MEDICINE", "designationCode": "C", "categoryCode": "11", "address": "11237 77 AVE NW", "city": "EDMONTON", "province": "AB", "country": "CA", "postalCode": "T6G0L7", "twitter": "None", "instagram": "None", "facebook": "None", "youtube": "None", "website": "None", "summary": "None", "logo": "None", "latitude": 53.51317650678069, "longitude": -113.5217925}, "107660193RR0001": {"name": "RESEARCH MANITOBA", "designationCode": "B", "categoryCode": "13", "address": "A201 CHOWN BUILDING           733 MCDERMOT AVE", "city": "WINNIPEG", "province": "MB", "country": "CA", "postalCode": "R3E0T6", "twitter": "None", "instagram": "None", "facebook": "None", "youtube": "None", "website": "None", "summary": "None", "logo": "None", "latitude": 49.90355551199913, "longitude": -97.16044869517833}, "107886764RR0001": {"name": "RESEAU - BENEVOLES DE VERDUN INC.", "designationCode": "C", "categoryCode": "09", "address": "3215 BOUL LASALLE", "city": "VERDUN", "province": "QC", "country": "CA", "postalCode": "H4G1Z1", "twitter": "None", "instagram": "None", "facebook": "None", "youtube": "None", "website": "None", "summary": "None", "logo": "None", "latitude": 45.471666677217364, "longitude": -73.56905476781706}, "855171930RR0001": {"name": "RESEAU ADO DU QUEBEC", "designationCode": "C", "categoryCode": "09", "address": "6520 RUE ST-DENIS", "city": "MONTREAL", "province": "QC", "country": "CA", "postalCode": "H2S2R9", "twitter": "None", "instagram": "None", "facebook": "None", "youtube": "None", "website": "None", "summary": "None", "logo": "None", "latitude": 45.53441977127952, "longitude": -73.60601190287942}, "889699211RR0001": {"name": "RESEAU COMPASSION INTERNATIONAL", "designationCode": "C", "categoryCode": "47", "address": "550 RUE RIENDEAU", "city": "SAINT-JEAN-SUR-RICHELIEU", "province": "QC", "country": "CA", "postalCode": "J2X3R9", "twitter": "None", "instagram": "None", "facebook": "None", "youtube": "None", "website": "None", "summary": "None", "logo": "None", "latitude": 45.30857432445608, "longitude": -73.23782806145779}, "869509174RR0001": {"name": "RESEAU D'ACCUEIL DES AGENTS ET AGENTES DE LA PAIX (LA VIGILE)", "designationCode": "C", "categoryCode": "09", "address": "2A RUE MGR-MARC-LECLERC", "city": "QUEBEC", "province": "QC", "country": "CA", "postalCode": "G1C2C4", "twitter": "None", "instagram": "None", "facebook": "None", "youtube": "None", "website": "None", "summary": "None", "logo": "None", "latitude": 46.87789192398714, "longitude": -71.15562505067524}, "104482518RR0001": {"name": "RESEAU D'AIDE LE TREMPLIN INC.", "designationCode": "C", "categoryCode": "19", "address": "625 RUE LINDSAY", "city": "DRUMMONDVILLE", "province": "QC", "country": "CA", "postalCode": "J2B1H8", "twitter": "None", "instagram": "None", "facebook": "None", "youtube": "None", "website": "None", "summary": "None", "logo": "None", "latitude": 45.87702937243945, "longitude": -72.47741483031312}, "107886780RR0001": {"name": "RESEAU D'APPUI AUX FAMILLES MONOPARENTALES DE L'ESTRIE (RAME) INC.", "designationCode": "C", "categoryCode": "01", "address": "1050 DES JARDINS-FLEURIS", "city": "SHERBROOKE", "province": "QC", "country": "CA", "postalCode": "J1E1J5", "twitter": "None", "instagram": "None", "facebook": "None", "youtube": "None", "website": "None", "summary": "None", "logo": "None", "latitude": 45.41890984205681, "longitude": -71.86632829032251}, "132932435RR0001": {"name": "RESEAU D'ENTRAIDE DE VERDUN", "designationCode": "C", "categoryCode": "09", "address": "4350 RLE QUINN", "city": "VERDUN", "province": "QC", "country": "CA", "postalCode": "H4G1L9", "twitter": "None", "instagram": "None", "facebook": "None", "youtube": "None", "website": "None", "summary": "None", "logo": "None", "latitude": 45.46050037024642, "longitude": -73.57209216235793}, "894801075RR0001": {"name": "RESEAU D'INFORMATION DES AINEES ET AINES DU QUEBEC (RIAQ)", "designationCode": "C", "categoryCode": "09", "address": "162 RUE ANDRE-CHENIER", "city": "LAVAL", "province": "QC", "country": "CA", "postalCode": "H7L2S6", "twitter": "None", "instagram": "None", "facebook": "None", "youtube": "None", "website": "None", "summary": "None", "logo": "None", "latitude": 45.608236470165615, "longitude": -73.78250518024711}, "140742123RR0001": {"name": "RESEAU D'INFORMATION ET D'AIDE AUX PERSONNES ASSISTEES SOCIALES DE CHATEAUGUAY (R.I.A.P.A.S.)", "designationCode": "C", "categoryCode": "09", "address": "71, RUE PRINCIPALE", "city": "CHATEAUGUAY", "province": "QC", "country": "CA", "postalCode": "J6K1G1", "twitter": "None", "instagram": "None", "facebook": "None", "youtube": "None", "website": "None", "summary": "None", "logo": "None", "latitude": 45.359638973628066, "longitude": -73.75084360851754}, "887968378RR0001": {"name": "RESEAU DE DEPANNAGE ALIMENTAIRE SECTEUR OUEST DE LA M.R.C. D'ARGENTEUIL", "designationCode": "C", "categoryCode": "09", "address": "88 RUE DES ERABLES", "city": "GRENVILLE-SUR-LA-ROUGE", "province": "QC", "country": "CA", "postalCode": "J0V1B0", "twitter": "None", "instagram": "None", "facebook": "None", "youtube": "None", "website": "None", "summary": "None", "logo": "None", "latitude": 45.65124181320336, "longitude": -74.63286744962204}, "874025802RR0001": {"name": "RESEAU DE SERVICES PENISULAIRES INC.", "designationCode": "C", "categoryCode": "09", "address": "141 1RE RUE", "city": "SHIPPAGAN", "province": "NB", "country": "CA", "postalCode": "E8S1A2", "twitter": "None", "instagram": "None", "facebook": "None", "youtube": "None", "website": "None", "summary": "None", "logo": "None", "latitude": 47.74292119900167, "longitude": -64.72153652775692}, "886242007RR0001": {"name": "RESEAU DE SOUTIEN ET DE SERVICES POUR MERES MONOPARENTALES", "designationCode": "C", "categoryCode": "09", "address": "1085 RUE DOVER", "city": "LAVAL", "province": "QC", "country": "CA", "postalCode": "H7W3L6", "twitter": "None", "instagram": "None", "facebook": "None", "youtube": "None", "website": "None", "summary": "None", "logo": "None", "latitude": 45.539569183189975, "longitude": -73.75678937258368}, "867406951RR0001": {"name": "RESEAU DES SERVICES DE SANTE EN FRANCAIS DE L'EST DE L'ONTARIO", "designationCode": "C", "categoryCode": "59", "address": "1173 CH CYRVILLE              BUREAU 300", "city": "OTTAWA", "province": "ON", "country": "CA", "postalCode": "K1J7S6", "twitter": "None", "instagram": "None", "facebook": "None", "youtube": "None", "website": "None", "summary": "None", "logo": "None", "latitude": 45.423734154048056, "longitude": -75.63135623091352}, "107886863RR0001": {"name": "RESEAU ENFANTS RETOUR CANADA/MISSING CHILDREN'S NETWORK CANADA", "designationCode": "C", "categoryCode": "01", "address": "103 - 950 AV BEAUMONT", "city": "MONTREAL", "province": "QC", "country": "CA", "postalCode": "H3N1V5", "twitter": "None", "instagram": "None", "facebook": "None", "youtube": "None", "website": "None", "summary": "None", "logo": "None", "latitude": 45.52431710822908, "longitude": -73.62228673088487}, "892302076RR0001": {"name": "RESEAU HOMMES QUEBEC (R H Q )", "designationCode": "C", "categoryCode": "11", "address": "911 RUE JEAN-TALON EST        BUREAU 134", "city": "MONTREAL", "province": "QC", "country": "CA", "postalCode": "H2R1V5", "twitter": "None", "instagram": "None", "facebook": "None", "youtube": "None", "website": "None", "summary": "None", "logo": "None", "latitude": 45.54149052013953, "longitude": -73.61280380287332}, "891460701RR0001": {"name": "RESEAU QUEBECOIS DES ECOLES MICRO-ENTREPRISES ENVIRONNEMENTALES", "designationCode": "C", "categoryCode": "29", "address": "6400, RUE DE L'ASTER          BUR.201", "city": "QUEBEC", "province": "QC", "country": "CA", "postalCode": "G2C0B6", "twitter": "None", "instagram": "None", "facebook": "None", "youtube": "None", "website": "None", "summary": "None", "logo": "None", "latitude": 46.8289838637542, "longitude": -71.31778649267108}, "884865767RR0001": {"name": "RESEAU SECOURS ANIMAL (R.S.A.)/ANIMAL RESCUE NETWORK (A.R.N.)", "designationCode": "C", "categoryCode": "54", "address": "CP 32203 CSP SAINT-ANDRE", "city": "MONTREAL", "province": "QC", "country": "CA", "postalCode": "H2L4Y5", "twitter": "None", "instagram": "None", "facebook": "None", "youtube": "None", "website": "None", "summary": "None", "logo": "None", "latitude": 45.518293863210474, "longitude": -73.56232569710893}, "132925322RR0001": {"name": "RESEAU SERVICE CHALEUR INC", "designationCode": "C", "categoryCode": "09", "address": "268 RUE BOUDREAU", "city": "BERESFORD", "province": "NB", "country": "CA", "postalCode": "E8K2G2", "twitter": "None", "instagram": "None", "facebook": "None", "youtube": "None", "website": "None", "summary": "None", "logo": "None", "latitude": 47.70440855453289, "longitude": -65.70625968872987}, "892163452RR0001": {"name": "RESEAU TARA CANADA (QUEBEC)", "designationCode": "C", "categoryCode": "39", "address": "42 RUE PRIEUR O", "city": "MONTREAL", "province": "QC", "country": "CA", "postalCode": "H3L1P8", "twitter": "None", "instagram": "None", "facebook": "None", "youtube": "None", "website": "None", "summary": "None", "logo": "None", "latitude": 45.548626851232065, "longitude": -73.66832295516195}, "134881408RR0001": {"name": "RESEAU VASTE INC", "designationCode": "C", "categoryCode": "09", "address": "188 ST-MARCEL", "city": "DRUMMONDVILLE", "province": "QC", "country": "CA", "postalCode": "J2B2E2", "twitter": "None", "instagram": "None", "facebook": "None", "youtube": "None", "website": "None", "summary": "None", "logo": "None", "latitude": 45.874665638092125, "longitude": -72.48776876850955}, "883407801RR0001": {"name": "RESEAU-ADOS STE-CATHERINE-DE-SIENNE", "designationCode": "C", "categoryCode": "09", "address": "5225 RUE  COURCELETTE         LOCAL 2", "city": "TROIS-RIVIERES", "province": "QC", "country": "CA", "postalCode": "G8Y4L4", "twitter": "None", "instagram": "None", "facebook": "None", "youtube": "None", "website": "None", "summary": "None", "logo": "None", "latitude": 46.34103224923538, "longitude": -72.59041592561603}, "886999242RR0001": {"name": "RESEAUX DES ARTS MEDIATIQUES", "designationCode": "C", "categoryCode": "22", "address": "C.P.47575 SUCCURSALE          PLATEAU MONT-ROYAL", "city": "MONTREAL", "province": "QC", "country": "CA", "postalCode": "H2H2S8", "twitter": "None", "instagram": "None", "facebook": "None", "youtube": "None", "website": "None", "summary": "None", "logo": "None", "latitude": 45.51239400000006, "longitude": -73.55469049999994}, "132329566RR0001": {"name": "RESI-CARE CAPE BRETON ASSOCIATION", "designationCode": "C", "categoryCode": "01", "address": "146 VULCAN AVE", "city": "SYDNEY", "province": "NS", "country": "CA", "postalCode": "B1P5W5", "twitter": "None", "instagram": "None", "facebook": "None", "youtube": "None", "website": "None", "summary": "None", "logo": "None", "latitude": 46.14453668552724, "longitude": -60.1706161784581}, "119116903RR0001": {"name": "RESICARE SOCIETY OF CALGARY", "designationCode": "C", "categoryCode": "01", "address": "7625-35 AVENUE NW", "city": "CALGARY", "province": "AB", "country": "CA", "postalCode": "T3B1T4", "twitter": "None", "instagram": "None", "facebook": "None", "youtube": "None", "website": "None", "summary": "None", "logo": "None", "latitude": 51.084755690884954, "longitude": -114.1974045488952}, "139806236RR0001": {"name": "RESIDENCE A PARENT INC", "designationCode": "C", "categoryCode": "09", "address": "97 RUE SAINT CHARLES", "city": "ST-LOUIS DU HA HA", "province": "QC", "country": "CA", "postalCode": "G0L3S0", "twitter": "None", "instagram": "None", "facebook": "None", "youtube": "None", "website": "None", "summary": "None", "logo": "None", "latitude": 47.67025490755398, "longitude": -68.9808878370938}, "107886947RR0001": {"name": "RESIDENCE ANGELICA INC.", "designationCode": "C", "categoryCode": "01", "address": "3435 BOUL. GOUIN EST", "city": "MONTREAL NORD", "province": "QC", "country": "CA", "postalCode": "H1H1B1", "twitter": "None", "instagram": "None", "facebook": "None", "youtube": "None", "website": "None", "summary": "None", "logo": "None", "latitude": 45.5898466722257, "longitude": -73.65092672623898}, "130003007RR0001": {"name": "RESIDENCE CHARLES COUILLARD (1993)", "designationCode": "C", "categoryCode": "09", "address": "20 AV SAINT-GEORGES", "city": "SAINT-CHARLES-DE-BELLECHASSE", "province": "QC", "country": "CA", "postalCode": "G0R2T0", "twitter": "None", "instagram": "None", "facebook": "None", "youtube": "None", "website": "None", "summary": "None", "logo": "None", "latitude": 46.77332793031924, "longitude": -70.94309652703576}, "135428415RR0001": {"name": "RESIDENCE DE L'ASSOCIATION DU CANCER DE L'EST DU QUEBEC", "designationCode": "C", "categoryCode": "01", "address": "151, RUE SAINT-LOUIS,         C.P. 4151", "city": "RIMOUSKI", "province": "QC", "country": "CA", "postalCode": "G5L0A4", "twitter": "None", "instagram": "None", "facebook": "None", "youtube": "None", "website": "None", "summary": "None", "logo": "None", "latitude": 48.44821461336497, "longitude": -68.5298685682958}, "886579598RR0001": {"name": "RESIDENCE DE LOURDES-LOURDES RESIDENCE INC", "designationCode": "C", "categoryCode": "09", "address": "BOX 58", "city": "NOTRE DAME DE LOURDES", "province": "MB", "country": "CA", "postalCode": "R0G1M0", "twitter": "None", "instagram": "None", "facebook": "None", "youtube": "None", "website": "None", "summary": "None", "logo": "None", "latitude": 49.53271200000006, "longitude": -98.55750049999993}, "855722583RR0001": {"name": "RESIDENCE DES AINES DE SHIPSHAW INC.", "designationCode": "C", "categoryCode": "09", "address": "206 RUE RACINE E", "city": "CHICOUTIMI", "province": "QC", "country": "CA", "postalCode": "G7H1R9", "twitter": "None", "instagram": "None", "facebook": "None", "youtube": "None", "website": "None", "summary": "None", "logo": "None", "latitude": 48.42768451399405, "longitude": -71.06229283389115}}