{"857484026RR0001": {"name": "CROSS CULTURAL OUTREACH SOCIETY", "designationCode": "C", "categoryCode": "39", "address": "9830 WHALLEY BOULEVARD        SUITE 1201", "city": "SURREY", "province": "BC", "country": "CA", "postalCode": "V3T5S7", "twitter": "None", "instagram": "None", "facebook": "None", "youtube": "None", "website": "None", "summary": "None", "logo": "None", "latitude": 49.181853457123864, "longitude": -122.84186130916399}, "119123107RR0001": {"name": "CROSS CULTURE MINISTRIES", "designationCode": "C", "categoryCode": "47", "address": "10906 KITCHEN RD", "city": "CHILLIWACK", "province": "BC", "country": "CA", "postalCode": "V2P6H5", "twitter": "None", "instagram": "None", "facebook": "None", "youtube": "None", "website": "None", "summary": "None", "logo": "None", "latitude": 49.20029640897028, "longitude": -121.9058779197808}, "106993843RR0001": {"name": "CROSS OF CHRIST LUTHERAN CHURCH OF THE DEAF ALBERTA", "designationCode": "C", "categoryCode": "32", "address": "11460-60 AVENUE N.W.", "city": "EDMONTON", "province": "AB", "country": "CA", "postalCode": "T6H1J5", "twitter": "None", "instagram": "None", "facebook": "None", "youtube": "None", "website": "None", "summary": "None", "logo": "None", "latitude": 53.49698346047075, "longitude": -113.52836186081134}, "889929642RR0001": {"name": "CROSS OF LIFE LUTHERAN CHURCH", "designationCode": "C", "categoryCode": "39", "address": "3964 BEACHAM STREET", "city": "MISSISSAUGA", "province": "ON", "country": "CA", "postalCode": "L5N6S9", "twitter": "None", "instagram": "None", "facebook": "None", "youtube": "None", "website": "None", "summary": "None", "logo": "None", "latitude": 43.57053956673792, "longitude": -79.77993277641541}, "139942213RR0001": {"name": "CROSS POINT FELLOWSHIP", "designationCode": "C", "categoryCode": "39", "address": "BOX 544", "city": "DALMENY", "province": "SK", "country": "CA", "postalCode": "S0K1E0", "twitter": "None", "instagram": "None", "facebook": "None", "youtube": "None", "website": "None", "summary": "None", "logo": "None", "latitude": 52.143390000000004, "longitude": -106.76546549999999}, "118880186RR0001": {"name": "CROSS ROADS CHRISTIAN CHURCH INC.", "designationCode": "C", "categoryCode": "39", "address": "5 GEORGETOWN ROAD", "city": "STRATFORD", "province": "PE", "country": "CA", "postalCode": "C1B2S5", "twitter": "None", "instagram": "None", "facebook": "None", "youtube": "None", "website": "None", "summary": "None", "logo": "None", "latitude": 46.216155510675826, "longitude": -63.07535122162269}, "118880277RR0001": {"name": "CROSS ROADS MEMORIAL BRETHREN IN CHRIST CHURCH", "designationCode": "C", "categoryCode": "39", "address": "4614 WELLINGTON ROAD 32", "city": "GUELPH", "province": "ON", "country": "CA", "postalCode": "N1H6J3", "twitter": "None", "instagram": "None", "facebook": "None", "youtube": "None", "website": "None", "summary": "None", "logo": "None", "latitude": 43.46090742979532, "longitude": -80.27329981740203}, "118880293RR0001": {"name": "CROSS ROADS RURAL COMMUNITY FIRE COMPANY", "designationCode": "C", "categoryCode": "59", "address": "P.O. BOX 1361", "city": "CHARLOTTETOWN", "province": "PE", "country": "CA", "postalCode": "C1A7N1", "twitter": "None", "instagram": "None", "facebook": "None", "youtube": "None", "website": "None", "summary": "None", "logo": "None", "latitude": 46.23659700000006, "longitude": -63.12815449999994}, "892737685RR0001": {"name": "CROSS ROADS, SALMON RIVER, CEMETERY COMPANY", "designationCode": "C", "categoryCode": "59", "address": "14 - 143 RYLAND AVE", "city": "TRURO", "province": "NS", "country": "CA", "postalCode": "B2N6L4", "twitter": "None", "instagram": "None", "facebook": "None", "youtube": "None", "website": "None", "summary": "None", "logo": "None", "latitude": 45.37628967335087, "longitude": -63.26432045380564}, "890415086RR0001": {"name": "CROSS-CULTURAL MISSION SUPPORT MINISTRIES", "designationCode": "C", "categoryCode": "43", "address": "4928 WINDSONG CRES.", "city": "KELOWNA", "province": "BC", "country": "CA", "postalCode": "V1W4Y2", "twitter": "None", "instagram": "None", "facebook": "None", "youtube": "None", "website": "None", "summary": "None", "logo": "None", "latitude": 49.805078951151245, "longitude": -119.48175458162599}, "128822111RR0001": {"name": "CROSS-TORONTO COMMUNITY DEVELOPMENT CORPORATION", "designationCode": "C", "categoryCode": "59", "address": "3345 DUNDAS ST W", "city": "TORONTO", "province": "ON", "country": "CA", "postalCode": "M6P2A6", "twitter": "None", "instagram": "None", "facebook": "None", "youtube": "None", "website": "None", "summary": "None", "logo": "None", "latitude": 43.665540517889184, "longitude": -79.48155094463038}, "118880061RR0001": {"name": "CROSSFIELD BAPTIST CHURCH", "designationCode": "C", "categoryCode": "31", "address": "BOX 231", "city": "CROSSFIELD", "province": "AB", "country": "CA", "postalCode": "T0M0S0", "twitter": "None", "instagram": "None", "facebook": "None", "youtube": "None", "website": "None", "summary": "None", "logo": "None", "latitude": 51.42757000000006, "longitude": -114.02818999999994}, "118880079RR0001": {"name": "CROSSFIELD PASTORAL CHARGE", "designationCode": "C", "categoryCode": "44", "address": "PO BOX 233", "city": "CROSSFIELD", "province": "AB", "country": "CA", "postalCode": "T0M0S0", "twitter": "None", "instagram": "None", "facebook": "None", "youtube": "None", "website": "None", "summary": "None", "logo": "None", "latitude": 51.42954000000003, "longitude": -114.02704999999997}, "138721972RR0001": {"name": "CROSSFIRE ASSEMBLY", "designationCode": "C", "categoryCode": "39", "address": "458 KING STREET W.", "city": "HAMILTON", "province": "ON", "country": "CA", "postalCode": "L8P1B7", "twitter": "None", "instagram": "None", "facebook": "None", "youtube": "None", "website": "None", "summary": "None", "logo": "None", "latitude": 43.26066373884803, "longitude": -79.88273536995796}, "898250204RR0001": {"name": "CROSSHILL MENNONITE CHURCH", "designationCode": "C", "categoryCode": "34", "address": "2537 HUTCHINSON RD            RR 1", "city": "MILLBANK", "province": "ON", "country": "CA", "postalCode": "N0K1L0", "twitter": "None", "instagram": "None", "facebook": "None", "youtube": "None", "website": "None", "summary": "None", "logo": "None", "latitude": 43.55926800000006, "longitude": -81.39076999999993}, "896325404RR0001": {"name": "CROSSING ALL BRIDGES LEARNING CENTRE INC.", "designationCode": "C", "categoryCode": "09", "address": "2 - 63 CHARING CROSS ST", "city": "BRANTFORD", "province": "ON", "country": "CA", "postalCode": "N3R2H4", "twitter": "None", "instagram": "None", "facebook": "None", "youtube": "None", "website": "None", "summary": "None", "logo": "None", "latitude": 43.160875550146834, "longitude": -80.2690202541984}, "860326644RR0001": {"name": "CROSSING COMMUNITIES ART PROJECT INC.", "designationCode": "C", "categoryCode": "09", "address": "RR #1", "city": "WINFIELD", "province": "AB", "country": "CA", "postalCode": "T0C2X0", "twitter": "None", "instagram": "None", "facebook": "None", "youtube": "None", "website": "None", "summary": "None", "logo": "None", "latitude": 52.964941899662065, "longitude": -114.42655942720016}, "140749425RR0001": {"name": "CROSSING THE DIVIDE EXPERIENCE LTD", "designationCode": "C", "categoryCode": "09", "address": "5208 VERONICA RD NW", "city": "CALGARY", "province": "AB", "country": "CA", "postalCode": "T3A0T3", "twitter": "None", "instagram": "None", "facebook": "None", "youtube": "None", "website": "None", "summary": "None", "logo": "None", "latitude": 51.09445141993188, "longitude": -114.16105507146978}, "808488324RR0001": {"name": "CROSSLANDS CHURCH", "designationCode": "C", "categoryCode": "39", "address": "47 MILLARD AVE WEST", "city": "NEWMARKET", "province": "ON", "country": "CA", "postalCode": "L3Y7P6", "twitter": "None", "instagram": "None", "facebook": "None", "youtube": "None", "website": "None", "summary": "None", "logo": "None", "latitude": 44.050675009203935, "longitude": -79.48147042480797}, "118880129RR0001": {"name": "CROSSOVER EVANGELISM INTERNATIONAL SOCIETY", "designationCode": "C", "categoryCode": "39", "address": "201 4400 CHATTERTON WAY", "city": "VICTORIA", "province": "BC", "country": "CA", "postalCode": "V8X5J2", "twitter": "None", "instagram": "None", "facebook": "None", "youtube": "None", "website": "None", "summary": "None", "logo": "None", "latitude": 48.48674397890817, "longitude": -123.38178234341218}, "119144020RR0001": {"name": "CROSSPOINT CHRISTIAN REFORMED CHURCH", "designationCode": "C", "categoryCode": "39", "address": "444 STEELES AVE WEST", "city": "BRAMPTON", "province": "ON", "country": "CA", "postalCode": "L6Y0J3", "twitter": "None", "instagram": "None", "facebook": "None", "youtube": "None", "website": "None", "summary": "None", "logo": "None", "latitude": 43.65797578882197, "longitude": -79.74212481730004}, "899592943RR0001": {"name": "CROSSPOINTE FELLOWSHIP (CALGARY)", "designationCode": "C", "categoryCode": "39", "address": "PO BOX 31                     918-16 AVE NW", "city": "CALGARY", "province": "AB", "country": "CA", "postalCode": "T2M0K3", "twitter": "None", "instagram": "None", "facebook": "None", "youtube": "None", "website": "None", "summary": "None", "logo": "None", "latitude": 51.067089888947955, "longitude": -114.082371}, "842154288RR0001": {"name": "CROSSPOINTE FELLOWSHIP TORONTO", "designationCode": "C", "categoryCode": "39", "address": "16-A ROTARY DRIVE", "city": "SCARBOROUGH", "province": "ON", "country": "CA", "postalCode": "M1B2J1", "twitter": "None", "instagram": "None", "facebook": "None", "youtube": "None", "website": "None", "summary": "None", "logo": "None", "latitude": 43.805547701915856, "longitude": -79.16569602550656}, "106993868RR0001": {"name": "CROSSREACH PROJECT OF VANCOUVER", "designationCode": "C", "categoryCode": "56", "address": "3348 BROADWAY W", "city": "VANCOUVER", "province": "BC", "country": "CA", "postalCode": "V6R2B2", "twitter": "None", "instagram": "None", "facebook": "None", "youtube": "None", "website": "None", "summary": "None", "logo": "None", "latitude": 49.26416616338345, "longitude": -123.17881787867312}, "131455396RR0001": {"name": "CROSSROADS AGRICULTURAL SOCIETY", "designationCode": "C", "categoryCode": "56", "address": "35507 RANGE ROAD 250", "city": "RED DEER COUNTY", "province": "AB", "country": "CA", "postalCode": "T4G0M5", "twitter": "None", "instagram": "None", "facebook": "None", "youtube": "None", "website": "None", "summary": "None", "logo": "None", "latitude": 52.042103999999995, "longitude": -113.4332463082986}, "132218710RR0001": {"name": "CROSSROADS ALLIANCE CHURCH", "designationCode": "C", "categoryCode": "39", "address": "194552 REGIONAL RD 119        RR 3", "city": "INGERSOLL", "province": "ON", "country": "CA", "postalCode": "N5C3J6", "twitter": "None", "instagram": "None", "facebook": "None", "youtube": "None", "website": "None", "summary": "None", "logo": "None", "latitude": 43.04257299243139, "longitude": -80.910344014047}, "106993884RR0001": {"name": "CROSSROADS BAPTIST CHURCH", "designationCode": "C", "categoryCode": "31", "address": "RR #2", "city": "TRURO", "province": "NS", "country": "CA", "postalCode": "B2N5B1", "twitter": "None", "instagram": "None", "facebook": "None", "youtube": "None", "website": "None", "summary": "None", "logo": "None", "latitude": 45.348435391570774, "longitude": -63.2509}, "876112202RR0001": {"name": "CROSSROADS BAPTIST CHURCH", "designationCode": "C", "categoryCode": "31", "address": "181 CRAWFORD STREET", "city": "SOUTH PORCUPINE", "province": "ON", "country": "CA", "postalCode": "P0N1H0", "twitter": "None", "instagram": "None", "facebook": "None", "youtube": "None", "website": "None", "summary": "None", "logo": "None", "latitude": 48.483014759369595, "longitude": -81.20842572057786}, "837560275RR0001": {"name": "CROSSROADS BIBLE CHURCH INCORPORATED", "designationCode": "C", "categoryCode": "39", "address": "BOX 44", "city": "SPALDING", "province": "SK", "country": "CA", "postalCode": "S0K4C0", "twitter": "None", "instagram": "None", "facebook": "None", "youtube": "None", "website": "None", "summary": "None", "logo": "None", "latitude": 52.332760000000064, "longitude": -104.49557999999996}, "106993918RR0001": {"name": "CROSSROADS CENTRE INC.", "designationCode": "C", "categoryCode": "57", "address": "580 N. ALGOMA ST. WING H.     PO BOX 21116", "city": "THUNDER BAY", "province": "ON", "country": "CA", "postalCode": "P7A8A7", "twitter": "None", "instagram": "None", "facebook": "None", "youtube": "None", "website": "None", "summary": "None", "logo": "None", "latitude": 48.453286132108666, "longitude": -89.20007006744004}, "134012285RR0001": {"name": "CROSSROADS CHILDREN'S CENTRE", "designationCode": "C", "categoryCode": "11", "address": "1755 COURTWOOD CRES.", "city": "OTTAWA", "province": "ON", "country": "CA", "postalCode": "K2C3J2", "twitter": "None", "instagram": "None", "facebook": "None", "youtube": "None", "website": "None", "summary": "None", "logo": "None", "latitude": 45.3712788753823, "longitude": -75.74975189982099}, "839214673RR0001": {"name": "CROSSROADS CHRISTIAN ASSEMBLY", "designationCode": "C", "categoryCode": "36", "address": "3203 92 ST NW", "city": "EDMONTON", "province": "AB", "country": "CA", "postalCode": "T6N1B9", "twitter": "None", "instagram": "None", "facebook": "None", "youtube": "None", "website": "None", "summary": "None", "logo": "None", "latitude": 53.46371641326678, "longitude": -113.47011788337507}, "106993926RR0001": {"name": "CROSSROADS CHRISTIAN COMMUNICATIONS INCORPORATED", "designationCode": "C", "categoryCode": "47", "address": "1295 NORTH SERVICE RD         P.O. BOX 5100", "city": "BURLINGTON", "province": "ON", "country": "CA", "postalCode": "L7R4M2", "twitter": "None", "instagram": "None", "facebook": "None", "youtube": "None", "website": "None", "summary": "None", "logo": "None", "latitude": 43.33626881605931, "longitude": -79.83474683259213}, "826041691RR0001": {"name": "CROSSROADS CHRISTIAN FELLOWSHIP SOCIETY", "designationCode": "C", "categoryCode": "36", "address": "P.O. BOX 56", "city": "SALMO", "province": "BC", "country": "CA", "postalCode": "V0G1Z0", "twitter": "None", "instagram": "None", "facebook": "None", "youtube": "None", "website": "None", "summary": "None", "logo": "None", "latitude": 49.19366000000008, "longitude": -117.28050999999999}, "887876100RR0001": {"name": "CROSSROADS CHURCH INC", "designationCode": "C", "categoryCode": "43", "address": "BOX 487", "city": "HERBERT", "province": "SK", "country": "CA", "postalCode": "S0H2A0", "twitter": "None", "instagram": "None", "facebook": "None", "youtube": "None", "website": "None", "summary": "None", "logo": "None", "latitude": 50.42651921542417, "longitude": -107.22535903213169}, "898945019RR0001": {"name": "CROSSROADS COMMUNITY CHRISTIAN REFORMED CHURCH", "designationCode": "C", "categoryCode": "39", "address": "18-520 WESTNEY RD S", "city": "AJAX", "province": "ON", "country": "CA", "postalCode": "L1S6W6", "twitter": "None", "instagram": "None", "facebook": "None", "youtube": "None", "website": "None", "summary": "None", "logo": "None", "latitude": 43.83882772459035, "longitude": -79.03511860094142}, "118880202RR0001": {"name": "CROSSROADS COMMUNITY CHURCH", "designationCode": "C", "categoryCode": "39", "address": "912-19TH ST N E", "city": "CALGARY", "province": "AB", "country": "CA", "postalCode": "T2E4X7", "twitter": "None", "instagram": "None", "facebook": "None", "youtube": "None", "website": "None", "summary": "None", "logo": "None", "latitude": 51.06005332584106, "longitude": -114.0133468176181}, "895634962RR0001": {"name": "CROSSROADS COMMUNITY CHURCH", "designationCode": "C", "categoryCode": "34", "address": "4 - 45668 STOREY AVE", "city": "CHILLIWACK", "province": "BC", "country": "CA", "postalCode": "V2R3E4", "twitter": "None", "instagram": "None", "facebook": "None", "youtube": "None", "website": "None", "summary": "None", "logo": "None", "latitude": 49.13630554731953, "longitude": -121.95984116472387}, "868009929RR0001": {"name": "CROSSROADS COMMUNITY CHURCH INC", "designationCode": "C", "categoryCode": "39", "address": "P O BOX 145", "city": "KENTON", "province": "MB", "country": "CA", "postalCode": "R0M0Z0", "twitter": "None", "instagram": "None", "facebook": "None", "youtube": "None", "website": "None", "summary": "None", "logo": "None", "latitude": 49.99002000000007, "longitude": -100.61247999999995}, "139418628RR0001": {"name": "CROSSROADS CONGREGATIONAL CHRISTIAN CHURCH INC.", "designationCode": "C", "categoryCode": "39", "address": "PO BOX 441", "city": "GANDER", "province": "NL", "country": "CA", "postalCode": "A1V1W8", "twitter": "None", "instagram": "None", "facebook": "None", "youtube": "None", "website": "None", "summary": "None", "logo": "None", "latitude": 48.95684700000005, "longitude": -54.60917299999993}, "106993967RR0001": {"name": "CROSSROADS COUNSELLING CENTRE SOCIETY", "designationCode": "C", "categoryCode": "59", "address": "202-542 7 ST S", "city": "LETHBRIDGE", "province": "AB", "country": "CA", "postalCode": "T1J2H1", "twitter": "None", "instagram": "None", "facebook": "None", "youtube": "None", "website": "None", "summary": "None", "logo": "None", "latitude": 49.69212940668286, "longitude": -112.83681829159751}, "869198200RR0001": {"name": "CROSSROADS EVANGELICAL MISSIONARY CHURCH FELLOWSHIP", "designationCode": "C", "categoryCode": "39", "address": "38105 RANGE ROAD 275", "city": "RED DEER COUNTY", "province": "AB", "country": "CA", "postalCode": "T4S2N4", "twitter": "None", "instagram": "None", "facebook": "None", "youtube": "None", "website": "None", "summary": "None", "logo": "None", "latitude": 52.24517056136824, "longitude": -113.84716209008657}, "118880244RR0001": {"name": "CROSSROADS FOR WOMEN INC./ CARREFOUR POUR FEMMES INC.", "designationCode": "C", "categoryCode": "09", "address": "PO BOX 1247                   MAIN POST OFFICE", "city": "MONCTON", "province": "NB", "country": "CA", "postalCode": "E1C8P9", "twitter": "None", "instagram": "None", "facebook": "None", "youtube": "None", "website": "None", "summary": "None", "logo": "None", "latitude": 46.08872243840578, "longitude": -64.77642630797114}, "107406316RR0001": {"name": "CROSSROADS FREE METHODIST CHURCH", "designationCode": "C", "categoryCode": "39", "address": "121 SHUSWAP ST SW", "city": "SALMON ARM", "province": "BC", "country": "CA", "postalCode": "V1E4H8", "twitter": "None", "instagram": "None", "facebook": "None", "youtube": "None", "website": "None", "summary": "None", "logo": "None", "latitude": 50.70048202279392, "longitude": -119.2851743566564}, "894850635RR0001": {"name": "CROSSROADS HOSPICE SOCIETY", "designationCode": "C", "categoryCode": "11", "address": "504-34A-2755 LOUGHEED HWY", "city": "PORT COQUITLAM", "province": "BC", "country": "CA", "postalCode": "V3C1T5", "twitter": "None", "instagram": "None", "facebook": "None", "youtube": "None", "website": "None", "summary": "None", "logo": "None", "latitude": 49.24803809466123, "longitude": -122.72976900244755}, "131705287RR0001": {"name": "CROSSROADS MENNONITE BRETHREN CHURCH", "designationCode": "C", "categoryCode": "34", "address": "231 KITSON ST", "city": "WINNIPEG", "province": "MB", "country": "CA", "postalCode": "R2H0Z4", "twitter": "None", "instagram": "None", "facebook": "None", "youtube": "None", "website": "None", "summary": "None", "logo": "None", "latitude": 49.878955486005964, "longitude": -97.11734225007211}, "107966764RR0001": {"name": "CROSSROADS PASTORAL CHARGE", "designationCode": "C", "categoryCode": "44", "address": "PO BOX 13", "city": "RAYMORE", "province": "SK", "country": "CA", "postalCode": "S0A3J0", "twitter": "None", "instagram": "None", "facebook": "None", "youtube": "None", "website": "None", "summary": "None", "logo": "None", "latitude": 51.409260000000074, "longitude": -104.52537999999998}, "106994031RR0001": {"name": "CROSSROADS PENTECOSTAL ASSEMBLY CORP", "designationCode": "C", "categoryCode": "36", "address": "1510 OLIVE DIEFENBAKER DRIVE", "city": "PRINCE ALBERT", "province": "SK", "country": "CA", "postalCode": "S6V7H4", "twitter": "None", "instagram": "None", "facebook": "None", "youtube": "None", "website": "None", "summary": "None", "logo": "None", "latitude": 53.187337421085715, "longitude": -105.71053712793591}, "138368253RR0001": {"name": "CROSSROADS VICTORY CHURCH", "designationCode": "C", "categoryCode": "39", "address": "885 19TH ST WEST", "city": "OWEN SOUND", "province": "ON", "country": "CA", "postalCode": "N4K6V5", "twitter": "None", "instagram": "None", "facebook": "None", "youtube": "None", "website": "None", "summary": "None", "logo": "None", "latitude": 44.58262530062295, "longitude": -80.96452809365812}, "129370961RR0001": {"name": "CROSSTALK MINISTRIES", "designationCode": "C", "categoryCode": "47", "address": "3491 HINGSTON AVENUE", "city": "MONTREAL", "province": "QC", "country": "CA", "postalCode": "H4A2J5", "twitter": "None", "instagram": "None", "facebook": "None", "youtube": "None", "website": "None", "summary": "None", "logo": "None", "latitude": 45.468410206503485, "longitude": -73.62295221036997}, "889735023RR0001": {"name": "CROSSTRAINERS CANADA", "designationCode": "C", "categoryCode": "49", "address": "P.O BOX 1426                  31 FREDERICK ST", "city": "BRADFORD", "province": "ON", "country": "CA", "postalCode": "L3Z2B7", "twitter": "None", "instagram": "None", "facebook": "None", "youtube": "None", "website": "None", "summary": "None", "logo": "None", "latitude": 44.11690147879893, "longitude": -79.56634882671615}, "108011552RR0001": {"name": "CROSSWAY BAPTIST CHURCH", "designationCode": "C", "categoryCode": "31", "address": "4215 CONCESSION 11 RR3", "city": "MAIDSTONE", "province": "ON", "country": "CA", "postalCode": "N0R1K0", "twitter": "None", "instagram": "None", "facebook": "None", "youtube": "None", "website": "None", "summary": "None", "logo": "None", "latitude": 42.2624697274613, "longitude": -82.89606205216975}, "869726794RR0001": {"name": "CROSSWAY COMMUNITY CHURCH", "designationCode": "C", "categoryCode": "39", "address": "19533 64 AVE", "city": "SURREY", "province": "BC", "country": "CA", "postalCode": "V3S4J3", "twitter": "None", "instagram": "None", "facebook": "None", "youtube": "None", "website": "None", "summary": "None", "logo": "None", "latitude": 49.1191025115412, "longitude": -122.68176266472386}, "888674462RR0001": {"name": "CROSSWAYS TO LIFE", "designationCode": "C", "categoryCode": "47", "address": "79 WEBER ST E", "city": "KITCHENER", "province": "ON", "country": "CA", "postalCode": "N2H1C6", "twitter": "None", "instagram": "None", "facebook": "None", "youtube": "None", "website": "None", "summary": "None", "logo": "None", "latitude": 43.450018942812704, "longitude": -80.4833351759766}, "118880343RR0001": {"name": "CROSSWINDS OCCUPATIONAL ACTIVITY CENTRE INC.", "designationCode": "C", "categoryCode": "59", "address": "100 LEONARD DRIVE", "city": "SUSSEX", "province": "NB", "country": "CA", "postalCode": "E4E2R2", "twitter": "None", "instagram": "None", "facebook": "None", "youtube": "None", "website": "None", "summary": "None", "logo": "None", "latitude": 45.72845926397924, "longitude": -65.48599796753987}, "106994122RR0001": {"name": "CROUCH NEIGHBOURHOOD RESOURCE CENTRE", "designationCode": "C", "categoryCode": "59", "address": "550 HAMILTON RD", "city": "LONDON", "province": "ON", "country": "CA", "postalCode": "N5Z1S4", "twitter": "None", "instagram": "None", "facebook": "None", "youtube": "None", "website": "None", "summary": "None", "logo": "None", "latitude": 42.98041344993916, "longitude": -81.21512858228981}, "894876523RR0001": {"name": "CROW WING TRAIL ASSOCIATION CHEMIN ST-PAUL INC.", "designationCode": "C", "categoryCode": "56", "address": "PO BOX 268", "city": "ST PIERRE-JOLYS", "province": "MB", "country": "CA", "postalCode": "R0A1V0", "twitter": "None", "instagram": "None", "facebook": "None", "youtube": "None", "website": "None", "summary": "None", "logo": "None", "latitude": 49.44078600000006, "longitude": -96.98513299999993}, "118880475RR0001": {"name": "CROW'S THEATRE CIRCUS", "designationCode": "C", "categoryCode": "22", "address": "345 CARLAW AVE                GROUND FLOOR THEATRE", "city": "TORONTO", "province": "ON", "country": "CA", "postalCode": "M4M2T1", "twitter": "None", "instagram": "None", "facebook": "None", "youtube": "None", "website": "None", "summary": "None", "logo": "None", "latitude": 43.66506122176694, "longitude": -79.34168064276666}, "895528545RR0001": {"name": "CROWCHILD CENTRE FOR POSITIVE LIVING-CALGARY SOCIETY", "designationCode": "C", "categoryCode": "45", "address": "55 ROYAL RIDGE MANOR NW", "city": "CALGARY", "province": "AB", "country": "CA", "postalCode": "T3G5Z1", "twitter": "None", "instagram": "None", "facebook": "None", "youtube": "None", "website": "None", "summary": "None", "logo": "None", "latitude": 51.14022252899768, "longitude": -114.22699169608748}, "106994148RR0001": {"name": "CROWCHILD TWIN ARENA ASSOCIATION", "designationCode": "C", "categoryCode": "56", "address": "185 SCENIC ACRES DR NW", "city": "CALGARY", "province": "AB", "country": "CA", "postalCode": "T3L1L4", "twitter": "None", "instagram": "None", "facebook": "None", "youtube": "None", "website": "None", "summary": "None", "logo": "None", "latitude": 51.112475822090154, "longitude": -114.21251836635128}, "129971669RR0001": {"name": "CROWE VALLEY CONSERVATION AUTHORITY", "designationCode": "C", "categoryCode": "52", "address": "PO BOX 416", "city": "MARMORA", "province": "ON", "country": "CA", "postalCode": "K0K2M0", "twitter": "None", "instagram": "None", "facebook": "None", "youtube": "None", "website": "None", "summary": "None", "logo": "None", "latitude": 44.424105000000054, "longitude": -77.62367149999993}, "887666196RR0001": {"name": "CROWE VALLEY CONSERVATION FOUNDATION", "designationCode": "A", "categoryCode": "55", "address": "BOX 416", "city": "MARMORA", "province": "ON", "country": "CA", "postalCode": "K0K2M0", "twitter": "None", "instagram": "None", "facebook": "None", "youtube": "None", "website": "None", "summary": "None", "logo": "None", "latitude": 44.424105000000054, "longitude": -77.62367149999993}, "118880392RR0001": {"name": "CROWN CEMETERY PUSLINCH", "designationCode": "C", "categoryCode": "59", "address": "4220  20TH SIDEROAD S         RR.2", "city": "PUSLINCH", "province": "ON", "country": "CA", "postalCode": "N0B2J0", "twitter": "None", "instagram": "None", "facebook": "None", "youtube": "None", "website": "None", "summary": "None", "logo": "None", "latitude": 43.4270727144479, "longitude": -80.17945314309407}, "835704669RR0001": {"name": "CROWN OF GLORY GOSPEL CHURCH (COGGC)", "designationCode": "C", "categoryCode": "39", "address": "208 - 415 OAKDALE RD", "city": "NORTH YORK", "province": "ON", "country": "CA", "postalCode": "M3N1W7", "twitter": "None", "instagram": "None", "facebook": "None", "youtube": "None", "website": "None", "summary": "None", "logo": "None", "latitude": 43.749175735501176, "longitude": -79.52695388784711}, "118880426RR0001": {"name": "CROWN STREET PRESCHOOL SOCIETY", "designationCode": "C", "categoryCode": "20", "address": "3737 27TH AVE W", "city": "VANCOUVER", "province": "BC", "country": "CA", "postalCode": "V6S1R2", "twitter": "None", "instagram": "None", "facebook": "None", "youtube": "None", "website": "None", "summary": "None", "logo": "None", "latitude": 49.248131467684104, "longitude": -123.18747177407812}, "118880467RR0001": {"name": "CROWS NEST PASS SYMPHONY", "designationCode": "C", "categoryCode": "22", "address": "BOX 567", "city": "BLAIRMORE", "province": "AB", "country": "CA", "postalCode": "T0K0E0", "twitter": "None", "instagram": "None", "facebook": "None", "youtube": "None", "website": "None", "summary": "None", "logo": "None", "latitude": 49.491268008524564, "longitude": -113.94719278131039}, "106994429RR0001": {"name": "CROWSNEST COMMUNITY BAPTIST CHURCH", "designationCode": "C", "categoryCode": "39", "address": "BOX 574", "city": "BLAIRMORE", "province": "AB", "country": "CA", "postalCode": "T0K0E0", "twitter": "None", "instagram": "None", "facebook": "None", "youtube": "None", "website": "None", "summary": "None", "logo": "None", "latitude": 49.491268008524564, "longitude": -113.94719278131039}, "106994437RR0001": {"name": "CROWSNEST COMMUNITY CHRISTIAN CENTRE", "designationCode": "C", "categoryCode": "36", "address": "BOX 700", "city": "COLEMAN", "province": "AB", "country": "CA", "postalCode": "T0K0M0", "twitter": "None", "instagram": "None", "facebook": "None", "youtube": "None", "website": "None", "summary": "None", "logo": "None", "latitude": 49.4888173371808, "longitude": -113.95073569884576}, "119233328RR0001": {"name": "CROWSNEST COMMUNITY SUPPORT SOCIETY", "designationCode": "C", "categoryCode": "11", "address": "BOX 507", "city": "COLEMAN", "province": "AB", "country": "CA", "postalCode": "T0K0M0", "twitter": "None", "instagram": "None", "facebook": "None", "youtube": "None", "website": "None", "summary": "None", "logo": "None"}, "890791148RR0001": {"name": "CROWSNEST FOREST STEWARDSHIP SOCIETY", "designationCode": "C", "categoryCode": "59", "address": "PO BOX 941", "city": "COLEMAN", "province": "AB", "country": "CA", "postalCode": "T0K0M0", "twitter": "None", "instagram": "None", "facebook": "None", "youtube": "None", "website": "None", "summary": "None", "logo": "None", "latitude": 49.4888173371808, "longitude": -113.95073569884576}, "106994445RR0001": {"name": "CROWSNEST HISTORICAL SOCIETY", "designationCode": "C", "categoryCode": "50", "address": "BOX 306", "city": "COLEMAN", "province": "AB", "country": "CA", "postalCode": "T0K0M0", "twitter": "None", "instagram": "None", "facebook": "None", "youtube": "None", "website": "None", "summary": "None", "logo": "None", "latitude": 49.4888173371808, "longitude": -113.95073569884576}, "118880442RR0001": {"name": "CROWSNEST LAKE BIBLE CAMP ASSOCIATION", "designationCode": "C", "categoryCode": "56", "address": "PO 250", "city": "COLEMAN", "province": "AB", "country": "CA", "postalCode": "T0K0M0", "twitter": "None", "instagram": "None", "facebook": "None", "youtube": "None", "website": "None", "summary": "None", "logo": "None", "latitude": 49.4888173371808, "longitude": -113.95073569884576}, "120634035RR0001": {"name": "CROWSNEST PASS ALLIED ARTS ASSOCIATION", "designationCode": "C", "categoryCode": "22", "address": "BOX 1469", "city": "BLAIRMORE", "province": "AB", "country": "CA", "postalCode": "T0K0E0", "twitter": "None", "instagram": "None", "facebook": "None", "youtube": "None", "website": "None", "summary": "None", "logo": "None", "latitude": 49.491268008524564, "longitude": -113.94719278131039}, "101214716RR0001": {"name": "CROWSNEST PASS ECOMUSEUM TRUST SOCIETY", "designationCode": "C", "categoryCode": "52", "address": "PO BOX 519", "city": "BELLEVUE", "province": "AB", "country": "CA", "postalCode": "T0K0C0", "twitter": "None", "instagram": "None", "facebook": "None", "youtube": "None", "website": "None", "summary": "None", "logo": "None", "latitude": 49.578850000000045, "longitude": -114.36987999999997}, "868892191RR0001": {"name": "CROWSNEST PASS FOOD BANK SOCIETY", "designationCode": "C", "categoryCode": "09", "address": "BOX 675", "city": "BLAIRMORE", "province": "AB", "country": "CA", "postalCode": "T0K0E0", "twitter": "None", "instagram": "None", "facebook": "None", "youtube": "None", "website": "None", "summary": "None", "logo": "None", "latitude": 49.491268008524564, "longitude": -113.94719278131039}, "892507443RR0001": {"name": "CROWSNEST PASS HEALTH FOUNDATION", "designationCode": "A", "categoryCode": "15", "address": "BOX 455", "city": "BLAIRMORE", "province": "AB", "country": "CA", "postalCode": "T0K0E0", "twitter": "None", "instagram": "None", "facebook": "None", "youtube": "None", "website": "None", "summary": "None", "logo": "None", "latitude": 49.491268008524564, "longitude": -113.94719278131039}, "877963546RR0001": {"name": "CROWSNEST PASS LITERACY FOUNDATION", "designationCode": "C", "categoryCode": "21", "address": "BOX 458", "city": "COLEMAN", "province": "AB", "country": "CA", "postalCode": "T0K0M0", "twitter": "None", "instagram": "None", "facebook": "None", "youtube": "None", "website": "None", "summary": "None", "logo": "None", "latitude": 49.4888173371808, "longitude": -113.95073569884576}, "852085166RR0001": {"name": "CROWSNEST PASS MEMORIAL SOCIETY", "designationCode": "C", "categoryCode": "59", "address": "P.O. BOX 1410                 13126-21 AVE", "city": "BLAIRMORE", "province": "AB", "country": "CA", "postalCode": "T0K0E0", "twitter": "None", "instagram": "None", "facebook": "None", "youtube": "None", "website": "None", "summary": "None", "logo": "None", "latitude": 49.608377572277846, "longitude": -114.43530258396326}, "891216665RR0001": {"name": "CROWSWEST PASS SOCIETY FOR THE PREVENTION OF CRUELTY TO ANIMALS", "designationCode": "C", "categoryCode": "54", "address": "BOX 725", "city": "BLAIRMORE", "province": "AB", "country": "CA", "postalCode": "T0K0E0", "twitter": "None", "instagram": "None", "facebook": "None", "youtube": "None", "website": "None", "summary": "None", "logo": "None", "latitude": 49.491268008524564, "longitude": -113.94719278131039}, "736908690RR0001": {"name": "CRPS Hope & Awareness Foundation", "designationCode": "C", "categoryCode": "19", "address": "1185 VANCOUVER AVE", "city": "NANAIMO", "province": "BC", "country": "CA", "postalCode": "V9S4H3", "twitter": "None", "instagram": "None", "facebook": "None", "youtube": "None", "website": "None", "summary": "None", "logo": "None", "latitude": 49.18213861809684, "longitude": -123.9470959323098}, "899555122RR0001": {"name": "CRUISERS SPORTS FOR THE PHYSICALLY DISABLED", "designationCode": "C", "categoryCode": "56", "address": "9-6975 MEADWODALE TOWN CTR CIRSUITE 158", "city": "MISSISSAUGA", "province": "ON", "country": "CA", "postalCode": "L5N2V7", "twitter": "None", "instagram": "None", "facebook": "None", "youtube": "None", "website": "None", "summary": "None", "logo": "None", "latitude": 43.58099400000006, "longitude": -79.75736899999994}, "890801178RR0001": {"name": "CRUSADE FOR SALVATION OF SOULS", "designationCode": "A", "categoryCode": "49", "address": "743 HOPEFIELD ROAD            RR 2", "city": "BARRY BAY", "province": "ON", "country": "CA", "postalCode": "K0J1B0", "twitter": "None", "instagram": "None", "facebook": "None", "youtube": "None", "website": "None", "summary": "None", "logo": "None", "latitude": 45.44215507788354, "longitude": -77.54182034950186}, "894090067RR0001": {"name": "CRUXIFUSION INC.", "designationCode": "C", "categoryCode": "47", "address": "PO BOX 20054                  2211 BRANT ST", "city": "BURLINGTON", "province": "ON", "country": "CA", "postalCode": "L7P0A4", "twitter": "None", "instagram": "None", "facebook": "None", "youtube": "None", "website": "None", "summary": "None", "logo": "None", "latitude": 43.357652526804635, "longitude": -79.84460481262643}, "890732142RR0001": {"name": "CRY OF MIDNIGHT TABERNACLE CORPORATION", "designationCode": "C", "categoryCode": "39", "address": "2267 WESTSIDE LOCHARBER ROAD", "city": "NORTH LOCHARBER", "province": "NS", "country": "CA", "postalCode": "B2G2L3", "twitter": "None", "instagram": "None", "facebook": "None", "youtube": "None", "website": "None", "summary": "None", "logo": "None", "latitude": 45.39103800000005, "longitude": -62.04217399999993}, "889158374RR0001": {"name": "CRYSTAL CITY - CLEARWATER AGRICULTURAL SOCIETY", "designationCode": "C", "categoryCode": "56", "address": "BOX 64", "city": "CRYSTAL CITY", "province": "MB", "country": "CA", "postalCode": "R0K0N0", "twitter": "None", "instagram": "None", "facebook": "None", "youtube": "None", "website": "None", "summary": "None", "logo": "None", "latitude": 49.146274354951295, "longitude": -98.94961515158063}, "136905411RR0001": {"name": "CRYSTAL CITY AND DISTRICT FRIENDSHIP CLUB INC", "designationCode": "C", "categoryCode": "56", "address": "BOX 444", "city": "CRYSTAL CITY", "province": "MB", "country": "CA", "postalCode": "R0K0N0", "twitter": "None", "instagram": "None", "facebook": "None", "youtube": "None", "website": "None", "summary": "None", "logo": "None", "latitude": 49.146274354951295, "longitude": -98.94961515158063}, "857805394RR0001": {"name": "CRYSTAL CITY CHURCH OF GOD IN CHRIST, MENNONITE", "designationCode": "C", "categoryCode": "34", "address": "P.O. BOX 472                  550 BROADWAY ST", "city": "CRYSTAL CITY", "province": "MB", "country": "CA", "postalCode": "R0K0N0", "twitter": "None", "instagram": "None", "facebook": "None", "youtube": "None", "website": "None", "summary": "None", "logo": "None", "latitude": 49.23060371484994, "longitude": -100.0543018436724}, "118880558RR0001": {"name": "CRYSTAL CITY COMMUNITY & BENEVOLENT ASSOCIATION INC.", "designationCode": "C", "categoryCode": "56", "address": "BOX 462", "city": "CRYSTAL CITY", "province": "MB", "country": "CA", "postalCode": "R0K0N0", "twitter": "None", "instagram": "None", "facebook": "None", "youtube": "None", "website": "None", "summary": "None", "logo": "None", "latitude": 49.146274354951295, "longitude": -98.94961515158063}, "122539760RR0001": {"name": "CRYSTAL CITY COMMUNITY PRINTING MUSEUM INCORPORATED", "designationCode": "C", "categoryCode": "50", "address": "BOX 295", "city": "CRYSTAL CITY", "province": "MB", "country": "CA", "postalCode": "R0K0N0", "twitter": "None", "instagram": "None", "facebook": "None", "youtube": "None", "website": "None", "summary": "None", "logo": "None", "latitude": 49.146274354951295, "longitude": -98.94961515158063}, "118880566RR0001": {"name": "CRYSTAL CITY MENNONITE CHURCH", "designationCode": "C", "categoryCode": "34", "address": "PO BOX 433", "city": "CRYSTAL CITY", "province": "MB", "country": "CA", "postalCode": "R0K0N0", "twitter": "None", "instagram": "None", "facebook": "None", "youtube": "None", "website": "None", "summary": "None", "logo": "None", "latitude": 49.146274354951295, "longitude": -98.94961515158063}, "132623836RR0001": {"name": "CRYSTAL LAKE CEMETERY COMPANY", "designationCode": "C", "categoryCode": "59", "address": "2250 CURTIS ROAD", "city": "STANSTEAD", "province": "QC", "country": "CA", "postalCode": "J0B3E0", "twitter": "None", "instagram": "None", "facebook": "None", "youtube": "None", "website": "None", "summary": "None", "logo": "None", "latitude": 45.06089972078599, "longitude": -72.08559562375233}, "862193554RR0001": {"name": "CRYSTAL MISSION INTERNATIONAL", "designationCode": "C", "categoryCode": "09", "address": "48 ANDREA ROAD", "city": "AJAX", "province": "ON", "country": "CA", "postalCode": "L1S3V7", "twitter": "None", "instagram": "None", "facebook": "None", "youtube": "None", "website": "None", "summary": "None", "logo": "None", "latitude": 43.82405087344907, "longitude": -79.01211312741631}, "886628791RR0001": {"name": "CRYSTAL MOUNTAIN - A SOCIETY FOR EASTERN AND WESTERN STUDIES", "designationCode": "C", "categoryCode": "49", "address": "536 ROCKMOYNE PLACE", "city": "BOWEN ISLAND", "province": "BC", "country": "CA", "postalCode": "V0N1G2", "twitter": "None", "instagram": "None", "facebook": "None", "youtube": "None", "website": "None", "summary": "None", "logo": "None", "latitude": 49.35736215591389, "longitude": -123.41570842551555}, "893943761RR0001": {"name": "CRYSTAL RIDGE COMMUNITY CENTRE", "designationCode": "C", "categoryCode": "56", "address": "99 RIDGE ROAD", "city": "RIDGEWAY", "province": "ON", "country": "CA", "postalCode": "L0S1N0", "twitter": "None", "instagram": "None", "facebook": "None", "youtube": "None", "website": "None", "summary": "None", "logo": "None", "latitude": 42.877345408193065, "longitude": -79.05186626680577}, "131294738RR0001": {"name": "CRYSTAL RIDGE COMMUNITY CHURCH", "designationCode": "C", "categoryCode": "39", "address": "BOX 903", "city": "CRYSTAL BEACH", "province": "ON", "country": "CA", "postalCode": "L0S1B0", "twitter": "None", "instagram": "None", "facebook": "None", "youtube": "None", "website": "None", "summary": "None", "logo": "None", "latitude": 42.86278293157128, "longitude": -79.05396010264306}, "118880590RR0001": {"name": "CRYSTAL RIDGE CONGREGATION OF JEHOVAH'S WITNESSES GRANDE PRAIRIE ALBERTA", "designationCode": "C", "categoryCode": "61", "address": "10135 128 AVE", "city": "GRAND PRAIRIE", "province": "AB", "country": "CA", "postalCode": "T8V1X9", "twitter": "None", "instagram": "None", "facebook": "None", "youtube": "None", "website": "None", "summary": "None", "logo": "None", "latitude": 55.19626651485942, "longitude": -118.79836285928214}, "141049726RR0001": {"name": "CRYSTAL SPRING CHARITABLE TRUST", "designationCode": "B", "categoryCode": "39", "address": "3425 2 AVENUE SOUTH", "city": "LETHBRIDGE", "province": "AB", "country": "CA", "postalCode": "T1J4V1", "twitter": "None", "instagram": "None", "facebook": "None", "youtube": "None", "website": "None", "summary": "None", "logo": "None", "latitude": 49.696839530439966, "longitude": -112.78914308381903}, "889844791RR0001": {"name": "CRYSTAL SPRING CHARITABLE TRUST", "designationCode": "B", "categoryCode": "39", "address": "2500-201 PORTAGE AVENUE", "city": "WINNIPEG", "province": "MB", "country": "CA", "postalCode": "R3B3K6", "twitter": "None", "instagram": "None", "facebook": "None", "youtube": "None", "website": "None", "summary": "None", "logo": "None", "latitude": 49.895359615067065, "longitude": -97.13919299627776}, "118880632RR0001": {"name": "CRYSTAL SPRINGS UNITED CHURCH (CONGREGATION OF BIRCH HILLS PASTORAL CHARGE)", "designationCode": "C", "categoryCode": "44", "address": "PO BOX 778", "city": "BIRCH HILLS", "province": "SK", "country": "CA", "postalCode": "S0J0G0", "twitter": "None", "instagram": "None", "facebook": "None", "youtube": "None", "website": "None", "summary": "None", "logo": "None", "latitude": 56.325968466910076, "longitude": -103.2432009425047}, "886648393RR0001": {"name": "CRYSTAL STAFF", "designationCode": "C", "categoryCode": "49", "address": "3 FLORAL PLACE", "city": "NEPEAN", "province": "ON", "country": "CA", "postalCode": "K2H6N8", "twitter": "None", "instagram": "None", "facebook": "None", "youtube": "None", "website": "None", "summary": "None", "logo": "None", "latitude": 45.323266316406, "longitude": -75.82169676155598}}