{"140905340RR0001": {"name": "LA FIDUCIE DE SUCCESSION DE CECILE M POMERLEAU", "designationCode": "B", "categoryCode": "05", "address": "600 LA GAUCHETIERE OUEST      28 \u00c9TAGE SUITE 1762", "city": "MONTREAL", "province": "QC", "country": "CA", "postalCode": "H3B4L2", "twitter": "None", "instagram": "None", "facebook": "None", "youtube": "None", "website": "None", "summary": "None", "logo": "None", "latitude": 45.50188920231989, "longitude": -73.56436485827253}, "119000040RR0001": {"name": "LA FIDUCIE DES OEUVRES DE BIENFAISANCE DU CLUB ROTARY DE HULL INC.", "designationCode": "C", "categoryCode": "65", "address": "CP 79098", "city": "HULL", "province": "QC", "country": "CA", "postalCode": "J8Y6V2", "twitter": "None", "instagram": "None", "facebook": "None", "youtube": "None", "website": "None", "summary": "None", "logo": "None", "latitude": 45.428298000000055, "longitude": -75.71037049999994}, "891799447RR0001": {"name": "LA FIDUCIE DU CLUB RICHELIEU -TIMMINS", "designationCode": "C", "categoryCode": "65", "address": "654 RIVERSIDE DR", "city": "TIMMINS", "province": "ON", "country": "CA", "postalCode": "P4N3V8", "twitter": "None", "instagram": "None", "facebook": "None", "youtube": "None", "website": "None", "summary": "None", "logo": "None", "latitude": 48.47654357151765, "longitude": -81.3551475489807}, "886481100RR0001": {"name": "LA FONDATION \"LE VENT DANS LES VOILES\"", "designationCode": "C", "categoryCode": "21", "address": "900 RUE DU FORT ST-LOUIS", "city": "BOUCHERVILLE", "province": "QC", "country": "CA", "postalCode": "J4B1T6", "twitter": "None", "instagram": "None", "facebook": "None", "youtube": "None", "website": "None", "summary": "None", "logo": "None", "latitude": 45.62727634303774, "longitude": -73.44351989338705}, "892291659RR0001": {"name": "LA FONDATION \"LES HEBERGEMENTS DE L'ENVOL\"", "designationCode": "A", "categoryCode": "03", "address": "6984 RUE FABRE", "city": "MONTREAL", "province": "QC", "country": "CA", "postalCode": "H2E2B2", "twitter": "None", "instagram": "None", "facebook": "None", "youtube": "None", "website": "None", "summary": "None", "logo": "None", "latitude": 45.54544572410419, "longitude": -73.60533464031383}, "879880367RR0001": {"name": "LA FONDATION ACAD\u00c9MIE ROYAL WEST/ROYAL WEST ACADEMY FOUNDATION", "designationCode": "A", "categoryCode": "03", "address": "189 EASTON AVENUE", "city": "MONTREAL", "province": "QC", "country": "CA", "postalCode": "H4X1L4", "twitter": "None", "instagram": "None", "facebook": "None", "youtube": "None", "website": "None", "summary": "None", "logo": "None", "latitude": 45.450269978359934, "longitude": -73.64259846866504}, "871627105RR0001": {"name": "LA FONDATION ACCES-ECOLE PIERRE KIRANDAGE", "designationCode": "C", "categoryCode": "21", "address": "380, RUE DE DORVAL", "city": "GATINEAU", "province": "QC", "country": "CA", "postalCode": "J8P3M3", "twitter": "None", "instagram": "None", "facebook": "None", "youtube": "None", "website": "None", "summary": "None", "logo": "None", "latitude": 45.48846281652157, "longitude": -75.64150746113458}, "891667172RR0001": {"name": "LA FONDATION ADOLPHE ET ROGER DUCHARME", "designationCode": "B", "categoryCode": "43", "address": "86 51E AV", "city": "SAINT-HIPPOLYTE", "province": "QC", "country": "CA", "postalCode": "J8A1N4", "twitter": "None", "instagram": "None", "facebook": "None", "youtube": "None", "website": "None", "summary": "None", "logo": "None", "latitude": 45.88355245158396, "longitude": -73.98536032497567}, "119000149RR0001": {"name": "LA FONDATION ALBANIE MORIN", "designationCode": "C", "categoryCode": "09", "address": "2475, AVENUE ST-CL\u00c9MENT", "city": "QU\u00c9BEC", "province": "QC", "country": "CA", "postalCode": "G1E1E8", "twitter": "None", "instagram": "None", "facebook": "None", "youtube": "None", "website": "None", "summary": "None", "logo": "None", "latitude": 46.8539045350572, "longitude": -71.21725309937092}, "891657256RR0001": {"name": "LA FONDATION ANDR\u00c9 LECLERC", "designationCode": "B", "categoryCode": "03", "address": "2035, ST. GERMAIN", "city": "ST-HYACINTHE", "province": "QC", "country": "CA", "postalCode": "J2S8M7", "twitter": "None", "instagram": "None", "facebook": "None", "youtube": "None", "website": "None", "summary": "None", "logo": "None", "latitude": 45.63634407963544, "longitude": -72.94655702677596}, "888851995RR0001": {"name": "LA FONDATION ANGUS", "designationCode": "C", "categoryCode": "20", "address": "2600, RUE WILLIAM-TREMBLAY    BUREAU 200", "city": "MONTREAL", "province": "QC", "country": "CA", "postalCode": "H1Y3J2", "twitter": "None", "instagram": "None", "facebook": "None", "youtube": "None", "website": "None", "summary": "None", "logo": "None", "latitude": 45.54240113543774, "longitude": -73.56473315984778}, "119000180RR0001": {"name": "LA FONDATION ARAXIE & HAGOP KESTEKIAN FOUNDATION", "designationCode": "B", "categoryCode": "03", "address": "203 KINGSLAKE RD", "city": "NORTH YORK", "province": "ON", "country": "CA", "postalCode": "M2J3G5", "twitter": "None", "instagram": "None", "facebook": "None", "youtube": "None", "website": "None", "summary": "None", "logo": "None", "latitude": 43.79079242604873, "longitude": -79.34551214873927}, "886257591RR0001": {"name": "LA FONDATION ARTHUR PIGEON", "designationCode": "C", "categoryCode": "21", "address": "1, RUE ARTHUR-PIGEON", "city": "HUNTINGDON", "province": "QC", "country": "CA", "postalCode": "J0S1H0", "twitter": "None", "instagram": "None", "facebook": "None", "youtube": "None", "website": "None", "summary": "None", "logo": "None", "latitude": 45.08681192312538, "longitude": -74.1710396643295}, "136440724RR0001": {"name": "LA FONDATION AU DIAPASON", "designationCode": "C", "categoryCode": "23", "address": "25 RUE VEZINA", "city": "STE-THERESE", "province": "QC", "country": "CA", "postalCode": "J7E3A4", "twitter": "None", "instagram": "None", "facebook": "None", "youtube": "None", "website": "None", "summary": "None", "logo": "None"}, "141030312RR0001": {"name": "LA FONDATION AU NOM DE L'ENFANCE", "designationCode": "C", "categoryCode": "56", "address": "44 CH JOHNSTON", "city": "KNOWLTON", "province": "QC", "country": "CA", "postalCode": "J0E1V0", "twitter": "None", "instagram": "None", "facebook": "None", "youtube": "None", "website": "None", "summary": "None", "logo": "None", "latitude": 45.20338307770962, "longitude": -72.59920233004668}, "886451210RR0001": {"name": "LA FONDATION AUBIN", "designationCode": "B", "categoryCode": "23", "address": "160 ST VIATEUR, APT. 707", "city": "MONTREAL", "province": "QC", "country": "CA", "postalCode": "H2T1A8", "twitter": "None", "instagram": "None", "facebook": "None", "youtube": "None", "website": "None", "summary": "None", "logo": "None", "latitude": 45.527347060476856, "longitude": -73.5976302591614}, "119000198RR0001": {"name": "LA FONDATION BAGATELLE INC.", "designationCode": "B", "categoryCode": "22", "address": "100-70 RUE DALHOUSIE", "city": "QU\u00c9BEC", "province": "QC", "country": "CA", "postalCode": "G1K4B2", "twitter": "None", "instagram": "None", "facebook": "None", "youtube": "None", "website": "None", "summary": "None", "logo": "None", "latitude": 46.81554002415026, "longitude": -71.20191414790256}, "107588352RR0001": {"name": "LA FONDATION BERTHIAUME DU TREMBLAY", "designationCode": "A", "categoryCode": "01", "address": "1474 RUE FLEURY EST", "city": "MONTREAL", "province": "QC", "country": "CA", "postalCode": "H2C1S1", "twitter": "None", "instagram": "None", "facebook": "None", "youtube": "None", "website": "None", "summary": "None", "logo": "None", "latitude": 45.562346780454774, "longitude": -73.65663291990322}, "890982952RR0001": {"name": "LA FONDATION BOUCHER-LAMBERT", "designationCode": "B", "categoryCode": "03", "address": "985 HARTLAND", "city": "OUTREMONT", "province": "QC", "country": "CA", "postalCode": "H2V2X9", "twitter": "None", "instagram": "None", "facebook": "None", "youtube": "None", "website": "None", "summary": "None", "logo": "None", "latitude": 45.51724234139297, "longitude": -73.62251252011087}, "102934130RR0001": {"name": "LA FONDATION BOULANGER - BEDARD INC.", "designationCode": "A", "categoryCode": "56", "address": "C.P. 2198", "city": "SUTTON", "province": "QC", "country": "CA", "postalCode": "J0E2K0", "twitter": "None", "instagram": "None", "facebook": "None", "youtube": "None", "website": "None", "summary": "None", "logo": "None", "latitude": 45.10737600000006, "longitude": -72.60849799999993}, "893203778RR0001": {"name": "LA FONDATION BRUJAVIN", "designationCode": "B", "categoryCode": "03", "address": "APT 11 LM- 6100, CHEMIN DEACON", "city": "MONTREAL", "province": "QC", "country": "CA", "postalCode": "H3S2V6", "twitter": "None", "instagram": "None", "facebook": "None", "youtube": "None", "website": "None", "summary": "None", "logo": "None", "latitude": 45.5119578040281, "longitude": -73.61964283738226}, "883342826RR0001": {"name": "LA FONDATION C R C INC", "designationCode": "C", "categoryCode": "21", "address": "1301 PORTLAND BLVD", "city": "SHERBROOKE", "province": "QC", "country": "CA", "postalCode": "J1J1S2", "twitter": "None", "instagram": "None", "facebook": "None", "youtube": "None", "website": "None", "summary": "None", "logo": "None", "latitude": 45.403625522649705, "longitude": -71.9088435}, "891290397RR0001": {"name": "LA FONDATION CALDWELL / CALDWELL FOUNDATION", "designationCode": "A", "categoryCode": "03", "address": "5750 LEMIEUX                  SUITE 116", "city": "MONTREAL", "province": "QC", "country": "CA", "postalCode": "H3W3G1", "twitter": "None", "instagram": "None", "facebook": "None", "youtube": "None", "website": "None", "summary": "None", "logo": "None", "latitude": 45.49104186620705, "longitude": -73.63544286193653}, "892355074RR0001": {"name": "LA FONDATION CARDIO-VASCULAIRE DE VALLEYFIELD ET DU SUROIT INC.", "designationCode": "C", "categoryCode": "11", "address": "C.P. 435", "city": "SALABERRY-DE-VALLEYFIELD", "province": "QC", "country": "CA", "postalCode": "J6S4V7", "twitter": "None", "instagram": "None", "facebook": "None", "youtube": "None", "website": "None", "summary": "None", "logo": "None", "latitude": 45.25893600000006, "longitude": -74.10716449999994}, "119000248RR0001": {"name": "LA FONDATION CARITAS-SHERBROOKE INC.", "designationCode": "A", "categoryCode": "03", "address": "110, OZIAS-LEDUC", "city": "SHERBROOKE", "province": "QC", "country": "CA", "postalCode": "J1H1M7", "twitter": "None", "instagram": "None", "facebook": "None", "youtube": "None", "website": "None", "summary": "None", "logo": "None", "latitude": 45.40291963780367, "longitude": -71.89225612877264}, "119000255RR0001": {"name": "LA FONDATION CENTENNALE-THE CENTENNIAL FOUNDATION", "designationCode": "A", "categoryCode": "23", "address": "3744 PRUD'HOMME", "city": "MONTREAL", "province": "QC", "country": "CA", "postalCode": "H4A3H4", "twitter": "None", "instagram": "None", "facebook": "None", "youtube": "None", "website": "None", "summary": "None", "logo": "None", "latitude": 45.4753987241042, "longitude": -73.61362241439195}, "119000263RR0001": {"name": "LA FONDATION CENTRE DE RESSOURCEMENT INC.", "designationCode": "A", "categoryCode": "03", "address": "775 RUE COLLEGE", "city": "BATHURST", "province": "NB", "country": "CA", "postalCode": "E2A4B9", "twitter": "None", "instagram": "None", "facebook": "None", "youtube": "None", "website": "None", "summary": "None", "logo": "None", "latitude": 47.62278897696435, "longitude": -65.67533495549644}, "883779365RR0001": {"name": "LA FONDATION CHEVRA THILIM PINSKER KINYAN TORAH/THE CHEVRA THILIM PINSKER KINYANTORAH FOUNDATION", "designationCode": "B", "categoryCode": "43", "address": "6061 WILDERTON AVENUE", "city": "MONTREAL", "province": "QC", "country": "CA", "postalCode": "H3S2K8", "twitter": "None", "instagram": "None", "facebook": "None", "youtube": "None", "website": "None", "summary": "None", "logo": "None", "latitude": 45.50949518486341, "longitude": -73.62317944780438}, "893486027RR0001": {"name": "LA FONDATION CHEZ CORA DEJEUNERS/CORA'S RESTAURANT FOUNDATION", "designationCode": "A", "categoryCode": "03", "address": "16, RUE SICARD                LOCAL 50", "city": "STE-TH\u00c9R\u00c8SE", "province": "QC", "country": "CA", "postalCode": "J7E3W7", "twitter": "None", "instagram": "None", "facebook": "None", "youtube": "None", "website": "None", "summary": "None", "logo": "None", "latitude": 45.63698455975571, "longitude": -73.85023797232905}, "793396888RR0001": {"name": "LA FONDATION CHOQUETTE/LEGAULT", "designationCode": "B", "categoryCode": "03", "address": "2600 - 160 ELGIN ST", "city": "OTTAWA", "province": "ON", "country": "CA", "postalCode": "K2P3C3", "twitter": "None", "instagram": "None", "facebook": "None", "youtube": "None", "website": "None", "summary": "None", "logo": "None", "latitude": 45.41721007516714, "longitude": -75.68981744564597}, "898295704RR0001": {"name": "LA FONDATION COCCINELLE POUR LES ENFANTS HANDICAP\u00c9S", "designationCode": "C", "categoryCode": "01", "address": "A-6630 AVE PAPINEAU", "city": "MONTREAL", "province": "QC", "country": "CA", "postalCode": "H2G2X2", "twitter": "None", "instagram": "None", "facebook": "None", "youtube": "None", "website": "None", "summary": "None", "logo": "None", "latitude": 45.544162873420404, "longitude": -73.59883316154988}, "866220098RR0001": {"name": "LA FONDATION COLL\u00c8GE BOURGET", "designationCode": "A", "categoryCode": "03", "address": "65 RUE ST-PIERRE", "city": "RIGAUD", "province": "QC", "country": "CA", "postalCode": "J0P1P0", "twitter": "None", "instagram": "None", "facebook": "None", "youtube": "None", "website": "None", "summary": "None", "logo": "None", "latitude": 45.474647696615065, "longitude": -74.30791654097611}, "107391542RR0001": {"name": "LA FONDATION COMMUNAUTAIRE CANADIENNE-ITALIENNE DU QUEBEC INC./CANADIAN-ITALIAN COMMUNITY FOUNDATION OF QUEBEC INC.", "designationCode": "A", "categoryCode": "23", "address": "8370, BOULEVARD LACORDAIRE", "city": "ST-LEONARD", "province": "QC", "country": "CA", "postalCode": "H1R3Y6", "twitter": "None", "instagram": "None", "facebook": "None", "youtube": "None", "website": "None", "summary": "None", "logo": "None", "latitude": 45.58593308825408, "longitude": -73.59577164997947}, "856111083RR0001": {"name": "LA FONDATION COMMUNAUTAIRE D'ARTHABASKA", "designationCode": "A", "categoryCode": "03", "address": "59, RUE MONFETTE LOCAL 130", "city": "VICTORIAVILLE", "province": "QC", "country": "CA", "postalCode": "G6P1J8", "twitter": "None", "instagram": "None", "facebook": "None", "youtube": "None", "website": "None", "summary": "None", "logo": "None", "latitude": 46.06164779188039, "longitude": -71.9668892342031}, "861419083RR0001": {"name": "LA FONDATION COMMUNAUTAIRE DE L'ESTRIE", "designationCode": "A", "categoryCode": "03", "address": "1150, RUE BELVEDERE SUD", "city": "SHERBROOKE", "province": "QC", "country": "CA", "postalCode": "J1H4C7", "twitter": "None", "instagram": "None", "facebook": "None", "youtube": "None", "website": "None", "summary": "None", "logo": "None"}, "118988310RR0001": {"name": "LA FONDATION COMMUNAUTAIRE DE LACHINE/THE LACHINE COMMUNITY FOUNDATION", "designationCode": "A", "categoryCode": "13", "address": "920 RUE PROVOST", "city": "LACHINE", "province": "QC", "country": "CA", "postalCode": "H8S1M9", "twitter": "None", "instagram": "None", "facebook": "None", "youtube": "None", "website": "None", "summary": "None", "logo": "None", "latitude": 45.4420044676841, "longitude": -73.6722135}, "119000297RR0001": {"name": "LA FONDATION CULTURELLE ACADIENNE INC.", "designationCode": "A", "categoryCode": "21", "address": "C.P. 5756", "city": "CARAQUET", "province": "NB", "country": "CA", "postalCode": "E1W1B7", "twitter": "None", "instagram": "None", "facebook": "None", "youtube": "None", "website": "None", "summary": "None", "logo": "None", "latitude": 47.791365000000056, "longitude": -64.95053299999994}, "881988380RR0001": {"name": "LA FONDATION CURE / THE CURE FOUNDATION", "designationCode": "B", "categoryCode": "13", "address": "130-1320 BOULEVARD GRAHAM", "city": "MONT-ROYAL", "province": "QC", "country": "CA", "postalCode": "H3P3C8", "twitter": "None", "instagram": "None", "facebook": "None", "youtube": "None", "website": "None", "summary": "None", "logo": "None", "latitude": 45.516959038548315, "longitude": -73.64043417150454}, "892507369RR0001": {"name": "LA FONDATION CURTLANDS/THE CURTLANDS FOUNDATION", "designationCode": "C", "categoryCode": "21", "address": "4262A DE MAISONNEUVE OUEST", "city": "WESTMOUNT", "province": "QC", "country": "CA", "postalCode": "H3Z1K6", "twitter": "None", "instagram": "None", "facebook": "None", "youtube": "None", "website": "None", "summary": "None", "logo": "None", "latitude": 45.48590403430335, "longitude": -73.5904879533379}, "867360398RR0001": {"name": "LA FONDATION D.E./D.E. FOUNDATION", "designationCode": "B", "categoryCode": "03", "address": "CSP OUTREMONT BOX 48526", "city": "OUTREMONT", "province": "QC", "country": "CA", "postalCode": "H2V4T3", "twitter": "None", "instagram": "None", "facebook": "None", "youtube": "None", "website": "None", "summary": "None", "logo": "None", "latitude": 45.519251820648535, "longitude": -73.60957834085447}, "888501848RR0001": {"name": "LA FONDATION D'AIDE \u00c0 LA PR\u00c9PARATION AU MARIAGE F.A.P.A.M.", "designationCode": "A", "categoryCode": "43", "address": "1419 AMHERST", "city": "MONTR\u00c9AL", "province": "QC", "country": "CA", "postalCode": "H2L3L2", "twitter": "None", "instagram": "None", "facebook": "None", "youtube": "None", "website": "None", "summary": "None", "logo": "None", "latitude": 45.51770214821969, "longitude": -73.55749929127481}, "892637240RR0001": {"name": "LA FONDATION D'AIDE AU PERSONNES AGEES DE COWANVILLE INC", "designationCode": "C", "categoryCode": "56", "address": "154 RUE PRINCIPALE", "city": "COWANSVILLE", "province": "QC", "country": "CA", "postalCode": "J2K1J2", "twitter": "None", "instagram": "None", "facebook": "None", "youtube": "None", "website": "None", "summary": "None", "logo": "None", "latitude": 45.207724568959634, "longitude": -72.74653738037397}, "119000347RR0001": {"name": "LA FONDATION DE BIENFAISANCE T.A. SAINT-GERMAIN", "designationCode": "B", "categoryCode": "03", "address": "408 - 1 RUE DE CASTELNAU E", "city": "MONTREAL", "province": "QC", "country": "CA", "postalCode": "H2R1P1", "twitter": "None", "instagram": "None", "facebook": "None", "youtube": "None", "website": "None", "summary": "None", "logo": "None"}, "139094270RR0001": {"name": "LA FONDATION DE FOLKLORE GERMAIN LEMIEUX", "designationCode": "A", "categoryCode": "23", "address": "935 CHEMIN DU LAC RAMSEY", "city": "SUDBURY", "province": "ON", "country": "CA", "postalCode": "P3E2C6", "twitter": "None", "instagram": "None", "facebook": "None", "youtube": "None", "website": "None", "summary": "None", "logo": "None", "latitude": 46.47085800000005, "longitude": -80.97237349999993}, "873993042RR0001": {"name": "LA FONDATION DE L'\u00c9COLE LE RUCHER de mascouche", "designationCode": "C", "categoryCode": "21", "address": "855 RUE DES ERABLES", "city": "MASCOUCHE", "province": "QC", "country": "CA", "postalCode": "J7L3H2", "twitter": "None", "instagram": "None", "facebook": "None", "youtube": "None", "website": "None", "summary": "None", "logo": "None", "latitude": 45.747247030295746, "longitude": -73.65104730258486}, "860137207RR0001": {"name": "LA FONDATION DE L'\u00c9COLE MASSON", "designationCode": "C", "categoryCode": "23", "address": "30 RUE DU COLLEGE             C.P. 480", "city": "DANVILLE", "province": "QC", "country": "CA", "postalCode": "J0A1A0", "twitter": "None", "instagram": "None", "facebook": "None", "youtube": "None", "website": "None", "summary": "None", "logo": "None", "latitude": 45.787894248975604, "longitude": -72.01894365396114}, "873160642RR0001": {"name": "LA FONDATION DE L'\u00c9COLE PAUL-HUBERT de rimouski inc.", "designationCode": "C", "categoryCode": "21", "address": "250 BOUL ARTHUR BUIES OUEST", "city": "RIMOUSKI", "province": "QC", "country": "CA", "postalCode": "G5L7A7", "twitter": "None", "instagram": "None", "facebook": "None", "youtube": "None", "website": "None", "summary": "None", "logo": "None", "latitude": 48.43577652802528, "longitude": -68.51708728614526}, "141614750RR0001": {"name": "LA FONDATION DE L'\u00c9COLE SAINT-GERMAIN D'OUTREMONT", "designationCode": "C", "categoryCode": "21", "address": "46 AV VINCENT-D'INDY", "city": "OUTREMONT", "province": "QC", "country": "CA", "postalCode": "H2V2S9", "twitter": "None", "instagram": "None", "facebook": "None", "youtube": "None", "website": "None", "summary": "None", "logo": "None", "latitude": 45.51088205386906, "longitude": -73.61358849206549}, "119000370RR0001": {"name": "LA FONDATION DE L'ACADEMIE HEBRAIQUE INC.", "designationCode": "B", "categoryCode": "23", "address": "5700 AV KELLERT", "city": "COTE-SAINT-LUC", "province": "QC", "country": "CA", "postalCode": "H4W1T4", "twitter": "None", "instagram": "None", "facebook": "None", "youtube": "None", "website": "None", "summary": "None", "logo": "None", "latitude": 45.472863417681516, "longitude": -73.66141036568744}, "122524838RR0001": {"name": "LA FONDATION DE L'ASSOCIATION CANADIENNE-FRANCAISE DE L'ALBERTA", "designationCode": "A", "categoryCode": "23", "address": "CP 68040                      CSP BONNIE DOON SHO", "city": "EDMONTON", "province": "AB", "country": "CA", "postalCode": "T6C4N6", "twitter": "None", "instagram": "None", "facebook": "None", "youtube": "None", "website": "None", "summary": "None", "logo": "None", "latitude": 53.52532000000008, "longitude": -113.46759999999995}, "873787873RR0001": {"name": "LA FONDATION DE L'ASSOCIATION JAMAIQUAINE DE MONTREAL / THE JAMAICA ASSOCIATION OF MONTREAL FOUNDATION", "designationCode": "C", "categoryCode": "09", "address": "4065 RUE JEAN-TALON OUEST", "city": "MONTREAL", "province": "QC", "country": "CA", "postalCode": "H4P1W6", "twitter": "None", "instagram": "None", "facebook": "None", "youtube": "None", "website": "None", "summary": "None", "logo": "None", "latitude": 45.5014068989843, "longitude": -73.64575525800662}, "102933900RR0001": {"name": "LA FONDATION DE L'ECOLE BETH JACOB", "designationCode": "A", "categoryCode": "23", "address": "1750 GLENDALE AVE", "city": "OUTREMONT", "province": "QC", "country": "CA", "postalCode": "H2V1B3", "twitter": "None", "instagram": "None", "facebook": "None", "youtube": "None", "website": "None", "summary": "None", "logo": "None", "latitude": 45.51746852732425, "longitude": -73.62399950204882}, "890985245RR0001": {"name": "LA FONDATION DE L'ECOLE BUISSONNIERE INC.", "designationCode": "A", "categoryCode": "21", "address": "215 AVENUE DE L'EPEE", "city": "OUTREMONT", "province": "QC", "country": "CA", "postalCode": "H2V3T3", "twitter": "None", "instagram": "None", "facebook": "None", "youtube": "None", "website": "None", "summary": "None", "logo": "None", "latitude": 45.51782922814357, "longitude": -73.60006890354326}, "102933918RR0001": {"name": "LA FONDATION DE L'ECOLE DE FORMATION HEBRAIQUE", "designationCode": "A", "categoryCode": "23", "address": "2 HOPE DRIVE", "city": "DOLLARD DES ORMEAUX", "province": "QC", "country": "CA", "postalCode": "H9A2V5", "twitter": "None", "instagram": "None", "facebook": "None", "youtube": "None", "website": "None", "summary": "None", "logo": "None", "latitude": 45.491995928386004, "longitude": -73.82076050706912}, "867466310RR0001": {"name": "LA FONDATION DE L'ECOLE DES URSULINES DE QUEBEC", "designationCode": "A", "categoryCode": "23", "address": "4 RUE DU PARLOIR", "city": "QUEBEC", "province": "QC", "country": "CA", "postalCode": "G1R4M5", "twitter": "None", "instagram": "None", "facebook": "None", "youtube": "None", "website": "None", "summary": "None", "logo": "None", "latitude": 46.81174532500436, "longitude": -71.20812619331751}, "898067640RR0001": {"name": "LA FONDATION DE L'ECOLE ESTHER-BLONDIN", "designationCode": "A", "categoryCode": "23", "address": "905 RUE VAILLANT", "city": "TERREBONNE", "province": "QC", "country": "CA", "postalCode": "J6X1N1", "twitter": "None", "instagram": "None", "facebook": "None", "youtube": "None", "website": "None", "summary": "None", "logo": "None", "latitude": 45.70519661749126, "longitude": -73.658493981447}, "868252891RR0001": {"name": "LA FONDATION DE L'ECOLE LE TOURET", "designationCode": "C", "categoryCode": "21", "address": "4076 BOUL DE L'UNIVERSITE", "city": "SHERBROOKE", "province": "QC", "country": "CA", "postalCode": "J1N2Y1", "twitter": "None", "instagram": "None", "facebook": "None", "youtube": "None", "website": "None", "summary": "None", "logo": "None", "latitude": 45.36290712316248, "longitude": -71.96358501368472}, "890995996RR0001": {"name": "LA FONDATION DE L'ECOLE LOUIS-HIPPOLYTE-LAFONTAINE", "designationCode": "C", "categoryCode": "21", "address": "4245 RUE BERRI", "city": "MONTREAL", "province": "QC", "country": "CA", "postalCode": "H2J2P9", "twitter": "None", "instagram": "None", "facebook": "None", "youtube": "None", "website": "None", "summary": "None", "logo": "None", "latitude": 45.5232153341796, "longitude": -73.57804907839467}, "890794746RR0001": {"name": "LA FONDATION DE L'ECOLE NOTRE-DAME-DE-GR\u00c2CE", "designationCode": "C", "categoryCode": "21", "address": "5435 AVE NOTRE DAME DE GRACE", "city": "MONTREAL", "province": "QC", "country": "CA", "postalCode": "H4A1L2", "twitter": "None", "instagram": "None", "facebook": "None", "youtube": "None", "website": "None", "summary": "None", "logo": "None", "latitude": 45.4754893600033, "longitude": -73.61697761899086}, "868612540RR0001": {"name": "LA FONDATION DE L'ECOLE PAUL-BRUCHESI DE MONTREAL", "designationCode": "C", "categoryCode": "21", "address": "1310 BOUL ST-JOSEPH EST", "city": "MONTREAL", "province": "QC", "country": "CA", "postalCode": "H2J1M2", "twitter": "None", "instagram": "None", "facebook": "None", "youtube": "None", "website": "None", "summary": "None", "logo": "None", "latitude": 45.53216645850883, "longitude": -73.58226772797069}, "892610312RR0001": {"name": "LA FONDATION DE L'ECOLE PETER HALL", "designationCode": "A", "categoryCode": "03", "address": "840 BOUL. DE LA COTE-VERTU", "city": "SAINT-LAURENT", "province": "QC", "country": "CA", "postalCode": "H4L1Y4", "twitter": "None", "instagram": "None", "facebook": "None", "youtube": "None", "website": "None", "summary": "None", "logo": "None", "latitude": 45.51851977575158, "longitude": -73.67442802270794}, "872011135RR0001": {"name": "LA FONDATION DE L'ECOLE PIE X", "designationCode": "C", "categoryCode": "23", "address": "565 RUE TRIEST", "city": "SHERBROOKE", "province": "QC", "country": "CA", "postalCode": "J1E2M7", "twitter": "None", "instagram": "None", "facebook": "None", "youtube": "None", "website": "None", "summary": "None", "logo": "None", "latitude": 45.41592779156326, "longitude": -71.87951945478659}, "890979156RR0001": {"name": "LA FONDATION DE L'EGLISE ST-GEORGES INC /ST-GEORGE'S CHURCH FOUNDATION INC", "designationCode": "C", "categoryCode": "52", "address": "276 HERIOT ST", "city": "DRUMMONDVILLE", "province": "QC", "country": "CA", "postalCode": "J2C1K1", "twitter": "None", "instagram": "None", "facebook": "None", "youtube": "None", "website": "None", "summary": "None", "logo": "None", "latitude": 45.88447290397595, "longitude": -72.48758975269784}, "855326633RR0001": {"name": "LA FONDATION DE L'ENERGIE COLLECTIVE", "designationCode": "B", "categoryCode": "21", "address": "830, 90E RUE", "city": "ST-GEORGES", "province": "QC", "country": "CA", "postalCode": "G5Y3L3", "twitter": "None", "instagram": "None", "facebook": "None", "youtube": "None", "website": "None", "summary": "None", "logo": "None", "latitude": 46.13481524006015, "longitude": -70.68991333094829}, "892179169RR0001": {"name": "LA FONDATION DE L'HOPITAL DE LAMEQUE INC.", "designationCode": "A", "categoryCode": "13", "address": "1750 SUNSET DR", "city": "BATHURST", "province": "NB", "country": "CA", "postalCode": "E2A4L7", "twitter": "None", "instagram": "None", "facebook": "None", "youtube": "None", "website": "None", "summary": "None", "logo": "None", "latitude": 47.64597338544208, "longitude": -65.69401318915024}, "118921543RR0001": {"name": "LA FONDATION DE L'HOPITAL DE MONTREAL POUR ENFANTS/THE MONTREAL CHILDREN'S HOSPITAL FOUNDATION", "designationCode": "A", "categoryCode": "13", "address": "3400 BOUL DE MAISONNEUVE O", "city": "MONTREAL", "province": "QC", "country": "CA", "postalCode": "H3Z3B8", "twitter": "None", "instagram": "None", "facebook": "None", "youtube": "None", "website": "None", "summary": "None", "logo": "None", "latitude": 45.4900007973734, "longitude": -73.58584629044694}, "898164603RR0001": {"name": "LA FONDATION DE L'HOPITAL GLENGARRY MEMORIAL HOSPITAL FOUNDATION", "designationCode": "A", "categoryCode": "13", "address": "20260 COUNTY ROAD 43", "city": "ALEXANDRIA", "province": "ON", "country": "CA", "postalCode": "K0C1A0", "twitter": "None", "instagram": "None", "facebook": "None", "youtube": "None", "website": "None", "summary": "None", "logo": "None", "latitude": 45.30038103988232, "longitude": -74.65632403571706}, "140877101RR0001": {"name": "LA FONDATION DE L'HOPITAL REGIONAL D'EDMUNDSTON INC", "designationCode": "A", "categoryCode": "13", "address": "275 BOULEVARD HEBERT", "city": "EDMUNDSTON", "province": "NB", "country": "CA", "postalCode": "E3V4E4", "twitter": "None", "instagram": "None", "facebook": "None", "youtube": "None", "website": "None", "summary": "None", "logo": "None", "latitude": 47.37753500011439, "longitude": -68.31242765797693}, "119000974RR0001": {"name": "LA FONDATION DE L'H\u00d4PITAL G\u00c9N\u00c9RAL DE MONTR\u00c9AL - THE MONTREAL GENERAL HOSPITAL FOUNDATION", "designationCode": "A", "categoryCode": "13", "address": "1650 CEDAR AVE. ROOM E6-129", "city": "MONTREAL", "province": "QC", "country": "CA", "postalCode": "H3G1A4", "twitter": "None", "instagram": "None", "facebook": "None", "youtube": "None", "website": "None", "summary": "None", "logo": "None", "latitude": 45.497485682209586, "longitude": -73.58957935824893}, "133604348RR0001": {"name": "LA FONDATION DE L'INSTITUT MARITIME DU QUEBEC INC QUEBEC MARITIME INSTITUTE FOUNDATION INC", "designationCode": "A", "categoryCode": "23", "address": "53 RUE SAINT-GERMAIN OUEST", "city": "RIMOUSKI", "province": "QC", "country": "CA", "postalCode": "G5L4B4", "twitter": "None", "instagram": "None", "facebook": "None", "youtube": "None", "website": "None", "summary": "None", "logo": "None", "latitude": 48.450308850626485, "longitude": -68.5301373016335}, "119128924RR0001": {"name": "LA FONDATION DE L'INSTITUT THORACIQUE DE MONTR\u00c9AL - THE MONTR\u00c9AL CHEST INSTITUTE FOUNDATION", "designationCode": "A", "categoryCode": "13", "address": "5100 BOUL DE MAISONNEUVE O    UNITE 700", "city": "MONTREAL", "province": "QC", "country": "CA", "postalCode": "H4A3T2", "twitter": "None", "instagram": "None", "facebook": "None", "youtube": "None", "website": "None", "summary": "None", "logo": "None", "latitude": 45.475014595591375, "longitude": -73.60313088657772}, "892495748RR0001": {"name": "LA FONDATION DE L'ORDRE DES DENTISTES DU QU\u00c9BEC", "designationCode": "C", "categoryCode": "09", "address": "BUREAU 1640                   800, BLVD REN\u00c9-L\u00c9VEQUE OUEST", "city": "MONTR\u00c9AL", "province": "QC", "country": "CA", "postalCode": "H3B1X9", "twitter": "None", "instagram": "None", "facebook": "None", "youtube": "None", "website": "None", "summary": "None", "logo": "None", "latitude": 45.50118183845011, "longitude": -73.56792866440675}, "129002846RR0001": {"name": "LA FONDATION DE L'UNIVERSIT\u00c9 DU QU\u00c9BEC \u00c0 CHICOUTIMI INC.", "designationCode": "C", "categoryCode": "21", "address": "107-637 BOUL TALBOT", "city": "CHICOUTIMI", "province": "QC", "country": "CA", "postalCode": "G7H6A4", "twitter": "None", "instagram": "None", "facebook": "None", "youtube": "None", "website": "None", "summary": "None", "logo": "None", "latitude": 48.41925892143243, "longitude": -71.04392059261986}, "888188661RR0001": {"name": "LA FONDATION DE L'UNIVERSITE DE SHERBROOKE - THE FOUNDATION OF THE \"UNIVERSITE DE SHERBROOKE\"", "designationCode": "A", "categoryCode": "21", "address": "1950 RUE GALT OUEST", "city": "SHERBROOKE", "province": "QC", "country": "CA", "postalCode": "J1K1H8", "twitter": "None", "instagram": "None", "facebook": "None", "youtube": "None", "website": "None", "summary": "None", "logo": "None", "latitude": 45.38679819799507, "longitude": -71.92287161842565}, "889031167RR0001": {"name": "LA FONDATION DE LA COMMISSION SCOLAIRE DU HAUT ST-MAURICE", "designationCode": "C", "categoryCode": "21", "address": "600, RUE DESBIENS", "city": "LA TUQUE", "province": "QC", "country": "CA", "postalCode": "G9X2K1", "twitter": "None", "instagram": "None", "facebook": "None", "youtube": "None", "website": "None", "summary": "None", "logo": "None", "latitude": 47.436858167638064, "longitude": -72.77645188095183}, "118920719RR0001": {"name": "LA FONDATION DE LA CORPORATION DES CONCESSIONNAIRES D'AUTOMOBILES DE MONTREAL INC.", "designationCode": "A", "categoryCode": "03", "address": "2335 RUE GUENETTE", "city": "SAINT-LAURENT", "province": "QC", "country": "CA", "postalCode": "H4R2E9", "twitter": "None", "instagram": "None", "facebook": "None", "youtube": "None", "website": "None", "summary": "None", "logo": "None", "latitude": 45.4997042090423, "longitude": -73.72775624029127}, "890642341RR0001": {"name": "LA FONDATION DE LA FAMILLE DE LEONARD ALBERT/THE LEONARD ALBERT FAMILY FOUNDATION", "designationCode": "B", "categoryCode": "03", "address": "9D - 6150 AV DU BOISE", "city": "MONTREAL", "province": "QC", "country": "CA", "postalCode": "H3S2V2", "twitter": "None", "instagram": "None", "facebook": "None", "youtube": "None", "website": "None", "summary": "None", "logo": "None", "latitude": 45.510968026314615, "longitude": -73.62194839474243}, "120400775RR0001": {"name": "LA FONDATION DE LA FAMILLE J. RODOLPHE ROUSSEAU", "designationCode": "B", "categoryCode": "20", "address": "1191 RUE DE LA MONTAGNE", "city": "MONTREAL", "province": "QC", "country": "CA", "postalCode": "H3G1Z2", "twitter": "None", "instagram": "None", "facebook": "None", "youtube": "None", "website": "None", "summary": "None", "logo": "None", "latitude": 45.49723913379295, "longitude": -73.57357913806347}, "868912775RR0001": {"name": "LA FONDATION DE LA GUILDE DU PAIN D'\u00c9PICES", "designationCode": "C", "categoryCode": "21", "address": "2181 RTE LOUIS-CYR", "city": "SAINT-JEAN-DE-MATHA", "province": "QC", "country": "CA", "postalCode": "J0K2S0", "twitter": "None", "instagram": "None", "facebook": "None", "youtube": "None", "website": "None", "summary": "None", "logo": "None", "latitude": 46.26771690278666, "longitude": -73.54577175057918}, "892570938RR0001": {"name": "LA FONDATION DE LA LIBERATION DE LA PAUVRETE INC.", "designationCode": "C", "categoryCode": "09", "address": "1333 STRAVINSKI", "city": "BROSSARD", "province": "QC", "country": "CA", "postalCode": "J4X2C5", "twitter": "None", "instagram": "None", "facebook": "None", "youtube": "None", "website": "None", "summary": "None", "logo": "None", "latitude": 45.4459384432454, "longitude": -73.4909971675225}, "867982936RR0001": {"name": "LA FONDATION DE LA MAISON DE L'ENFANCE", "designationCode": "C", "categoryCode": "09", "address": "250 AV LACHARITE", "city": "LASALLE", "province": "QC", "country": "CA", "postalCode": "H8P2B8", "twitter": "None", "instagram": "None", "facebook": "None", "youtube": "None", "website": "None", "summary": "None", "logo": "None", "latitude": 45.4343856927406, "longitude": -73.59107667652486}, "134211507RR0001": {"name": "LA FONDATION DE LA MAISON DES JEUNES DE LONGUEUIL INC.", "designationCode": "C", "categoryCode": "56", "address": "540 RUE KING GEORGE", "city": "LONGUEUIL", "province": "QC", "country": "CA", "postalCode": "J4J2V7", "twitter": "None", "instagram": "None", "facebook": "None", "youtube": "None", "website": "None", "summary": "None", "logo": "None", "latitude": 45.533612483755626, "longitude": -73.47093114331493}, "837525948RR0001": {"name": "LA FONDATION DE LA MAISON DU P\u00c8RE", "designationCode": "A", "categoryCode": "43", "address": "550 BOUL RENE-LEVESQUE EST", "city": "MONTREAL", "province": "QC", "country": "CA", "postalCode": "H2L2L3", "twitter": "None", "instagram": "None", "facebook": "None", "youtube": "None", "website": "None", "summary": "None", "logo": "None", "latitude": 45.51410602772825, "longitude": -73.55681637962415}, "102933876RR0001": {"name": "LA FONDATION DE LA MAISON TRESTLER", "designationCode": "B", "categoryCode": "22", "address": "85 CH. DE LA COMMUNE", "city": "VAUDREUIL-DORION", "province": "QC", "country": "CA", "postalCode": "J7V2C3", "twitter": "None", "instagram": "None", "facebook": "None", "youtube": "None", "website": "None", "summary": "None", "logo": "None", "latitude": 45.388060930347905, "longitude": -74.0073618302558}, "889756177RR0001": {"name": "LA FONDATION DE LA MISSION ST-CHARLES INC", "designationCode": "A", "categoryCode": "23", "address": "24 RUE DE L'ETANG", "city": "LAMEQUE", "province": "NB", "country": "CA", "postalCode": "E8T1C1", "twitter": "None", "instagram": "None", "facebook": "None", "youtube": "None", "website": "None", "summary": "None", "logo": "None", "latitude": 47.808217384661184, "longitude": -64.63399401345467}, "140785908RR0001": {"name": "LA FONDATION DE LA POLYVALENTE NICOLAS-GATINEAU", "designationCode": "C", "categoryCode": "21", "address": "360 BOUL DE LA VERENDRYE E", "city": "GATINEAU", "province": "QC", "country": "CA", "postalCode": "J8P6K7", "twitter": "None", "instagram": "None", "facebook": "None", "youtube": "None", "website": "None", "summary": "None", "logo": "None", "latitude": 45.50062563020148, "longitude": -75.643276216505}, "862444908RR0001": {"name": "LA FONDATION DE LA RESIDENCE DE SOINS PALLIATIFS DE L'OUEST DE L'ILE INC/WEST ISLAND PALLIATIVE CARE RESIDENCE FOUNDATION INC", "designationCode": "A", "categoryCode": "03", "address": "265 RUE ANDRE BRUNET", "city": "KIRKLAND", "province": "QC", "country": "CA", "postalCode": "H9H3R4", "twitter": "None", "instagram": "None", "facebook": "None", "youtube": "None", "website": "None", "summary": "None", "logo": "None", "latitude": 45.448347928674444, "longitude": -73.8364439364074}, "859315509RR0001": {"name": "LA FONDATION DE LA SOCI\u00c9T\u00c9 D'HISTOIRE DE SHERBROOKE", "designationCode": "A", "categoryCode": "53", "address": "275, RUE DUFFERIN", "city": "SHERBROOKE", "province": "QC", "country": "CA", "postalCode": "J1H4M5", "twitter": "None", "instagram": "None", "facebook": "None", "youtube": "None", "website": "None", "summary": "None", "logo": "None", "latitude": 45.405574397714865, "longitude": -71.89470282197458}, "118921386RR0001": {"name": "LA FONDATION DE LA SOCIETE VIE INTEGRATION APPRENTISSAGE POUR HANDICAPES V.I.A. INC.", "designationCode": "A", "categoryCode": "59", "address": "1200, RUE DES RIVEURS", "city": "L\u00c9VIS", "province": "QC", "country": "CA", "postalCode": "G6V9G2", "twitter": "None", "instagram": "None", "facebook": "None", "youtube": "None", "website": "None", "summary": "None", "logo": "None", "latitude": 46.818349313347575, "longitude": -71.12346236135961}, "891996704RR0001": {"name": "LA FONDATION DE LA TABLEE POPULAIRE", "designationCode": "A", "categoryCode": "03", "address": "132, RUE LOWRING", "city": "DRUMMONDVILLE", "province": "QC", "country": "CA", "postalCode": "J2C4K1", "twitter": "None", "instagram": "None", "facebook": "None", "youtube": "None", "website": "None", "summary": "None", "logo": "None", "latitude": 45.885973359137914, "longitude": -72.49223025907449}, "119001576RR0001": {"name": "LA FONDATION DE MA VIE", "designationCode": "A", "categoryCode": "11", "address": "305, RUE ST-VALIER", "city": "CHICOUTIMI", "province": "QC", "country": "CA", "postalCode": "G7H5H6", "twitter": "None", "instagram": "None", "facebook": "None", "youtube": "None", "website": "None", "summary": "None", "logo": "None", "latitude": 48.426379384607515, "longitude": -71.0502546240482}, "868812561RR0001": {"name": "LA FONDATION DE PHYSIOTHERAPIE KIM/KIM PHYSIOTHERAPY FOUNDATION", "designationCode": "C", "categoryCode": "11", "address": "906-955 REN\u00c9 LEVESQUE EST", "city": "MONTR\u00c9AL", "province": "QC", "country": "CA", "postalCode": "H2L4R2", "twitter": "None", "instagram": "None", "facebook": "None", "youtube": "None", "website": "None", "summary": "None", "logo": "None"}, "141110973RR0001": {"name": "LA FONDATION DENIS-CHARTIER INC", "designationCode": "C", "categoryCode": "09", "address": "16650 AV BOURDAGES S", "city": "SAINT-HYACINTHE", "province": "QC", "country": "CA", "postalCode": "J2T4J9", "twitter": "None", "instagram": "None", "facebook": "None", "youtube": "None", "website": "None", "summary": "None", "logo": "None", "latitude": 45.61532827924268, "longitude": -72.9415831313697}, "101835486RR0001": {"name": "LA FONDATION DENISE ET GUY ST-GERMAIN", "designationCode": "B", "categoryCode": "53", "address": "48 AVENUE ROBERT", "city": "OUTREMONT", "province": "QC", "country": "CA", "postalCode": "H3S2P2", "twitter": "None", "instagram": "None", "facebook": "None", "youtube": "None", "website": "None", "summary": "None", "logo": "None", "latitude": 45.51129184456697, "longitude": -73.61860240619765}, "141401018RR0001": {"name": "LA FONDATION DEROUIN", "designationCode": "C", "categoryCode": "22", "address": "2485, RUE DE L'\u00c9GLISE", "city": "VAL-DAVID", "province": "QC", "country": "CA", "postalCode": "J0T2N0", "twitter": "None", "instagram": "None", "facebook": "None", "youtube": "None", "website": "None", "summary": "None", "logo": "None", "latitude": 46.02977110381434, "longitude": -74.20747005303234}, "891528945RR0001": {"name": "LA FONDATION DES \u00c9COLES JUIVES POPULAIRES ET DES \u00c9COLES PERETZ", "designationCode": "B", "categoryCode": "23", "address": "5170 VAN HORNE AVENUE", "city": "MONTREAL", "province": "QC", "country": "CA", "postalCode": "H3W1J6", "twitter": "None", "instagram": "None", "facebook": "None", "youtube": "None", "website": "None", "summary": "None", "logo": "None", "latitude": 45.49105254258769, "longitude": -73.64085321146649}, "861397669RR0001": {"name": "LA FONDATION DES A\u00ceN\u00c9(E)S DE JONQUI\u00c8RE INC.", "designationCode": "A", "categoryCode": "03", "address": "3245, RUE DES PENSEES", "city": "JONQUIERE", "province": "QC", "country": "CA", "postalCode": "G7S5T6", "twitter": "None", "instagram": "None", "facebook": "None", "youtube": "None", "website": "None", "summary": "None", "logo": "None", "latitude": 48.42113106797867, "longitude": -71.20968194151465}, "140816554RR0001": {"name": "LA FONDATION DES AMIS DE CHAVIGNY INC.", "designationCode": "C", "categoryCode": "21", "address": "365 RUE DE CHAVIGNY", "city": "TROIS-RIVIERES-OUEST", "province": "QC", "country": "CA", "postalCode": "G9B1A7", "twitter": "None", "instagram": "None", "facebook": "None", "youtube": "None", "website": "None", "summary": "None", "logo": "None", "latitude": 46.312844869856384, "longitude": -72.58215204079708}, "873273536RR0001": {"name": "LA FONDATION DES AMIS DE L'EAU VIVE", "designationCode": "C", "categoryCode": "21", "address": "4690 AVENUE CHAUVEAU", "city": "NEUFCHATEL", "province": "QC", "country": "CA", "postalCode": "G2C1A7", "twitter": "None", "instagram": "None", "facebook": "None", "youtube": "None", "website": "None", "summary": "None", "logo": "None", "latitude": 46.825756822695745, "longitude": -71.35917966299219}, "102933959RR0001": {"name": "LA FONDATION DES AMIS DE NOTRE-DAME DE SION", "designationCode": "A", "categoryCode": "46", "address": "1775 DECARIE BOULEVARD", "city": "ST.LAURENT", "province": "QC", "country": "CA", "postalCode": "H4L3N5", "twitter": "None", "instagram": "None", "facebook": "None", "youtube": "None", "website": "None", "summary": "None", "logo": "None", "latitude": 45.52084186929413, "longitude": -73.69291675004345}}