{"843943309RR0001": {"name": "Access for Everyone Ltd.", "designationCode": "B", "categoryCode": "09", "address": "1235 18A ST NW", "city": "CALGARY", "province": "AB", "country": "CA", "postalCode": "T2N2H5", "twitter": "None", "instagram": "None", "facebook": "None", "youtube": "None", "website": "None", "summary": "None", "logo": "None", "latitude": 51.06308726894224, "longitude": -114.10493440772686}, "894144591RR0001": {"name": "Access County Community Support Services", "designationCode": "C", "categoryCode": "09", "address": "23 MILL ST W", "city": "KINGSVILLE", "province": "ON", "country": "CA", "postalCode": "N9Y1W1", "twitter": "None", "instagram": "None", "facebook": "None", "youtube": "None", "website": "None", "summary": "None", "logo": "None", "latitude": 42.035999925446646, "longitude": -82.7399112021814}, "830373015RR0001": {"name": "Access Education - Guatemala Children's Fund", "designationCode": "C", "categoryCode": "21", "address": "59 PALMERSTON GARDENS", "city": "TORONTO", "province": "ON", "country": "CA", "postalCode": "M6G1V8", "twitter": "None", "instagram": "None", "facebook": "None", "youtube": "None", "website": "None", "summary": "None", "logo": "None", "latitude": 43.66993681320337, "longitude": -79.41792772370016}, "118776822RR0001": {"name": "Access Independent Living Services", "designationCode": "C", "categoryCode": "01", "address": "50 ASHWARREN ROAD", "city": "TORONTO", "province": "ON", "country": "CA", "postalCode": "M3J1Z5", "twitter": "None", "instagram": "None", "facebook": "None", "youtube": "None", "website": "None", "summary": "None", "logo": "None", "latitude": 43.757792408551204, "longitude": -79.48287255150801}, "821234259RR0001": {"name": "Access Pro Bono Society of British Columbia", "designationCode": "C", "categoryCode": "59", "address": "300-845 CAMBIE ST", "city": "VANCOUVER", "province": "BC", "country": "CA", "postalCode": "V6B4Z9", "twitter": "None", "instagram": "None", "facebook": "None", "youtube": "None", "website": "None", "summary": "None", "logo": "None", "latitude": 49.27764304414554, "longitude": -123.11581930394118}, "835534066RR0001": {"name": "Access St. James Inc.", "designationCode": "A", "categoryCode": "13", "address": "2200-201 PORTAGE AVENUE", "city": "WINNIPEG", "province": "MB", "country": "CA", "postalCode": "R3B3L3", "twitter": "None", "instagram": "None", "facebook": "None", "youtube": "None", "website": "None", "summary": "None", "logo": "None", "latitude": 49.895359615067065, "longitude": -97.13919299627776}, "892923764RR0001": {"name": "Access Youth Outreach Services Society", "designationCode": "C", "categoryCode": "59", "address": "PO BOX 715 STN MAIN", "city": "PORT COQUITLAM", "province": "BC", "country": "CA", "postalCode": "V3B6H9", "twitter": "None", "instagram": "None", "facebook": "None", "youtube": "None", "website": "None", "summary": "None", "logo": "None", "latitude": 49.27258500000005, "longitude": -122.75999449999993}, "824927818RR0001": {"name": "Accompagnement b\u00e9n\u00e9vole de l'ouest (ABO)", "designationCode": "C", "categoryCode": "09", "address": "5500 AUTOROUTE TRANSCANADIENNE", "city": "POINTE CLAIRE", "province": "QC", "country": "CA", "postalCode": "H9R1B6", "twitter": "None", "instagram": "None", "facebook": "None", "youtube": "None", "website": "None", "summary": "None", "logo": "None", "latitude": 45.4688277987127, "longitude": -73.81517487864079}, "826195372RR0001": {"name": "Accompagnement en gestion des communaut\u00e9s religieuses", "designationCode": "C", "categoryCode": "49", "address": "5655, RUE DE SALABERRY", "city": "MONTREAL", "province": "QC", "country": "CA", "postalCode": "H4J1J5", "twitter": "None", "instagram": "None", "facebook": "None", "youtube": "None", "website": "None", "summary": "None", "logo": "None", "latitude": 45.528873699753234, "longitude": -73.71145253699511}, "125594697RR0001": {"name": "Accreditation Canada / Agr\u00e9ment Canada", "designationCode": "C", "categoryCode": "19", "address": "1150 CYRVILLE ROAD", "city": "OTTAWA", "province": "ON", "country": "CA", "postalCode": "K1J7S9", "twitter": "None", "instagram": "None", "facebook": "None", "youtube": "None", "website": "None", "summary": "None", "logo": "None", "latitude": 45.423724779877844, "longitude": -75.63164561255691}, "834190027RR0001": {"name": "Accueil communautaire jeunesse le labyrinthe", "designationCode": "C", "categoryCode": "09", "address": "1215 RUE DU BOURG-JOLI", "city": "SAINTE-ADELE", "province": "QC", "country": "CA", "postalCode": "J8B1W8", "twitter": "None", "instagram": "None", "facebook": "None", "youtube": "None", "website": "None", "summary": "None", "logo": "None", "latitude": 45.956062581193294, "longitude": -74.13247414596931}, "802587592RR0001": {"name": "Accueil Kateri Centre Inc.", "designationCode": "C", "categoryCode": "09", "address": "132 CENTRALE AVE", "city": "STE ANNE", "province": "MB", "country": "CA", "postalCode": "R5H1C3", "twitter": "None", "instagram": "None", "facebook": "None", "youtube": "None", "website": "None", "summary": "None", "logo": "None", "latitude": 49.669734297439234, "longitude": -96.64792180278481}, "131921850RR0001": {"name": "Accueil-Parrainage Outaouais", "designationCode": "C", "categoryCode": "09", "address": "124, RUE JEANNE-D'ARC", "city": "GATINEAU", "province": "QC", "country": "CA", "postalCode": "J8Y2H7", "twitter": "None", "instagram": "None", "facebook": "None", "youtube": "None", "website": "None", "summary": "None", "logo": "None", "latitude": 45.439463482110824, "longitude": -75.73903127699232}, "842257248RR0001": {"name": "Achievers Faith International Ministries", "designationCode": "C", "categoryCode": "39", "address": "207105 HIGHWAY 9", "city": "ORANGEVILLE", "province": "ON", "country": "CA", "postalCode": "L9W1Y4", "twitter": "None", "instagram": "None", "facebook": "None", "youtube": "None", "website": "None", "summary": "None", "logo": "None", "latitude": 43.92610921840703, "longitude": -80.0664862381739}, "128698131RR0001": {"name": "Acouph\u00e8nes Qu\u00e9bec", "designationCode": "C", "categoryCode": "09", "address": "6818 ST-DENIS #3", "city": "MONTREAL", "province": "QC", "country": "CA", "postalCode": "H2S2S2", "twitter": "None", "instagram": "None", "facebook": "None", "youtube": "None", "website": "None", "summary": "None", "logo": "None", "latitude": 45.53638183345846, "longitude": -73.61034339177093}, "889507042RR0001": {"name": "Act to End Violence Against Women", "designationCode": "A", "categoryCode": "63", "address": "209-390 STEELES AVE WEST", "city": "THORNHILL", "province": "ON", "country": "CA", "postalCode": "L4J6X2", "twitter": "None", "instagram": "None", "facebook": "None", "youtube": "None", "website": "None", "summary": "None", "logo": "None", "latitude": 43.7979825, "longitude": -79.420275}, "819333626RR0001": {"name": "Act with Africa Society of Canada", "designationCode": "C", "categoryCode": "09", "address": "1195 59TH AVE W", "city": "VANCOUVER", "province": "BC", "country": "CA", "postalCode": "V6P1Y1", "twitter": "None", "instagram": "None", "facebook": "None", "youtube": "None", "website": "None", "summary": "None", "logo": "None", "latitude": 49.2172194532574, "longitude": -123.13187041326677}, "840679575RR0001": {"name": "Act West Community Foundation", "designationCode": "B", "categoryCode": "23", "address": "210 - 13900 MAYCREST WAY", "city": "RICHMOND", "province": "BC", "country": "CA", "postalCode": "V6V3E2", "twitter": "None", "instagram": "None", "facebook": "None", "youtube": "None", "website": "None", "summary": "None", "logo": "None", "latitude": 49.17951849120013, "longitude": -123.07085108381904}, "815181979RR0001": {"name": "Actes de vie / Acts of Life", "designationCode": "C", "categoryCode": "47", "address": "56 RANG DOUBLE", "city": "SAINT-CHARLES-BORROMEE", "province": "QC", "country": "CA", "postalCode": "J6E7Y8", "twitter": "None", "instagram": "None", "facebook": "None", "youtube": "None", "website": "None", "summary": "None", "logo": "None", "latitude": 46.06215085371357, "longitude": -73.4915973950605}, "899915268RR0001": {"name": "Action cancer du sein du Qu\u00e9bec - Breast Cancer Action Qu\u00e9bec", "designationCode": "C", "categoryCode": "21", "address": "461, RUE JEAN-TALON OUEST     BUREAU 430", "city": "MONTREAL", "province": "QC", "country": "CA", "postalCode": "H3N1R4", "twitter": "None", "instagram": "None", "facebook": "None", "youtube": "None", "website": "None", "summary": "None", "logo": "None", "latitude": 45.528920968088144, "longitude": -73.6231543826243}, "805823515RR0001": {"name": "Action communautaire pour l'\u00e9ducation, la sant\u00e9 et le d\u00e9veloppement int\u00e9gr\u00e9 en milieu rural", "designationCode": "B", "categoryCode": "09", "address": "410-3350 RUE REN\u00c9-VIGNERON", "city": "QU\u00c9BEC", "province": "QC", "country": "CA", "postalCode": "G1C7K6", "twitter": "None", "instagram": "None", "facebook": "None", "youtube": "None", "website": "None", "summary": "None", "logo": "None", "latitude": 46.86207247654225, "longitude": -71.22185192769349}, "118777267RR0001": {"name": "Action des chr\u00e9tiens pour l'abolition de la torture (ACAT)", "designationCode": "C", "categoryCode": "59", "address": "2715 CHE COTE STE-CATHERINE", "city": "MONTREAL", "province": "QC", "country": "CA", "postalCode": "H3T1B6", "twitter": "None", "instagram": "None", "facebook": "None", "youtube": "None", "website": "None", "summary": "None", "logo": "None", "latitude": 45.50668659703366, "longitude": -73.62023772932606}, "107613903RR0001": {"name": "Action dignit\u00e9 Lanaudi\u00e8re", "designationCode": "C", "categoryCode": "09", "address": "144, RUE ST-JOSEPH", "city": "JOLIETTE", "province": "QC", "country": "CA", "postalCode": "J6E5C4", "twitter": "None", "instagram": "None", "facebook": "None", "youtube": "None", "website": "None", "summary": "None", "logo": "None", "latitude": 46.026606530122855, "longitude": -73.44158207325879}, "838615573RR0001": {"name": "Action for Cats in Need Society", "designationCode": "C", "categoryCode": "54", "address": "2102 OLD OKANAGAN HIGHWAY", "city": "WESTBANK", "province": "BC", "country": "CA", "postalCode": "V4T1T8", "twitter": "None", "instagram": "None", "facebook": "None", "youtube": "None", "website": "None", "summary": "None", "logo": "None", "latitude": 49.84774854196746, "longitude": -119.60266019837884}, "837973338RR0001": {"name": "Action for God's Love (Canada) Society", "designationCode": "C", "categoryCode": "49", "address": "225 ARMAND WAY", "city": "SALT SPRING ISLAND", "province": "BC", "country": "CA", "postalCode": "V8K2B2", "twitter": "None", "instagram": "None", "facebook": "None", "youtube": "None", "website": "None", "summary": "None", "logo": "None", "latitude": 48.80836145082119, "longitude": -123.49687716598478}, "829675610RR0001": {"name": "Action jeunesse de l'Ouest-de-l'\u00cele (AJOI) / West Island Youth Action (AJOI)", "designationCode": "C", "categoryCode": "09", "address": "15632 BOUL. GOUIN O", "city": "SAINTE-GENEVIEVE", "province": "QC", "country": "CA", "postalCode": "H9H1C4", "twitter": "None", "instagram": "None", "facebook": "None", "youtube": "None", "website": "None", "summary": "None", "logo": "None", "latitude": 45.48294448568886, "longitude": -73.86779641491157}, "836860767RR0001": {"name": "Action souffle de vie de l'Estrie / Action Breath of Life of Estrie", "designationCode": "C", "categoryCode": "39", "address": "66, CHEMIN KINGSEY TOWNLINE", "city": "CLEVELAND", "province": "QC", "country": "CA", "postalCode": "J0B2H0", "twitter": "None", "instagram": "None", "facebook": "None", "youtube": "None", "website": "None", "summary": "None", "logo": "None", "latitude": 45.714027006511834, "longitude": -72.18659572170868}, "107848319RR0001": {"name": "Action Canada for Sexual Health and Rights / Action pour la sant\u00e9 et les droits sexuels", "designationCode": "C", "categoryCode": "13", "address": "251 BANK STREET, 2ND FLOOR", "city": "OTTAWA", "province": "ON", "country": "CA", "postalCode": "K2P1X3", "twitter": "None", "instagram": "None", "facebook": "None", "youtube": "None", "website": "None", "summary": "None", "logo": "None", "latitude": 45.41620551263771, "longitude": -75.69703608976297}, "813770229RR0001": {"name": "Action Canada-Rwanda", "designationCode": "C", "categoryCode": "09", "address": "47 RUE DES TREMBLES", "city": "LEVIS", "province": "QC", "country": "CA", "postalCode": "G6J1C6", "twitter": "None", "instagram": "None", "facebook": "None", "youtube": "None", "website": "None", "summary": "None", "logo": "None", "latitude": 46.65561796696297, "longitude": -71.32352455646614}, "821656329RR0001": {"name": "Action Catholique Montr\u00e9al Catholic Action Montreal", "designationCode": "C", "categoryCode": "38", "address": "1000 RUE DE LA GAUCHETIERE O  900", "city": "MONTREAL", "province": "QC", "country": "CA", "postalCode": "H3B5H4", "twitter": "None", "instagram": "None", "facebook": "None", "youtube": "None", "website": "None", "summary": "None", "logo": "None", "latitude": 45.49846698248619, "longitude": -73.56698518102652}, "805114873RR0001": {"name": "Action Chelsea pour le respect de l'environnement (ACRE)", "designationCode": "C", "categoryCode": "59", "address": "64, CHEMIN JUNIPER            C.P. 1775", "city": "CHELSEA", "province": "QC", "country": "CA", "postalCode": "J9B1A1", "twitter": "None", "instagram": "None", "facebook": "None", "youtube": "None", "website": "None", "summary": "None", "logo": "None", "latitude": 45.526146377228635, "longitude": -75.81364529407342}, "830548400RR0001": {"name": "Action Coalition on Human Trafficking Alberta Association", "designationCode": "C", "categoryCode": "59", "address": "BOX 302 STATION MAIN", "city": "EDMONTON", "province": "AB", "country": "CA", "postalCode": "T5J2J6", "twitter": "None", "instagram": "None", "facebook": "None", "youtube": "None", "website": "None", "summary": "None", "logo": "None", "latitude": 53.54623500000005, "longitude": -113.49037249999994}, "811676501RR0001": {"name": "Action Communautaire De La vie Montr\u00e9alaise", "designationCode": "C", "categoryCode": "09", "address": "6630 AVENUE PAPINEAU", "city": "MONTREAL", "province": "QC", "country": "CA", "postalCode": "H2G2X2", "twitter": "None", "instagram": "None", "facebook": "None", "youtube": "None", "website": "None", "summary": "None", "logo": "None", "latitude": 45.544162873420404, "longitude": -73.59883316154988}, "808060776RR0001": {"name": "Action Conservation du Bassin Versant du Lac Bromont", "designationCode": "C", "categoryCode": "59", "address": "CP 17 SUCC BUREAU-CHEF", "city": "BROMONT", "province": "QC", "country": "CA", "postalCode": "J2L1A9", "twitter": "None", "instagram": "None", "facebook": "None", "youtube": "None", "website": "None", "summary": "None", "logo": "None", "latitude": 45.31648200000005, "longitude": -72.66235399999994}, "781915293RR0001": {"name": "Action CIND / Action MCIN", "designationCode": "C", "categoryCode": "11", "address": "PO BOX 99", "city": "BRECHIN", "province": "ON", "country": "CA", "postalCode": "L0K1B0", "twitter": "None", "instagram": "None", "facebook": "None", "youtube": "None", "website": "None", "summary": "None", "logo": "None", "latitude": 44.61056390491339, "longitude": -79.11780209458949}, "118777291RR0001": {"name": "Action Int\u00e9gration en D\u00e9ficience Intellectuelle", "designationCode": "C", "categoryCode": "01", "address": "6180 AGATHE", "city": "BROSSARD", "province": "QC", "country": "CA", "postalCode": "J4Z1E1", "twitter": "None", "instagram": "None", "facebook": "None", "youtube": "None", "website": "None", "summary": "None", "logo": "None", "latitude": 45.47809091646943, "longitude": -73.46267872052617}, "784995896RR0001": {"name": "Action Mali-Canada", "designationCode": "B", "categoryCode": "09", "address": "10050 RUE DE LILLE", "city": "MONTREAL", "province": "QC", "country": "CA", "postalCode": "H2B2P7", "twitter": "None", "instagram": "None", "facebook": "None", "youtube": "None", "website": "None", "summary": "None", "logo": "None", "latitude": 45.57276055646614, "longitude": -73.64514300251015}, "862206349RR0001": {"name": "Action Missionnaire Multiculturelle", "designationCode": "C", "categoryCode": "39", "address": "206-4824 CHEMIN DE            LA COTE DES NEIGES", "city": "MONTREAL", "province": "QC", "country": "CA", "postalCode": "H3V1G4", "twitter": "None", "instagram": "None", "facebook": "None", "youtube": "None", "website": "None", "summary": "None", "logo": "None", "latitude": 45.49556798117248, "longitude": -73.61208604904184}, "106969462RR0001": {"name": "Action Patrimoine (Architecture et paysages du Qu\u00e9bec)", "designationCode": "C", "categoryCode": "52", "address": "82 GRANDE ALLEE OUEST", "city": "QUEBEC", "province": "QC", "country": "CA", "postalCode": "G1R2G6", "twitter": "None", "instagram": "None", "facebook": "None", "youtube": "None", "website": "None", "summary": "None", "logo": "None", "latitude": 46.802253539846376, "longitude": -71.22368827104837}, "840604185RR0001": {"name": "Action Sant\u00e9 Manta Internationale (AMI)", "designationCode": "C", "categoryCode": "09", "address": "244 - 211 BRONSON AVE", "city": "OTTAWA", "province": "ON", "country": "CA", "postalCode": "K1R6H5", "twitter": "None", "instagram": "None", "facebook": "None", "youtube": "None", "website": "None", "summary": "None", "logo": "None", "latitude": 45.41349725618897, "longitude": -75.7068905103587}, "844628735RR0001": {"name": "Action Sentiers Lavallois", "designationCode": "C", "categoryCode": "59", "address": "1003 AV SAINTE-BRIGITTE", "city": "SAINTE-BRIGITTE-DE-LAVAL", "province": "QC", "country": "CA", "postalCode": "G0A3K0", "twitter": "None", "instagram": "None", "facebook": "None", "youtube": "None", "website": "None", "summary": "None", "logo": "None", "latitude": 47.069660378844745, "longitude": -71.16314380249794}, "850555442RR0001": {"name": "Action Source de Vie", "designationCode": "C", "categoryCode": "09", "address": "445 RUE BLANCHARD", "city": "SAINT-J\u00c9R\u00d4ME", "province": "QC", "country": "CA", "postalCode": "J7Y3K8", "twitter": "None", "instagram": "None", "facebook": "None", "youtube": "None", "website": "None", "summary": "None", "logo": "None", "latitude": 45.76628865583707, "longitude": -74.01261988409621}, "132756800RR0001": {"name": "Action Toxicomanie", "designationCode": "C", "categoryCode": "57", "address": "59, RUE MONFETTE              LOCAL  004", "city": "VICTORIAVILLE", "province": "QC", "country": "CA", "postalCode": "G6P1J8", "twitter": "None", "instagram": "None", "facebook": "None", "youtube": "None", "website": "None", "summary": "None", "logo": "None", "latitude": 46.06164779188039, "longitude": -71.9668892342031}, "801018557RR0001": {"name": "Action-Logement Lanaudi\u00e8re", "designationCode": "C", "categoryCode": "09", "address": "144, RUE ST-JOSEPH            SUITE 213", "city": "JOLIETTE", "province": "QC", "country": "CA", "postalCode": "J6E5C4", "twitter": "None", "instagram": "None", "facebook": "None", "youtube": "None", "website": "None", "summary": "None", "logo": "None", "latitude": 46.026606530122855, "longitude": -73.44158207325879}, "869394007RR0001": {"name": "Action-R\u00e9insertion", "designationCode": "C", "categoryCode": "09", "address": "110, RUE SAINTE-CATHERINE EST", "city": "MONTREAL", "province": "QC", "country": "CA", "postalCode": "H2X1K7", "twitter": "None", "instagram": "None", "facebook": "None", "youtube": "None", "website": "None", "summary": "None", "logo": "None"}, "831141858RR0001": {"name": "ActionS pour le mieux-\u00eatre de l'enfance", "designationCode": "A", "categoryCode": "03", "address": "C.P. 62 SUCC. MONT-ROYAL", "city": "MONT-ROYAL", "province": "QC", "country": "CA", "postalCode": "H3P3B8", "twitter": "None", "instagram": "None", "facebook": "None", "youtube": "None", "website": "None", "summary": "None", "logo": "None", "latitude": 45.52210500000005, "longitude": -73.63759399999994}, "830162616RR0001": {"name": "Active Cambridge Fitness Program", "designationCode": "C", "categoryCode": "56", "address": "195 GLENVALLEY DRIVE", "city": "CAMBRIDGE", "province": "ON", "country": "CA", "postalCode": "N1T1R2", "twitter": "None", "instagram": "None", "facebook": "None", "youtube": "None", "website": "None", "summary": "None", "logo": "None", "latitude": 43.39539450678068, "longitude": -80.27845149708581}, "847408309RR0001": {"name": "Active Chefs", "designationCode": "C", "categoryCode": "11", "address": "2395 HOLLYBROOK DRIVE", "city": "OAKVILLE", "province": "ON", "country": "CA", "postalCode": "L6M4S8", "twitter": "None", "instagram": "None", "facebook": "None", "youtube": "None", "website": "None", "summary": "None", "logo": "None", "latitude": 43.429518732731204, "longitude": -79.75767586208076}, "891288334RR0001": {"name": "Active Healthy Kids Canada / Jeunes en forme Canada", "designationCode": "C", "categoryCode": "20", "address": "608 - 1 CONCORDE GATE", "city": "NORTH YORK", "province": "ON", "country": "CA", "postalCode": "M3C3N6", "twitter": "None", "instagram": "None", "facebook": "None", "youtube": "None", "website": "None", "summary": "None", "logo": "None", "latitude": 43.72932254616569, "longitude": -79.32924960782503}, "894399419RR0001": {"name": "Active Jewish Adults (AJA) 50+", "designationCode": "C", "categoryCode": "56", "address": "21 NADOLNY SACHS PVT", "city": "OTTAWA", "province": "ON", "country": "CA", "postalCode": "K2A1R9", "twitter": "None", "instagram": "None", "facebook": "None", "youtube": "None", "website": "None", "summary": "None", "logo": "None", "latitude": 45.375832560101486, "longitude": -75.75231223766554}, "842486649RR0001": {"name": "Active Lifestyles Centre Grey-Bruce", "designationCode": "C", "categoryCode": "56", "address": "1852 3RD AVE E", "city": "OWEN SOUND", "province": "ON", "country": "CA", "postalCode": "N4K2M6", "twitter": "None", "instagram": "None", "facebook": "None", "youtube": "None", "website": "None", "summary": "None", "logo": "None", "latitude": 44.57939318697517, "longitude": -80.93420816476099}, "831592381RR0001": {"name": "Active Lives After School Dufferin", "designationCode": "C", "categoryCode": "09", "address": "243 OAKWOOD CRES", "city": "ORANGEVILLE", "province": "ON", "country": "CA", "postalCode": "L9W4M9", "twitter": "None", "instagram": "None", "facebook": "None", "youtube": "None", "website": "None", "summary": "None", "logo": "None", "latitude": 43.92592866279063, "longitude": -80.11299002556389}, "833962426RR0001": {"name": "Acts of Kindness for Seniors Society", "designationCode": "C", "categoryCode": "09", "address": "200-9102 196A STREET", "city": "LANGLEY", "province": "BC", "country": "CA", "postalCode": "V1M3B4", "twitter": "None", "instagram": "None", "facebook": "None", "youtube": "None", "website": "None", "summary": "None", "logo": "None", "latitude": 49.16822416763807, "longitude": -122.6779099871894}, "818192130RR0001": {"name": "Acumen Canada", "designationCode": "C", "categoryCode": "09", "address": "903-15 BEVERLY STREET", "city": "TORONTO", "province": "ON", "country": "CA", "postalCode": "M5T1X8", "twitter": "None", "instagram": "None", "facebook": "None", "youtube": "None", "website": "None", "summary": "None", "logo": "None", "latitude": 43.65415173556026, "longitude": -79.39400100950564}, "820174902RR0001": {"name": "Adam Beach Film Institute Inc.", "designationCode": "C", "categoryCode": "22", "address": "1-587 ELLICE AVE", "city": "WINNIPEG", "province": "MB", "country": "CA", "postalCode": "R3B1V7", "twitter": "None", "instagram": "None", "facebook": "None", "youtube": "None", "website": "None", "summary": "None", "logo": "None", "latitude": 49.89295251875456, "longitude": -97.15846072009349}, "804008951RR0001": {"name": "Adam House", "designationCode": "C", "categoryCode": "09", "address": "430 GLADSTONE AVE.", "city": "TORONTO", "province": "ON", "country": "CA", "postalCode": "M6H3H9", "twitter": "None", "instagram": "None", "facebook": "None", "youtube": "None", "website": "None", "summary": "None", "logo": "None", "latitude": 43.65777590590918, "longitude": -79.43292691883535}, "823891536RR0001": {"name": "Adam Paul Durakovic Foundation", "designationCode": "B", "categoryCode": "57", "address": "13366 233RD STREET", "city": "MAPLE RIDGE", "province": "BC", "country": "CA", "postalCode": "V4R2R6", "twitter": "None", "instagram": "None", "facebook": "None", "youtube": "None", "website": "None", "summary": "None", "logo": "None", "latitude": 49.24545702331352, "longitude": -122.57748137411288}, "820939395RR0001": {"name": "Adam's Apples Foundation", "designationCode": "C", "categoryCode": "21", "address": "3702 10TH W AVE", "city": "VANCOUVER", "province": "BC", "country": "CA", "postalCode": "V6R2G4", "twitter": "None", "instagram": "None", "facebook": "None", "youtube": "None", "website": "None", "summary": "None", "logo": "None", "latitude": 49.26346455785112, "longitude": -123.1861217216227}, "804606010RR0001": {"name": "Adam's Hope (A Quinte Learning Resource for Children with Autism)", "designationCode": "C", "categoryCode": "11", "address": "36 HENRY ST", "city": "BELLEVILLE", "province": "ON", "country": "CA", "postalCode": "K8P1N2", "twitter": "None", "instagram": "None", "facebook": "None", "youtube": "None", "website": "None", "summary": "None", "logo": "None", "latitude": 44.16618513962134, "longitude": -77.39075982307111}, "819579327RR0001": {"name": "Adams Army Charitable Foundation", "designationCode": "C", "categoryCode": "09", "address": "PO BOX 554", "city": "SUNDRE", "province": "AB", "country": "CA", "postalCode": "T0M1X0", "twitter": "None", "instagram": "None", "facebook": "None", "youtube": "None", "website": "None", "summary": "None", "logo": "None", "latitude": 51.797180000000026, "longitude": -114.64119999999997}, "840603898RR0001": {"name": "Adams Family Foundation for Animals", "designationCode": "A", "categoryCode": "03", "address": "296 BAY ST", "city": "THUNDER BAY", "province": "ON", "country": "CA", "postalCode": "P7B1R8", "twitter": "None", "instagram": "None", "facebook": "None", "youtube": "None", "website": "None", "summary": "None", "logo": "None", "latitude": 48.431729534566244, "longitude": -89.22924235830119}, "827137589RR0001": {"name": "Adaptive Canuck ALS Foundation", "designationCode": "B", "categoryCode": "13", "address": "2879 TREEVIEW RD", "city": "SUDBURY", "province": "ON", "country": "CA", "postalCode": "P3E5C7", "twitter": "None", "instagram": "None", "facebook": "None", "youtube": "None", "website": "None", "summary": "None", "logo": "None", "latitude": 46.43484485557554, "longitude": -81.02296499223804}, "759569528RR0001": {"name": "Adaptive Cooking Program", "designationCode": "C", "categoryCode": "09", "address": "3 HAMMOND CRES", "city": "LONDON", "province": "ON", "country": "CA", "postalCode": "N5X1A5", "twitter": "None", "instagram": "None", "facebook": "None", "youtube": "None", "website": "None", "summary": "None", "logo": "None", "latitude": 43.029395339171266, "longitude": -81.26735683224636}, "847760881RR0001": {"name": "Adaptive Sports at Sun Peaks Society", "designationCode": "C", "categoryCode": "56", "address": "106 - 3270 VILLAGE WAY", "city": "SUN PEAKS", "province": "BC", "country": "CA", "postalCode": "V0E5N0", "twitter": "None", "instagram": "None", "facebook": "None", "youtube": "None", "website": "None", "summary": "None", "logo": "None", "latitude": 50.88511312660188, "longitude": -119.88281512226659}, "822590659RR0001": {"name": "Adas Yisroel", "designationCode": "C", "categoryCode": "49", "address": "P.O BOX 41010                 2795 BATHURST STREET", "city": "TORONTO", "province": "ON", "country": "CA", "postalCode": "M6B4J6", "twitter": "None", "instagram": "None", "facebook": "None", "youtube": "None", "website": "None", "summary": "None", "logo": "None", "latitude": 43.712706844855425, "longitude": -79.42817447166615}, "802599753RR0001": {"name": "Adath Israel Poale Zedek Anshei Ozeroff Congregation/ Congr\u00e9gation Adath Israel Poale Zedek Anshei Ozeroff", "designationCode": "C", "categoryCode": "42", "address": "223, HARROW CRESCENT", "city": "HAMPSTEAD", "province": "QC", "country": "CA", "postalCode": "H3X3X7", "twitter": "None", "instagram": "None", "facebook": "None", "youtube": "None", "website": "None", "summary": "None", "logo": "None", "latitude": 45.48095932944776, "longitude": -73.65548168070846}, "133455709RR0001": {"name": "Addiction and Mental Health Services - KFLA", "designationCode": "C", "categoryCode": "01", "address": "107 WELLINGTON STREET", "city": "KINGSTON", "province": "ON", "country": "CA", "postalCode": "K7L3C6", "twitter": "None", "instagram": "None", "facebook": "None", "youtube": "None", "website": "None", "summary": "None", "logo": "None", "latitude": 44.22903750568416, "longitude": -76.4841565382885}, "860862481RR0001": {"name": "Addictions and Mental Health Services - Hasting Prince Edward", "designationCode": "C", "categoryCode": "19", "address": "3 APPLEWOOD DR                2ND FLOOR", "city": "BELLEVILLE", "province": "ON", "country": "CA", "postalCode": "K8P4E3", "twitter": "None", "instagram": "None", "facebook": "None", "youtube": "None", "website": "None", "summary": "None", "logo": "None", "latitude": 44.14773500334688, "longitude": -77.40684308459844}, "883152738RR0001": {"name": "Addus", "designationCode": "C", "categoryCode": "59", "address": "40 ORCHARD VIEW BLVD          SUITE 213", "city": "TORONTO", "province": "ON", "country": "CA", "postalCode": "M4R1B9", "twitter": "None", "instagram": "None", "facebook": "None", "youtube": "None", "website": "None", "summary": "None", "logo": "None", "latitude": 43.707983110767906, "longitude": -79.39988647336826}, "119288918RR0305": {"name": "Adelaide Park Congregation of Jehovah's Witnesses, Saskatoon, Saskatchewan", "designationCode": "C", "categoryCode": "61", "address": "63 TUCKER CRES", "city": "SASKATOON", "province": "SK", "country": "CA", "postalCode": "S7H3H4", "twitter": "None", "instagram": "None", "facebook": "None", "youtube": "None", "website": "None", "summary": "None", "logo": "None", "latitude": 52.11234546768411, "longitude": -106.61730244463038}, "819056888RR0001": {"name": "Adelheid Dance Projects", "designationCode": "C", "categoryCode": "22", "address": "405 SALEM AVENUE NORTH", "city": "TORONTO", "province": "ON", "country": "CA", "postalCode": "M6H3C9", "twitter": "None", "instagram": "None", "facebook": "None", "youtube": "None", "website": "None", "summary": "None", "logo": "None", "latitude": 43.67069720206008, "longitude": -79.43574999927885}, "847625811RR0001": {"name": "Adelphos United Church", "designationCode": "C", "categoryCode": "39", "address": "110 - 5859 YONGE ST", "city": "NORTH YORK", "province": "ON", "country": "CA", "postalCode": "M2M3V6", "twitter": "None", "instagram": "None", "facebook": "None", "youtube": "None", "website": "None", "summary": "None", "logo": "None", "latitude": 43.78632429912498, "longitude": -79.4171233444901}, "805695517RR0001": {"name": "Ademola Usuanlele Charitable Foundation", "designationCode": "C", "categoryCode": "21", "address": "8-10645 115 STREET NORTHWEST", "city": "EDMONTON", "province": "AB", "country": "CA", "postalCode": "T5H3K7", "twitter": "None", "instagram": "None", "facebook": "None", "youtube": "None", "website": "None", "summary": "None", "logo": "None", "latitude": 53.55108000000001, "longitude": -113.51942674516737}, "838353696RR0001": {"name": "Adera Foundation Society", "designationCode": "A", "categoryCode": "03", "address": "2200-1055 DUNSMUIR STREET     PO BOX 49214, BENTALL CENTRE", "city": "VANCOUVER", "province": "BC", "country": "CA", "postalCode": "V7X1K8", "twitter": "None", "instagram": "None", "facebook": "None", "youtube": "None", "website": "None", "summary": "None", "logo": "None", "latitude": 49.28608440276387, "longitude": -123.12107840339904}, "860337591RR0001": {"name": "Aditya Youth Trust Fund / Aditya Fonds en Fid\u00e9icommis de la Jeunesse", "designationCode": "C", "categoryCode": "29", "address": "2500 RUE COHEN", "city": "SAINT-LAURENT", "province": "QC", "country": "CA", "postalCode": "H4R2N6", "twitter": "None", "instagram": "None", "facebook": "None", "youtube": "None", "website": "None", "summary": "None", "logo": "None", "latitude": 45.49765878432127, "longitude": -73.73630722248808}, "815532031RR0001": {"name": "Adler & Lipkus Foundation", "designationCode": "B", "categoryCode": "03", "address": "120 MARKWOOD LANE", "city": "THORNHILL", "province": "ON", "country": "CA", "postalCode": "L4J7K7", "twitter": "None", "instagram": "None", "facebook": "None", "youtube": "None", "website": "None", "summary": "None", "logo": "None", "latitude": 43.81189663113859, "longitude": -79.4386201988861}, "723147294RR0001": {"name": "Adler University Vancouver Foundation", "designationCode": "A", "categoryCode": "23", "address": "1250-1500 WEST GEORGIA ST     BOX 62", "city": "VANCOUVER", "province": "BC", "country": "CA", "postalCode": "V6G2Z6", "twitter": "None", "instagram": "None", "facebook": "None", "youtube": "None", "website": "None", "summary": "None", "logo": "None", "latitude": 49.290187500000016, "longitude": -123.130035}, "857069751RR0001": {"name": "Admaston Cemetery", "designationCode": "C", "categoryCode": "59", "address": "1438 FOY RD., RR 2", "city": "RENFREW", "province": "ON", "country": "CA", "postalCode": "K7V3Z5", "twitter": "None", "instagram": "None", "facebook": "None", "youtube": "None", "website": "None", "summary": "None", "logo": "None", "latitude": 45.46121730549811, "longitude": -76.79122473769607}, "119211233RR0001": {"name": "Admiral Town and Country Recreation Board of the Village of Admiral", "designationCode": "A", "categoryCode": "56", "address": "PO BOX 202", "city": "ADMIRAL", "province": "SK", "country": "CA", "postalCode": "S0N0B0", "twitter": "None", "instagram": "None", "facebook": "None", "youtube": "None", "website": "None", "summary": "None", "logo": "None", "latitude": 49.71343965208836, "longitude": -108.00453514115462}, "801333493RR0001": {"name": "Adolphustown-Fredericksburgh Heritage Society", "designationCode": "C", "categoryCode": "50", "address": "8225 LOYALIST PARKWAY         RURAL ROUTE 1", "city": "BATH", "province": "ON", "country": "CA", "postalCode": "K0H1G0", "twitter": "None", "instagram": "None", "facebook": "None", "youtube": "None", "website": "None", "summary": "None", "logo": "None", "latitude": 44.12443781764682, "longitude": -76.89397900175048}, "848101267RR0001": {"name": "Adonai Ministries", "designationCode": "C", "categoryCode": "39", "address": "192 CASTLE OAKS CROSSING", "city": "BRAMPTON", "province": "ON", "country": "CA", "postalCode": "L6P3X2", "twitter": "None", "instagram": "None", "facebook": "None", "youtube": "None", "website": "None", "summary": "None", "logo": "None", "latitude": 43.795781486265774, "longitude": -79.67083882889949}, "836991000RR0001": {"name": "Adopt a Village in Laos", "designationCode": "C", "categoryCode": "09", "address": "5 CRAIG CRT", "city": "BOWMANVILLE", "province": "ON", "country": "CA", "postalCode": "L1C4H6", "twitter": "None", "instagram": "None", "facebook": "None", "youtube": "None", "website": "None", "summary": "None", "logo": "None", "latitude": 43.942219321981185, "longitude": -78.71869472516764}, "772851325RR0001": {"name": "Adopt Me Cat Rescue", "designationCode": "B", "categoryCode": "54", "address": "7561 SETTLER'S WAY", "city": "NORTH GOWER", "province": "ON", "country": "CA", "postalCode": "K0A2T0", "twitter": "None", "instagram": "None", "facebook": "None", "youtube": "None", "website": "None", "summary": "None", "logo": "None", "latitude": 45.031421856829304, "longitude": -75.74788170878344}, "826940462RR0001": {"name": "Adorateurs de la Sainte Face de J\u00e9sus", "designationCode": "C", "categoryCode": "47", "address": "7613 AVENUE CHRISTOPHE COLOMB", "city": "MONTREAL", "province": "QC", "country": "CA", "postalCode": "H2R2S8", "twitter": "None", "instagram": "None", "facebook": "None", "youtube": "None", "website": "None", "summary": "None", "logo": "None", "latitude": 45.545348261469066, "longitude": -73.61841198346714}, "793853128RR0001": {"name": "Adoration United Reformed Church", "designationCode": "C", "categoryCode": "45", "address": "B-3327 MENNO STREET", "city": "VINELAND", "province": "ON", "country": "CA", "postalCode": "L0R2C0", "twitter": "None", "instagram": "None", "facebook": "None", "youtube": "None", "website": "None", "summary": "None", "logo": "None", "latitude": 43.15563309032423, "longitude": -79.39046393774392}, "810304600RR0001": {"name": "Adrian Campbell Scholarship Fund Association", "designationCode": "C", "categoryCode": "21", "address": "155 CAMPBELL AVENUE           PO BOX 102", "city": "CURRY'S CORNER", "province": "NS", "country": "CA", "postalCode": "B0N1H0", "twitter": "None", "instagram": "None", "facebook": "None", "youtube": "None", "website": "None", "summary": "None", "logo": "None", "latitude": 44.97601941252746, "longitude": -64.12302259948368}, "815781968RR0001": {"name": "Adsway Ltd.", "designationCode": "B", "categoryCode": "03", "address": "630-3RD AVENUE SW             SUITE 800", "city": "CALGARY", "province": "AB", "country": "CA", "postalCode": "T2P4L4", "twitter": "None", "instagram": "None", "facebook": "None", "youtube": "None", "website": "None", "summary": "None", "logo": "None", "latitude": 51.0510843702464, "longitude": -114.07586967162011}, "108167891RR0001": {"name": "Adult & Teen Challenge Society of BC", "designationCode": "C", "categoryCode": "49", "address": "PO BOX 2095 STN A", "city": "ABBOTSFORD", "province": "BC", "country": "CA", "postalCode": "V2T3X8", "twitter": "None", "instagram": "None", "facebook": "None", "youtube": "None", "website": "None", "summary": "None", "logo": "None", "latitude": 49.05161700000005, "longitude": -122.32930399999994}, "135644003RR0001": {"name": "Adult Learning & Training Centre", "designationCode": "C", "categoryCode": "21", "address": "52 ABBOTT STREET NORTH        UNIT 3", "city": "SMITH FALLS", "province": "ON", "country": "CA", "postalCode": "K7A1W3", "twitter": "None", "instagram": "None", "facebook": "None", "youtube": "None", "website": "None", "summary": "None", "logo": "None", "latitude": 44.89822802803138, "longitude": -76.02722289091692}, "107797383RR0133": {"name": "Adventist Christian Elementary School", "designationCode": "C", "categoryCode": "20", "address": "800 FLEET STREET", "city": "LONDON", "province": "ON", "country": "CA", "postalCode": "N5Y1R9", "twitter": "None", "instagram": "None", "facebook": "None", "youtube": "None", "website": "None", "summary": "None", "logo": "None", "latitude": 43.003698828826295, "longitude": -81.2203754506615}, "830070850RR0001": {"name": "Advocate Freedom Foundation", "designationCode": "B", "categoryCode": "05", "address": "300-4275 KING ST E            3RD FLOOR", "city": "KITCHENER", "province": "ON", "country": "CA", "postalCode": "N2P2S9", "twitter": "None", "instagram": "None", "facebook": "None", "youtube": "None", "website": "None", "summary": "None", "logo": "None", "latitude": 43.42086151571838, "longitude": -80.40978842627234}, "133318832RR0001": {"name": "Advokate Life & Education Services Society", "designationCode": "C", "categoryCode": "09", "address": "PO BOX 8000-518", "city": "ABBOTSFORD", "province": "BC", "country": "CA", "postalCode": "V2S6H1", "twitter": "None", "instagram": "None", "facebook": "None", "youtube": "None", "website": "None", "summary": "None", "logo": "None", "latitude": 49.03851300000005, "longitude": -122.29441549999993}, "832616379RR0001": {"name": "Aegis House", "designationCode": "C", "categoryCode": "09", "address": "1881 GERRARD STREET EAST      2ND FLOOR REAR", "city": "TORONTO", "province": "ON", "country": "CA", "postalCode": "M4L2B8", "twitter": "None", "instagram": "None", "facebook": "None", "youtube": "None", "website": "None", "summary": "None", "logo": "None", "latitude": 43.6796608889723, "longitude": -79.3127821286284}, "806343778RR0001": {"name": "Aenon Baptist Cemetery", "designationCode": "C", "categoryCode": "59", "address": "9 WEBSTER LANE", "city": "TRURO", "province": "NS", "country": "CA", "postalCode": "B2N1W8", "twitter": "None", "instagram": "None", "facebook": "None", "youtube": "None", "website": "None", "summary": "None", "logo": "None", "latitude": 45.36021522344037, "longitude": -63.279127901061756}, "859156648RR0001": {"name": "Aequitas Singers Society", "designationCode": "C", "categoryCode": "22", "address": "14625 86B AVE", "city": "SURREY", "province": "BC", "country": "CA", "postalCode": "V3S6N2", "twitter": "None", "instagram": "None", "facebook": "None", "youtube": "None", "website": "None", "summary": "None", "logo": "None", "latitude": 49.16023350764606, "longitude": -122.81776316080008}, "844151340RR0001": {"name": "Aeriosa Dance Society", "designationCode": "C", "categoryCode": "22", "address": "25-717 WEST 8TH AVE", "city": "VANCOUVER", "province": "BC", "country": "CA", "postalCode": "V5Z1C9", "twitter": "None", "instagram": "None", "facebook": "None", "youtube": "None", "website": "None", "summary": "None", "logo": "None", "latitude": 49.26425751875457, "longitude": -123.12042283236192}, "801964842RR0001": {"name": "Aerosan", "designationCode": "C", "categoryCode": "09", "address": "20 FLEET COURT", "city": "BEDFORD", "province": "NS", "country": "CA", "postalCode": "B4A4J8", "twitter": "None", "instagram": "None", "facebook": "None", "youtube": "None", "website": "None", "summary": "None", "logo": "None", "latitude": 44.723888643083804, "longitude": -63.653268037480444}, "817051394RR0001": {"name": "Affinity Mentorship Foundation (AMF)", "designationCode": "C", "categoryCode": "09", "address": "PO BOX 35055 RPO SARCEE", "city": "CALGARY", "province": "AB", "country": "CA", "postalCode": "T3E7C7", "twitter": "None", "instagram": "None", "facebook": "None", "youtube": "None", "website": "None", "summary": "None", "logo": "None", "latitude": 51.02277474410989, "longitude": -114.12956718457282}, "874491772RR0001": {"name": "Affirm United - S'affirmer ensemble", "designationCode": "C", "categoryCode": "59", "address": "7 WINDSOR ST", "city": "KINGSTON", "province": "ON", "country": "CA", "postalCode": "K7M4K4", "twitter": "None", "instagram": "None", "facebook": "None", "youtube": "None", "website": "None", "summary": "None", "logo": "None", "latitude": 44.21615451154119, "longitude": -76.57185450152922}, "803836758RR0001": {"name": "Affordable Housing: Vancouver Island Society", "designationCode": "C", "categoryCode": "09", "address": "763 ANSON PLACE", "city": "QUALICUM BEACH", "province": "BC", "country": "CA", "postalCode": "V9K2J4", "twitter": "None", "instagram": "None", "facebook": "None", "youtube": "None", "website": "None", "summary": "None", "logo": "None", "latitude": 49.344732018186065, "longitude": -124.39461438671147}}