{"136058575RR0001": {"name": "LA FONDATION IMMOBILI\u00c8RE DE L'OUTAOUAIS", "designationCode": "C", "categoryCode": "11", "address": "592-A BOULEVARD DE L'H\u00d4PITALE", "city": "GATINEAU", "province": "QC", "country": "CA", "postalCode": "J8V2S9", "twitter": "None", "instagram": "None", "facebook": "None", "youtube": "None", "website": "None", "summary": "None", "logo": "None", "latitude": 45.4960178198398, "longitude": -75.68901815647224}, "143162519RR0001": {"name": "LA FONDATION INTERNATIONALE ANDRE GILBERT INC", "designationCode": "C", "categoryCode": "29", "address": "300-4010 STE-CATHERINE OUEST", "city": "MONTREAL", "province": "QC", "country": "CA", "postalCode": "H3Z1P2", "twitter": "None", "instagram": "None", "facebook": "None", "youtube": "None", "website": "None", "summary": "None", "logo": "None", "latitude": 45.489289500000005, "longitude": -73.58458275}, "134335157RR0001": {"name": "LA FONDATION ISLAMIQUE CHARITABLE ALKHOEE INC", "designationCode": "C", "categoryCode": "60", "address": "7085 CH. COTE-DES-NEIGES", "city": "MONTREAL", "province": "QC", "country": "CA", "postalCode": "H3R2M1", "twitter": "None", "instagram": "None", "facebook": "None", "youtube": "None", "website": "None", "summary": "None", "logo": "None", "latitude": 45.50478521818891, "longitude": -73.64051119147118}, "888855269RR0001": {"name": "LA FONDATION J B J FORTIN", "designationCode": "B", "categoryCode": "05", "address": "34 RUE LAFLEUR", "city": "VERDUN", "province": "QC", "country": "CA", "postalCode": "H4G3C4", "twitter": "None", "instagram": "None", "facebook": "None", "youtube": "None", "website": "None", "summary": "None", "logo": "None", "latitude": 45.46663430529751, "longitude": -73.56385661102769}, "119001253RR0001": {"name": "LA FONDATION J. RAYMOND PEPIN", "designationCode": "B", "categoryCode": "03", "address": "2781 BOULEVARD LI\u00c9GEOIS", "city": "QU\u00c9BEC", "province": "QC", "country": "CA", "postalCode": "G1W2A4", "twitter": "None", "instagram": "None", "facebook": "None", "youtube": "None", "website": "None", "summary": "None", "logo": "None", "latitude": 46.759171505684165, "longitude": -71.27412654478071}, "894032267RR0001": {"name": "LA FONDATION J.-P. ET G. MERCIER", "designationCode": "C", "categoryCode": "29", "address": "75 RUE CHARTIER", "city": "SHERBROOKE", "province": "QC", "country": "CA", "postalCode": "J1J3A9", "twitter": "None", "instagram": "None", "facebook": "None", "youtube": "None", "website": "None", "summary": "None", "logo": "None", "latitude": 45.40003233527614, "longitude": -71.91735112242465}, "119001212RR0001": {"name": "LA FONDATION JACQUES FRANCOEUR", "designationCode": "B", "categoryCode": "03", "address": "4115 RUE SHERBROOKE OUEST     BUREAU 400", "city": "MONTREAL", "province": "QC", "country": "CA", "postalCode": "H3Z1K9", "twitter": "None", "instagram": "None", "facebook": "None", "youtube": "None", "website": "None", "summary": "None", "logo": "None", "latitude": 45.488759122136194, "longitude": -73.59081987096755}, "140180266RR0001": {"name": "LA FONDATION JANE H. DUNN", "designationCode": "C", "categoryCode": "21", "address": "CP 52033", "city": "QUEBEC", "province": "QC", "country": "CA", "postalCode": "G1L5A4", "twitter": "None", "instagram": "None", "facebook": "None", "youtube": "None", "website": "None", "summary": "None", "logo": "None", "latitude": 46.81272300000006, "longitude": -71.21930299999994}, "119001220RR0001": {"name": "LA FONDATION JEAN DUCEPPE", "designationCode": "A", "categoryCode": "23", "address": "260 BOUL DE MAISONNEUVE O", "city": "MONTREAL", "province": "QC", "country": "CA", "postalCode": "H2X1Y9", "twitter": "None", "instagram": "None", "facebook": "None", "youtube": "None", "website": "None", "summary": "None", "logo": "None", "latitude": 45.508406327708435, "longitude": -73.56812827526383}, "129472296RR0001": {"name": "LA FONDATION JEAN MARC PAQUETTE", "designationCode": "A", "categoryCode": "09", "address": "511 PLACE D'ARMES SUITE 601", "city": "MONTREAL", "province": "QC", "country": "CA", "postalCode": "H2Y2W7", "twitter": "None", "instagram": "None", "facebook": "None", "youtube": "None", "website": "None", "summary": "None", "logo": "None", "latitude": 45.505126643920505, "longitude": -73.55722305730286}, "893790477RR0001": {"name": "LA FONDATION JEAN-GILLES JUTRAS", "designationCode": "C", "categoryCode": "21", "address": "337 76E RUE OUEST", "city": "QUEBEC", "province": "QC", "country": "CA", "postalCode": "G1H4R4", "twitter": "None", "instagram": "None", "facebook": "None", "youtube": "None", "website": "None", "summary": "None", "logo": "None", "latitude": 46.85794542247069, "longitude": -71.2693822911879}, "868615790RR0001": {"name": "LA FONDATION JEANNINE GUINDON", "designationCode": "B", "categoryCode": "03", "address": "55, BOULEVARD GOUIN OUEST", "city": "MONTREAL", "province": "QC", "country": "CA", "postalCode": "H3L1H9", "twitter": "None", "instagram": "None", "facebook": "None", "youtube": "None", "website": "None", "summary": "None", "logo": "None", "latitude": 45.55054047573419, "longitude": -73.67556796728007}, "891908147RR0001": {"name": "LA FONDATION JEUNOIT", "designationCode": "B", "categoryCode": "03", "address": "2170 BOUL RENE-LEVESQUE O     BUREAU 400", "city": "MONTREAL", "province": "QC", "country": "CA", "postalCode": "H3H2T8", "twitter": "None", "instagram": "None", "facebook": "None", "youtube": "None", "website": "None", "summary": "None", "logo": "None", "latitude": 45.48904017926618, "longitude": -73.58063770105048}, "890333214RR0001": {"name": "LA FONDATION KENSINGTON", "designationCode": "C", "categoryCode": "21", "address": "6905, BOUL. MARICOURT", "city": "SAINT-HUBERT", "province": "QC", "country": "CA", "postalCode": "J3Y1T2", "twitter": "None", "instagram": "None", "facebook": "None", "youtube": "None", "website": "None", "summary": "None", "logo": "None", "latitude": 45.474286339690885, "longitude": -73.40495406053417}, "845032473RR0001": {"name": "LA FONDATION L'ECOLE ARMENIENNE SOURP HAGOP", "designationCode": "C", "categoryCode": "21", "address": "3400 RUE NADON", "city": "MONTREAL", "province": "QC", "country": "CA", "postalCode": "H4J1P5", "twitter": "None", "instagram": "None", "facebook": "None", "youtube": "None", "website": "None", "summary": "None", "logo": "None", "latitude": 45.53136489286746, "longitude": -73.69597229003405}, "886247014RR0001": {"name": "LA FONDATION LA CL\u00c9 SUR LA PORTE INC.", "designationCode": "A", "categoryCode": "03", "address": "C.P. 505", "city": "SAINT-HYACINTHE", "province": "QC", "country": "CA", "postalCode": "J2S7B8", "twitter": "None", "instagram": "None", "facebook": "None", "youtube": "None", "website": "None", "summary": "None", "logo": "None", "latitude": 45.62664000000005, "longitude": -72.94719049999993}, "119001261RR0001": {"name": "LA FONDATION LARA DRUMMOND/LARA DRUMMOND FOUNDATION", "designationCode": "B", "categoryCode": "03", "address": "3460 AV HENRI-JULIEN", "city": "MONTREAL", "province": "QC", "country": "CA", "postalCode": "H2X3H2", "twitter": "None", "instagram": "None", "facebook": "None", "youtube": "None", "website": "None", "summary": "None", "logo": "None", "latitude": 45.51629559310986, "longitude": -73.56910334929881}, "856849500RR0001": {"name": "LA FONDATION LAVALLOISE DES LETTRES", "designationCode": "A", "categoryCode": "21", "address": "397 BOUL. DES PRAIRIES        STE 300", "city": "LAVAL", "province": "QC", "country": "CA", "postalCode": "H7N2W6", "twitter": "None", "instagram": "None", "facebook": "None", "youtube": "None", "website": "None", "summary": "None", "logo": "None", "latitude": 45.54615096223111, "longitude": -73.70948394162927}, "889013199RR0001": {"name": "LA FONDATION LE BALUCHON", "designationCode": "C", "categoryCode": "20", "address": "216 BOULEVARD JE ME SOUVIENS", "city": "LAVAL", "province": "QC", "country": "CA", "postalCode": "H7L1W1", "twitter": "None", "instagram": "None", "facebook": "None", "youtube": "None", "website": "None", "summary": "None", "logo": "None", "latitude": 45.61131565609688, "longitude": -73.78541969149984}, "140717331RR0001": {"name": "LA FONDATION LE CR\u00c9PUSCULE", "designationCode": "C", "categoryCode": "09", "address": "774 - G, RUE \u00c9TIENNE-RAYMOND", "city": "SAINTE-MARIE", "province": "QC", "country": "CA", "postalCode": "G6E0K6", "twitter": "None", "instagram": "None", "facebook": "None", "youtube": "None", "website": "None", "summary": "None", "logo": "None", "latitude": 46.45193984569213, "longitude": -71.0254503918865}, "891463366RR0001": {"name": "LA FONDATION LE FIL D'ARIANE", "designationCode": "A", "categoryCode": "03", "address": "1515 DOCTEUR PENFIELD AVENUE  APP.#703", "city": "MONTR\u00c9AL", "province": "QC", "country": "CA", "postalCode": "H3G2R8", "twitter": "None", "instagram": "None", "facebook": "None", "youtube": "None", "website": "None", "summary": "None", "logo": "None", "latitude": 45.498121250072124, "longitude": -73.58526492368279}, "119001303RR0001": {"name": "LA FONDATION LE PHARE INC.", "designationCode": "C", "categoryCode": "21", "address": "405 RUE SARA", "city": "SHERBROOKE", "province": "QC", "country": "CA", "postalCode": "J1H5S6", "twitter": "None", "instagram": "None", "facebook": "None", "youtube": "None", "website": "None", "summary": "None", "logo": "None", "latitude": 45.378118139285206, "longitude": -71.88707306196099}, "894780147RR0001": {"name": "LA FONDATION LEA ROBACK / LEA ROBACK FOUNDATION", "designationCode": "C", "categoryCode": "21", "address": "106 - 1600 AV DE LORIMIER", "city": "MONTREAL", "province": "QC", "country": "CA", "postalCode": "H2K3W5", "twitter": "None", "instagram": "None", "facebook": "None", "youtube": "None", "website": "None", "summary": "None", "logo": "None", "latitude": 45.52597796055766, "longitude": -73.55291510286204}, "118923838RR0001": {"name": "LA FONDATION LEONCE LEVESQUE DE ROBERVAL INC.", "designationCode": "C", "categoryCode": "09", "address": "C.P.71", "city": "ROBERVAL", "province": "QC", "country": "CA", "postalCode": "G8H2N4", "twitter": "None", "instagram": "None", "facebook": "None", "youtube": "None", "website": "None", "summary": "None", "logo": "None", "latitude": 48.51538308346773, "longitude": -72.22183474016163}, "102934171RR0001": {"name": "LA FONDATION LES DRAGONS INC.", "designationCode": "C", "categoryCode": "21", "address": "2121, 119E RUE", "city": "VILLE DE SAINT-GEORGES", "province": "QC", "country": "CA", "postalCode": "G5Y5S1", "twitter": "None", "instagram": "None", "facebook": "None", "youtube": "None", "website": "None", "summary": "None", "logo": "None", "latitude": 46.12761551440194, "longitude": -70.66166830350372}, "892510397RR0001": {"name": "LA FONDATION LES FOYERS FARNHAM", "designationCode": "C", "categoryCode": "19", "address": "1240 ST. PAUL", "city": "FARNHAM", "province": "QC", "country": "CA", "postalCode": "J2N2L1", "twitter": "None", "instagram": "None", "facebook": "None", "youtube": "None", "website": "None", "summary": "None", "logo": "None", "latitude": 45.29109459507177, "longitude": -72.96620424926405}, "855665808RR0001": {"name": "LA FONDATION LILIANA KOMOROWSKA POUR LES ARTS / LILIANA KOMOROWSKA FOUNDATION FOR THE ARTS", "designationCode": "C", "categoryCode": "23", "address": "433 RUE CHABANEL OUEST        BUREAU 1200", "city": "MONTR\u00c9AL", "province": "QC", "country": "CA", "postalCode": "H2N2J8", "twitter": "None", "instagram": "None", "facebook": "None", "youtube": "None", "website": "None", "summary": "None", "logo": "None", "latitude": 45.53868902934664, "longitude": -73.65453249035481}, "101836294RR0001": {"name": "LA FONDATION LIONEL-GROULX", "designationCode": "B", "categoryCode": "23", "address": "261 AV BLOOMFIELD", "city": "OUTREMONT", "province": "QC", "country": "CA", "postalCode": "H2V3R6", "twitter": "None", "instagram": "None", "facebook": "None", "youtube": "None", "website": "None", "summary": "None", "logo": "None", "latitude": 45.51785133417962, "longitude": -73.60207916221371}, "846954675RR0001": {"name": "LA FONDATION LOUIS-J. ROBICHAUD INC.", "designationCode": "C", "categoryCode": "21", "address": "435 MAIN ST", "city": "SHEDIAC", "province": "NB", "country": "CA", "postalCode": "E4P2C1", "twitter": "None", "instagram": "None", "facebook": "None", "youtube": "None", "website": "None", "summary": "None", "logo": "None", "latitude": 46.22041038224294, "longitude": -64.53316760169076}, "896434941RR0001": {"name": "LA FONDATION LOUISE-AMELIE INC.", "designationCode": "A", "categoryCode": "03", "address": "CP 60001 SUCC. STE.ANNE", "city": "STE-ANNE DES MONTS", "province": "QC", "country": "CA", "postalCode": "G4V2Y3", "twitter": "None", "instagram": "None", "facebook": "None", "youtube": "None", "website": "None", "summary": "None", "logo": "None", "latitude": 49.13704622802471, "longitude": -66.45446878835543}, "895091874RR0001": {"name": "LA FONDATION LOUPERIVIENNE D'ENSEIGNEMENT PRIMAIRE ET SECONDAIRE PUBLIC", "designationCode": "C", "categoryCode": "21", "address": "CP 343", "city": "RIVIERE-DU-LOUP", "province": "QC", "country": "CA", "postalCode": "G6R3Y9", "twitter": "None", "instagram": "None", "facebook": "None", "youtube": "None", "website": "None", "summary": "None", "logo": "None", "latitude": 47.84908072700006, "longitude": -69.29578667399994}, "887593861RR0001": {"name": "LA FONDATION LUCIEN RACINE", "designationCode": "B", "categoryCode": "23", "address": "3450, BOUL. DU ROYAUME", "city": "JONQUIERE", "province": "QC", "country": "CA", "postalCode": "G7S5T2", "twitter": "None", "instagram": "None", "facebook": "None", "youtube": "None", "website": "None", "summary": "None", "logo": "None", "latitude": 48.41506592640589, "longitude": -71.22127360071539}, "889259040RR0001": {"name": "LA FONDATION MARCEL LACROIX INC", "designationCode": "B", "categoryCode": "03", "address": "C.P. 47100", "city": "QU\u00c9BEC", "province": "QC", "country": "CA", "postalCode": "G1S4X1", "twitter": "None", "instagram": "None", "facebook": "None", "youtube": "None", "website": "None", "summary": "None", "logo": "None", "latitude": 46.81272300000006, "longitude": -71.21930299999994}, "130257678RR0001": {"name": "LA FONDATION MARCELLE ET JEAN COUTU", "designationCode": "B", "categoryCode": "05", "address": "303 - 154 AV LAURIER O", "city": "MONTREAL", "province": "QC", "country": "CA", "postalCode": "H2T2N7", "twitter": "None", "instagram": "None", "facebook": "None", "youtube": "None", "website": "None", "summary": "None", "logo": "None", "latitude": 45.52116452011089, "longitude": -73.59443943655164}, "876903923RR0001": {"name": "LA FONDATION MARIANOPOLIS DU MILLENAIRE/THE MARIANOPOLIS MILLENNIUM FOUNDATION", "designationCode": "A", "categoryCode": "03", "address": "4873 WESTMOUNT AVE", "city": "WESTMOUNT", "province": "QC", "country": "CA", "postalCode": "H3Y1X9", "twitter": "None", "instagram": "None", "facebook": "None", "youtube": "None", "website": "None", "summary": "None", "logo": "None", "latitude": 45.480557480466054, "longitude": -73.61110851742689}, "119001360RR0001": {"name": "LA FONDATION MARIE-ANNA B. PRATT", "designationCode": "B", "categoryCode": "03", "address": "21 CHEMIN DE LA BURE", "city": "LORRAINE", "province": "QC", "country": "CA", "postalCode": "J6Z3J4", "twitter": "None", "instagram": "None", "facebook": "None", "youtube": "None", "website": "None", "summary": "None", "logo": "None", "latitude": 45.680384639477104, "longitude": -73.78879544128351}, "892756461RR0001": {"name": "LA FONDATION MARTIN GIARD", "designationCode": "C", "categoryCode": "49", "address": "CASE POSTALE 493", "city": "ST HYACINTHE", "province": "QC", "country": "CA", "postalCode": "J2S7B8", "twitter": "None", "instagram": "None", "facebook": "None", "youtube": "None", "website": "None", "summary": "None", "logo": "None", "latitude": 45.62664000000005, "longitude": -72.94719049999993}, "862724077RR0001": {"name": "LA FONDATION MAUDE GAUTHIER", "designationCode": "C", "categoryCode": "11", "address": "200 RUE MORIN", "city": "SAINTE-ADELE", "province": "QC", "country": "CA", "postalCode": "J8B2P7", "twitter": "None", "instagram": "None", "facebook": "None", "youtube": "None", "website": "None", "summary": "None", "logo": "None", "latitude": 45.947806135437745, "longitude": -74.1401919339259}, "119001394RR0001": {"name": "LA FONDATION MAURICE PROULX INC.", "designationCode": "A", "categoryCode": "23", "address": "C.P. 41", "city": "RIVIERE-DU-LOUP", "province": "QC", "country": "CA", "postalCode": "G5R3Y7", "twitter": "None", "instagram": "None", "facebook": "None", "youtube": "None", "website": "None", "summary": "None", "logo": "None", "latitude": 47.835060000000055, "longitude": -69.53702299999993}, "873083810RR0001": {"name": "LA FONDATION MELANIE-MOISE INC.", "designationCode": "C", "categoryCode": "21", "address": "10, RUE DE L'EGLISE", "city": "SAINT-BASILE", "province": "QC", "country": "CA", "postalCode": "G0A3G0", "twitter": "None", "instagram": "None", "facebook": "None", "youtube": "None", "website": "None", "summary": "None", "logo": "None", "latitude": 46.75735157949121, "longitude": -71.82300930688496}, "890637796RR0001": {"name": "LA FONDATION MGR CHARLES-RAFAEL PAYEUR INC", "designationCode": "B", "categoryCode": "43", "address": "C.P. 1383", "city": "SHERBROOKE", "province": "QC", "country": "CA", "postalCode": "J1H5L9", "twitter": "None", "instagram": "None", "facebook": "None", "youtube": "None", "website": "None", "summary": "None", "logo": "None", "latitude": 45.403251000000054, "longitude": -71.88894349999994}, "102934213RR0001": {"name": "LA FONDATION MGR JEAN-MARIE FORTIER INC.", "designationCode": "A", "categoryCode": "49", "address": "130, RUE DE LA CATHEDRALE", "city": "SHERBROOKE", "province": "QC", "country": "CA", "postalCode": "J1H4M1", "twitter": "None", "instagram": "None", "facebook": "None", "youtube": "None", "website": "None", "summary": "None", "logo": "None", "latitude": 45.40215780019028, "longitude": -71.89345627151064}, "889438172RR0001": {"name": "LA FONDATION MGR LEONCE BOUCHARD INC", "designationCode": "A", "categoryCode": "03", "address": "CP 20008 CSP PLACE DU SAGUENAY", "city": "CHICOUTIMI", "province": "QC", "country": "CA", "postalCode": "G7H7S2", "twitter": "None", "instagram": "None", "facebook": "None", "youtube": "None", "website": "None", "summary": "None", "logo": "None", "latitude": 48.42928500000005, "longitude": -71.06546149999993}, "892630443RR0001": {"name": "LA FONDATION MGR-ALBINI-LEBLANC", "designationCode": "C", "categoryCode": "49", "address": "172, RUE JACQUES CARTIER", "city": "GASPE", "province": "QC", "country": "CA", "postalCode": "G4X1M9", "twitter": "None", "instagram": "None", "facebook": "None", "youtube": "None", "website": "None", "summary": "None", "logo": "None", "latitude": 48.8305935135428, "longitude": -64.4873937729059}, "864394390RR0001": {"name": "LA FONDATION MOISSON BEAUCE", "designationCode": "C", "categoryCode": "09", "address": "3750 10E AV", "city": "SAINT-GEORGES", "province": "QC", "country": "CA", "postalCode": "G5Y8G3", "twitter": "None", "instagram": "None", "facebook": "None", "youtube": "None", "website": "None", "summary": "None", "logo": "None", "latitude": 46.102959714928936, "longitude": -70.6715065076747}, "119001436RR0001": {"name": "LA FONDATION MONSEIGNEUR VICTOR TREMBLAY INC.", "designationCode": "B", "categoryCode": "53", "address": "1299 RUE DES CHAMPS-ELYSEES   BUR #102 ED LE VENDOME", "city": "CHICOUTIMI", "province": "QC", "country": "CA", "postalCode": "G7H6P3", "twitter": "None", "instagram": "None", "facebook": "None", "youtube": "None", "website": "None", "summary": "None", "logo": "None", "latitude": 48.405609701915864, "longitude": -71.05169914663315}, "825807365RR0001": {"name": "LA FONDATION MPT", "designationCode": "A", "categoryCode": "03", "address": "83 RUE LAURENT", "city": "MAGOG", "province": "QC", "country": "CA", "postalCode": "J1X0R1", "twitter": "None", "instagram": "None", "facebook": "None", "youtube": "None", "website": "None", "summary": "None", "logo": "None", "latitude": 45.28450094783304, "longitude": -72.20193434459561}, "855281903RR0001": {"name": "LA FONDATION OECUMENIQUE D'AUMONERIE DE GASPE/THE GASPE ECUMENICAL CHAPLAINCY FOUNDATION", "designationCode": "C", "categoryCode": "43", "address": "216 DE WAKEHAM", "city": "GASPE", "province": "QC", "country": "CA", "postalCode": "G4X1V4", "twitter": "None", "instagram": "None", "facebook": "None", "youtube": "None", "website": "None", "summary": "None", "logo": "None", "latitude": 48.825653316203535, "longitude": -64.4929861145188}, "119001451RR0001": {"name": "LA FONDATION PATRO DE JONQUIERE INC.", "designationCode": "A", "categoryCode": "53", "address": "2565 RUE SAINT-DOMINIQUE", "city": "JONQUIERE", "province": "QC", "country": "CA", "postalCode": "G7X6J6", "twitter": "None", "instagram": "None", "facebook": "None", "youtube": "None", "website": "None", "summary": "None", "logo": "None", "latitude": 48.40766702689154, "longitude": -71.25830102986399}, "118924448RR0001": {"name": "LA FONDATION PAUL GERIN-LAJOIE POUR LA COOPERATION INTERNATIONALE / THE PAUL GERIN-LAJOIE FOUNDATION FOR INTERNATIONAL CO-OPERATION", "designationCode": "A", "categoryCode": "21", "address": "465 RUE ST-JEAN               BUREAU 900", "city": "MONTREAL", "province": "QC", "country": "CA", "postalCode": "H2Y2R6", "twitter": "None", "instagram": "None", "facebook": "None", "youtube": "None", "website": "None", "summary": "None", "logo": "None", "latitude": 45.50255149209416, "longitude": -73.55718793712856}, "897133310RR0001": {"name": "LA FONDATION PAULINE RONDEAU INC.", "designationCode": "B", "categoryCode": "03", "address": "2329 BOUL PORTLAND", "city": "SHERBROOKE", "province": "QC", "country": "CA", "postalCode": "J1J1V2", "twitter": "None", "instagram": "None", "facebook": "None", "youtube": "None", "website": "None", "summary": "None", "logo": "None", "latitude": 45.40391047489748, "longitude": -71.93014174854291}, "896983368RR0001": {"name": "LA FONDATION PAULINE-BOUTAL INC.", "designationCode": "C", "categoryCode": "22", "address": "340 BOUL PROVENCHER", "city": "WINNIPEG", "province": "MB", "country": "CA", "postalCode": "R2H0G7", "twitter": "None", "instagram": "None", "facebook": "None", "youtube": "None", "website": "None", "summary": "None", "logo": "None", "latitude": 49.89396984869324, "longitude": -97.11442403133495}, "873008064RR0001": {"name": "LA FONDATION PAULINE-CHARRON INC", "designationCode": "A", "categoryCode": "03", "address": "164, RUE JEANNE-MANCE", "city": "OTTAWA", "province": "ON", "country": "CA", "postalCode": "K1L6M3", "twitter": "None", "instagram": "None", "facebook": "None", "youtube": "None", "website": "None", "summary": "None", "logo": "None", "latitude": 45.4330905212074, "longitude": -75.66291099555659}, "119001493RR0001": {"name": "LA FONDATION PERKINS-THE PERKINS FOUNDATION", "designationCode": "B", "categoryCode": "13", "address": "950 RUE PRINCIPALE", "city": "COWANSVILLE", "province": "QC", "country": "CA", "postalCode": "J2K1K3", "twitter": "None", "instagram": "None", "facebook": "None", "youtube": "None", "website": "None", "summary": "None", "logo": "None", "latitude": 45.20788259276408, "longitude": -72.71425286485072}, "886909720RR0001": {"name": "LA FONDATION PHILIPPE BOUCHER", "designationCode": "C", "categoryCode": "11", "address": "34 RUE MASSE", "city": "SAINT-APOLLINAIRE", "province": "QC", "country": "CA", "postalCode": "G0S2E0", "twitter": "None", "instagram": "None", "facebook": "None", "youtube": "None", "website": "None", "summary": "None", "logo": "None", "latitude": 46.617004342201035, "longitude": -71.50776932128208}, "895438919RR0001": {"name": "LA FONDATION PIERRE ELLIOTT TRUDEAU/THE PIERRE ELLIOTT TRUDEAU FOUNDATION", "designationCode": "C", "categoryCode": "21", "address": "1980, RUE SHERBROOKE WEST     SUITE 600", "city": "MONTREAL", "province": "QC", "country": "CA", "postalCode": "H3H1E8", "twitter": "None", "instagram": "None", "facebook": "None", "youtube": "None", "website": "None", "summary": "None", "logo": "None", "latitude": 45.49389047625378, "longitude": -73.58406907475934}, "862905635RR0001": {"name": "LA FONDATION PJ 2004", "designationCode": "C", "categoryCode": "23", "address": "3450, BOULEVARD DU ROYAUME", "city": "JONQUIERE", "province": "QC", "country": "CA", "postalCode": "G7S5T2", "twitter": "None", "instagram": "None", "facebook": "None", "youtube": "None", "website": "None", "summary": "None", "logo": "None", "latitude": 48.41506592640589, "longitude": -71.22127360071539}, "107391930RR0001": {"name": "LA FONDATION POUR AIDER LES TRAVAILLEUSES ET LES TRAVAILLEURS ACCIDENTES (F.A.T.A.)", "designationCode": "C", "categoryCode": "29", "address": "6839A RUE DROLET", "city": "MONTREAL", "province": "QC", "country": "CA", "postalCode": "H2S2T1", "twitter": "None", "instagram": "None", "facebook": "None", "youtube": "None", "website": "None", "summary": "None", "logo": "None", "latitude": 45.53598767224107, "longitude": -73.6115378120771}, "119001527RR0001": {"name": "LA FONDATION POUR L'ENFANCE ET LA JEUNESSE DU SAGUENAY LAC ST-JEAN", "designationCode": "B", "categoryCode": "53", "address": "1109, AVENUE B\u00c9GIN", "city": "CHICOUTIMI", "province": "QC", "country": "CA", "postalCode": "G7H4P1", "twitter": "None", "instagram": "None", "facebook": "None", "youtube": "None", "website": "None", "summary": "None", "logo": "None", "latitude": 48.41098249379061, "longitude": -71.06844619658968}, "134620012RR0001": {"name": "LA FONDATION POUR LA CREATION DU CENTRE HELLENIQUE HOSPITALIER DE SOINS PROLONGES/THE FOUNDATION FOR THE CREATION OF THEHELLENIC CHRONIC CARE HOSPITAL", "designationCode": "A", "categoryCode": "03", "address": "7200 HUTCHISON, SUITE 202", "city": "MONTREAL", "province": "QC", "country": "CA", "postalCode": "H3N1Z2", "twitter": "None", "instagram": "None", "facebook": "None", "youtube": "None", "website": "None", "summary": "None", "logo": "None", "latitude": 45.52983005355194, "longitude": -73.62338057314321}, "890343494RR0001": {"name": "LA FONDATION POUR LE D\u00c9VELOPPEMENT DES R\u00c9GIONS", "designationCode": "C", "categoryCode": "09", "address": "256 4IEME RANG EST", "city": "NEW-RICHMOND", "province": "QC", "country": "CA", "postalCode": "G0C2B0", "twitter": "None", "instagram": "None", "facebook": "None", "youtube": "None", "website": "None", "summary": "None", "logo": "None", "latitude": 48.181191293409604, "longitude": -65.78275795311315}, "892327842RR0001": {"name": "LA FONDATION PUBLIQUE DU CLUB DES FEMMES UNIVERSITAIRES DE MONTREAL-THE UNIVERSITY WOMEN'S CLUB OF MONTREAL PUBLIC FOUND", "designationCode": "A", "categoryCode": "25", "address": "3529 ATWATER AVE", "city": "MONTREAL", "province": "QC", "country": "CA", "postalCode": "H3H1Y2", "twitter": "None", "instagram": "None", "facebook": "None", "youtube": "None", "website": "None", "summary": "None", "logo": "None", "latitude": 45.49269126395057, "longitude": -73.58965705297503}, "119001543RR0001": {"name": "LA FONDATION QU\u00c9B\u00c9COISE D'\u00c9DUCATION \u00c9CONOMIQUE", "designationCode": "C", "categoryCode": "21", "address": "555 BOUL RENE-LEVESQUE OUEST  11 ETAGE", "city": "MONTREAL", "province": "QC", "country": "CA", "postalCode": "H2Z1B1", "twitter": "None", "instagram": "None", "facebook": "None", "youtube": "None", "website": "None", "summary": "None", "logo": "None", "latitude": 45.503587288100825, "longitude": -73.56613900571281}, "130915713RR0001": {"name": "LA FONDATION QU\u00c9B\u00c9COISE POUR L'ALPHAB\u00c9TISATION", "designationCode": "C", "categoryCode": "21", "address": "5420 BOULEVARD SAINT-LAURENT  BUREAU 200", "city": "MONTR\u00c9AL", "province": "QC", "country": "CA", "postalCode": "H2T1S1", "twitter": "None", "instagram": "None", "facebook": "None", "youtube": "None", "website": "None", "summary": "None", "logo": "None", "latitude": 45.52525880792323, "longitude": -73.59773333348711}, "118921295RR0001": {"name": "LA FONDATION QU\u00c9B\u00c9COISE POUR LES JEUNES CONTREVENANTS", "designationCode": "C", "categoryCode": "09", "address": "206B-75 SIR-G ETIENNE-CARTIER", "city": "MONTREAL", "province": "QC", "country": "CA", "postalCode": "H4C3A1", "twitter": "None", "instagram": "None", "facebook": "None", "youtube": "None", "website": "None", "summary": "None", "logo": "None", "latitude": 45.467484000000056, "longitude": -73.60014949999993}, "898394572RR0001": {"name": "LA FONDATION QUEBECOISE DE L'EPILEPSIE", "designationCode": "A", "categoryCode": "13", "address": "2408 AV WEST HILL", "city": "MONTREAL", "province": "QC", "country": "CA", "postalCode": "H4B2S4", "twitter": "None", "instagram": "None", "facebook": "None", "youtube": "None", "website": "None", "summary": "None", "logo": "None", "latitude": 45.4645717241042, "longitude": -73.62421566584905}, "107391971RR0001": {"name": "LA FONDATION QUEBECOISE EN ENVIRONNEMENT", "designationCode": "C", "categoryCode": "59", "address": "9501 AV CHRISTOPHE-COLOMB     APP 203", "city": "MONTREAL", "province": "QC", "country": "CA", "postalCode": "H2M2E3", "twitter": "None", "instagram": "None", "facebook": "None", "youtube": "None", "website": "None", "summary": "None", "logo": "None", "latitude": 45.55806895813348, "longitude": -73.64685399567216}, "886077239RR0001": {"name": "LA FONDATION QUEBECOISE FAUNA/THE QUEBEC FAUNA FOUNDATION", "designationCode": "B", "categoryCode": "53", "address": "3802 CH. BELLERIVE, R.R. 2", "city": "CARIGNAN", "province": "QC", "country": "CA", "postalCode": "J3L3P9", "twitter": "None", "instagram": "None", "facebook": "None", "youtube": "None", "website": "None", "summary": "None", "logo": "None", "latitude": 45.43837396961543, "longitude": -73.34431156671161}, "868142530RR0001": {"name": "LA FONDATION QUEBECOISE POUR L'HOPITAL BARRIE MEMORIAL/THE QUEBEC FOUNDATION FOR BARRIE MEMORIAL HOSPITAL", "designationCode": "C", "categoryCode": "03", "address": "49 RUE GALE", "city": "ORMSTOWN", "province": "QC", "country": "CA", "postalCode": "J0S1K0", "twitter": "None", "instagram": "None", "facebook": "None", "youtube": "None", "website": "None", "summary": "None", "logo": "None", "latitude": 45.1253284283105, "longitude": -74.00021156937244}, "899415418RR0001": {"name": "LA FONDATION QUEBECOISE POUR LE PROGRES DE LA MEDECINE INTERNE", "designationCode": "C", "categoryCode": "11", "address": "2 COMPLEXE DESJARDINS         BUREAU 3000", "city": "MONTREAL", "province": "QC", "country": "CA", "postalCode": "H5B1G8", "twitter": "None", "instagram": "None", "facebook": "None", "youtube": "None", "website": "None", "summary": "None", "logo": "None", "latitude": 45.507177097337745, "longitude": -73.56605609845867}, "889832069RR0001": {"name": "LA FONDATION RAYMOND ET BEVERLY SACKLER/THE RAYMOND AND BEVERLY SACKLER FOUNDATION", "designationCode": "B", "categoryCode": "03", "address": "900-1000 DE LA GAUCHETIERE W", "city": "MONTREAL", "province": "QC", "country": "CA", "postalCode": "H3B5H4", "twitter": "None", "instagram": "None", "facebook": "None", "youtube": "None", "website": "None", "summary": "None", "logo": "None", "latitude": 45.49862215677963, "longitude": -73.56690186894203}, "873500474RR0001": {"name": "LA FONDATION RENAISSANCE DE LA R\u00c9GION DE L'AMIANTE", "designationCode": "C", "categoryCode": "09", "address": "189 RUE DUBE", "city": "THETFORD-MINES", "province": "QC", "country": "CA", "postalCode": "G6G3B6", "twitter": "None", "instagram": "None", "facebook": "None", "youtube": "None", "website": "None", "summary": "None", "logo": "None", "latitude": 46.091726359166564, "longitude": -71.29492843023232}, "101836773RR0001": {"name": "LA FONDATION RESSOURCES-JEUNESSE", "designationCode": "A", "categoryCode": "09", "address": "300-1001 BOUL. MAISONNEUVE O.", "city": "MONTREAL", "province": "QC", "country": "CA", "postalCode": "H3A3C8", "twitter": "None", "instagram": "None", "facebook": "None", "youtube": "None", "website": "None", "summary": "None", "logo": "None", "latitude": 45.50285076742921, "longitude": -73.57279059303691}, "119001592RR0001": {"name": "LA FONDATION RICHARD LEMIEUX THE RICHARD LEMIEUX FOUNDATION", "designationCode": "C", "categoryCode": "09", "address": "177 BOUL LEVESQUE E", "city": "LAVAL", "province": "QC", "country": "CA", "postalCode": "H7G1C5", "twitter": "None", "instagram": "None", "facebook": "None", "youtube": "None", "website": "None", "summary": "None", "logo": "None", "latitude": 45.56560994587115, "longitude": -73.67555906007281}, "890645195RR0001": {"name": "LA FONDATION RICHELIEU DES TROIS-LACS", "designationCode": "A", "categoryCode": "65", "address": "123 ST-PIERRE", "city": "RIGAUD", "province": "QC", "country": "CA", "postalCode": "J0P1P0", "twitter": "None", "instagram": "None", "facebook": "None", "youtube": "None", "website": "None", "summary": "None", "logo": "None", "latitude": 45.477601787639465, "longitude": -74.30307537186253}, "133570036RR0001": {"name": "LA FONDATION RITA HENRY-BREAULT ET GILLES BREAULT", "designationCode": "C", "categoryCode": "09", "address": "6646 RUE ST-DENIS", "city": "MONTREAL", "province": "QC", "country": "CA", "postalCode": "H2S2R9", "twitter": "None", "instagram": "None", "facebook": "None", "youtube": "None", "website": "None", "summary": "None", "logo": "None", "latitude": 45.53514682234995, "longitude": -73.6076328773442}, "141644450RR0001": {"name": "LA FONDATION ROBERT CHOQUETTE", "designationCode": "B", "categoryCode": "21", "address": "703-25 RUE VINCENT D'INDY", "city": "MONTREAL", "province": "QC", "country": "CA", "postalCode": "H2V2S8", "twitter": "None", "instagram": "None", "facebook": "None", "youtube": "None", "website": "None", "summary": "None", "logo": "None", "latitude": 45.5110338734204, "longitude": -73.6140321288013}, "119001618RR0001": {"name": "LA FONDATION ROCH STE-MARIE", "designationCode": "B", "categoryCode": "09", "address": "217 BERKLEY", "city": "ST-LAMBERT", "province": "QC", "country": "CA", "postalCode": "J4P3C9", "twitter": "None", "instagram": "None", "facebook": "None", "youtube": "None", "website": "None", "summary": "None", "logo": "None", "latitude": 45.513662428790035, "longitude": -73.51145201500364}, "107392029RR0001": {"name": "LA FONDATION ROGER TALBOT INC.", "designationCode": "C", "categoryCode": "11", "address": "107 RUE PRINCIPALE", "city": "GRANBY", "province": "QC", "country": "CA", "postalCode": "J2G2T9", "twitter": "None", "instagram": "None", "facebook": "None", "youtube": "None", "website": "None", "summary": "None", "logo": "None", "latitude": 45.39875068777759, "longitude": -72.72377214833524}, "887637155RR0001": {"name": "LA FONDATION S E R V I R BOIS-FRANCS INC", "designationCode": "A", "categoryCode": "03", "address": "C.P. 400", "city": "VICTORIAVILLE", "province": "QC", "country": "CA", "postalCode": "G6P6T2", "twitter": "None", "instagram": "None", "facebook": "None", "youtube": "None", "website": "None", "summary": "None", "logo": "None", "latitude": 46.05566100000006, "longitude": -71.95945399999994}, "871105300RR0001": {"name": "LA FONDATION SABRINA & CAMILLO D'ALESIO / SABRINA & CAMILLO D'ALESIO FOUNDATION", "designationCode": "A", "categoryCode": "03", "address": "303B BRIGHTON DRIVE", "city": "BEACONSFIELD", "province": "QC", "country": "CA", "postalCode": "H9W2L9", "twitter": "None", "instagram": "None", "facebook": "None", "youtube": "None", "website": "None", "summary": "None", "logo": "None", "latitude": 45.438633942311185, "longitude": -73.86727748621827}, "892012774RR0001": {"name": "LA FONDATION SACKLER/THE SACKLER FOUNDATION", "designationCode": "B", "categoryCode": "03", "address": "1000 DE LA GAUCHETIERE ST. W. SUITE 900", "city": "MONTREAL", "province": "QC", "country": "CA", "postalCode": "H3B5H4", "twitter": "None", "instagram": "None", "facebook": "None", "youtube": "None", "website": "None", "summary": "None", "logo": "None", "latitude": 45.49850304466516, "longitude": -73.56695768160344}, "102934320RR0001": {"name": "LA FONDATION SAINT-SACREMENT", "designationCode": "C", "categoryCode": "21", "address": "901 RUE ST-LOUIS", "city": "TERREBONNE", "province": "QC", "country": "CA", "postalCode": "J6W1K1", "twitter": "None", "instagram": "None", "facebook": "None", "youtube": "None", "website": "None", "summary": "None", "logo": "None", "latitude": 45.69490366893554, "longitude": -73.63751950998929}, "102934338RR0001": {"name": "LA FONDATION SANATORIUM BEGIN", "designationCode": "C", "categoryCode": "13", "address": "331 PLACE DU SANATORIUM", "city": "LAC ETCHEMIN", "province": "QC", "country": "CA", "postalCode": "G0R1S0", "twitter": "None", "instagram": "None", "facebook": "None", "youtube": "None", "website": "None", "summary": "None", "logo": "None", "latitude": 46.398704081597344, "longitude": -70.50064938481736}, "830736740RR0001": {"name": "LA FONDATION SANTE", "designationCode": "C", "categoryCode": "19", "address": "500, RUE SHERBROOKE OUEST     BUREAU 900", "city": "MONTREAL", "province": "QC", "country": "CA", "postalCode": "H3A3C6", "twitter": "None", "instagram": "None", "facebook": "None", "youtube": "None", "website": "None", "summary": "None", "logo": "None", "latitude": 45.50626470133894, "longitude": -73.57252223431867}, "872699699RR0001": {"name": "LA FONDATION SCOLAIRE SOUTH SHORE/THE SOUTH SHORE EDUCATIONAL FOUNDATION", "designationCode": "C", "categoryCode": "23", "address": "81 GREEN ST", "city": "SAINT-LAMBERT", "province": "QC", "country": "CA", "postalCode": "J4P1S4", "twitter": "None", "instagram": "None", "facebook": "None", "youtube": "None", "website": "None", "summary": "None", "logo": "None", "latitude": 45.502354163742915, "longitude": -73.51061525434262}, "890093255RR0001": {"name": "LA FONDATION SECOURS LA FEUILLERAIE", "designationCode": "B", "categoryCode": "13", "address": "540-1002 RUE SHERBROOKE O.", "city": "MONTREAL", "province": "QC", "country": "CA", "postalCode": "H3A3L6", "twitter": "None", "instagram": "None", "facebook": "None", "youtube": "None", "website": "None", "summary": "None", "logo": "None", "latitude": 45.50420051526984, "longitude": -73.57425178965626}, "890950942RR0001": {"name": "LA FONDATION SOLSTICE", "designationCode": "B", "categoryCode": "03", "address": "628 RUE DAVAAR", "city": "MONTREAL", "province": "QC", "country": "CA", "postalCode": "H2V3A9", "twitter": "None", "instagram": "None", "facebook": "None", "youtube": "None", "website": "None", "summary": "None", "logo": "None", "latitude": 45.51579777517466, "longitude": -73.61329178241667}, "862651106RR0001": {"name": "LA FONDATION ST-GABRIEL", "designationCode": "A", "categoryCode": "21", "address": "8 RUE TASSE", "city": "SAINTE-THERESE", "province": "QC", "country": "CA", "postalCode": "J7E1V3", "twitter": "None", "instagram": "None", "facebook": "None", "youtube": "None", "website": "None", "summary": "None", "logo": "None", "latitude": 45.64066660009208, "longitude": -73.83782962536749}, "119001691RR0001": {"name": "LA FONDATION ST-LOUIS-MAILLET INC.", "designationCode": "A", "categoryCode": "21", "address": "165 HEBERT BLVD", "city": "EDMUNDSTON", "province": "NB", "country": "CA", "postalCode": "E3V2S8", "twitter": "None", "instagram": "None", "facebook": "None", "youtube": "None", "website": "None", "summary": "None", "logo": "None", "latitude": 47.373065875270306, "longitude": -68.31615032676886}, "131482341RR0001": {"name": "LA FONDATION TRAVAIL SANS FRONTIERES INC.", "designationCode": "A", "categoryCode": "03", "address": "4535 BOUL SAINT-LAURENT", "city": "MONTREAL", "province": "QC", "country": "CA", "postalCode": "H2T1R2", "twitter": "None", "instagram": "None", "facebook": "None", "youtube": "None", "website": "None", "summary": "None", "logo": "None", "latitude": 45.52043514100632, "longitude": -73.58700896612623}, "846801348RR0001": {"name": "LA FONDATION TUTTI", "designationCode": "C", "categoryCode": "22", "address": "3440 AVE PATRICIA", "city": "MONTREAL", "province": "QC", "country": "CA", "postalCode": "H4B1Z1", "twitter": "None", "instagram": "None", "facebook": "None", "youtube": "None", "website": "None", "summary": "None", "logo": "None", "latitude": 45.455587461538606, "longitude": -73.64201323371215}, "886770684RR0001": {"name": "LA FONDATION UNI-AIDE", "designationCode": "C", "categoryCode": "09", "address": "313 BOUL. BONNE ESPERANCE     C.P. 10", "city": "RIVIERE ST. PAUL", "province": "QC", "country": "CA", "postalCode": "G0G2P0", "twitter": "None", "instagram": "None", "facebook": "None", "youtube": "None", "website": "None", "summary": "None", "logo": "None", "latitude": 51.4749181682592, "longitude": -57.70343164301079}, "119983369RR0001": {"name": "LA FONDATION UPA DU SAGUENAY-LAC ST-JEAN INC", "designationCode": "C", "categoryCode": "21", "address": "3635 PANET", "city": "JONQUIERE", "province": "QC", "country": "CA", "postalCode": "G7X8T7", "twitter": "None", "instagram": "None", "facebook": "None", "youtube": "None", "website": "None", "summary": "None", "logo": "None", "latitude": 48.40209762219446, "longitude": -71.2354579400714}, "869158931RR0001": {"name": "LA FONDATION VIOLA LEGER INC", "designationCode": "A", "categoryCode": "03", "address": "787 CH SHEDIAC", "city": "MONCTON", "province": "NB", "country": "CA", "postalCode": "E1A5X8", "twitter": "None", "instagram": "None", "facebook": "None", "youtube": "None", "website": "None", "summary": "None", "logo": "None", "latitude": 46.11204585541567, "longitude": -64.7332224296554}, "888655594RR0001": {"name": "LA FONDATION YANOFSKY LIEBMAN / THE YANOFSKY LIEBMAN FOUNDATION", "designationCode": "B", "categoryCode": "03", "address": "2611 LEGER STREET", "city": "LASALLE", "province": "QC", "country": "CA", "postalCode": "H8N2V9", "twitter": "None", "instagram": "None", "facebook": "None", "youtube": "None", "website": "None", "summary": "None", "logo": "None", "latitude": 45.44581222150713, "longitude": -73.62889799497968}, "105764500RR0001": {"name": "LA FONDATION YESHIVA GEDOLA INC.-YESHIVA GEDOLA FOUNDATION INC.", "designationCode": "B", "categoryCode": "23", "address": "6155 DEACON", "city": "MONTREAL", "province": "QC", "country": "CA", "postalCode": "H3S2P4", "twitter": "None", "instagram": "None", "facebook": "None", "youtube": "None", "website": "None", "summary": "None", "logo": "None", "latitude": 45.51243223261563, "longitude": -73.62056003494162}, "136016219RR0001": {"name": "LA FONDATION, SAULT-SAINT-LOUIS", "designationCode": "C", "categoryCode": "21", "address": "7161, RUE DAVID", "city": "VERDUN", "province": "QC", "country": "CA", "postalCode": "H4H2M1", "twitter": "None", "instagram": "None", "facebook": "None", "youtube": "None", "website": "None", "summary": "None", "logo": "None", "latitude": 45.438810275607345, "longitude": -73.58407975134152}, "799261284RR0001": {"name": "LA FONDATION: LE HAVRE DU LAC ST-JEAN", "designationCode": "A", "categoryCode": "13", "address": "923 RUE MCNICOLL", "city": "ROBERVAL", "province": "QC", "country": "CA", "postalCode": "G8H1X2", "twitter": "None", "instagram": "None", "facebook": "None", "youtube": "None", "website": "None", "summary": "None", "logo": "None", "latitude": 48.51863769360598, "longitude": -72.22711753531605}, "887326684RR0001": {"name": "LA FONTAINE DES EAUX VIVES", "designationCode": "B", "categoryCode": "39", "address": "5363 RUE DE LISIEUX", "city": "TROIS-RIVIERES", "province": "QC", "country": "CA", "postalCode": "G8Y5J5", "twitter": "None", "instagram": "None", "facebook": "None", "youtube": "None", "website": "None", "summary": "None", "logo": "None", "latitude": 46.344438587829735, "longitude": -72.60020808078927}}