{"107494429RR0001": {"name": "HOWARD HOUSE ASSOCIATION OF CAPE BRETON", "designationCode": "C", "categoryCode": "59", "address": "PO BOX 384  STATION \"A\"", "city": "SYDNEY", "province": "NS", "country": "CA", "postalCode": "B1P6H2", "twitter": "None", "instagram": "None", "facebook": "None", "youtube": "None", "website": "None", "summary": "None", "logo": "None", "latitude": 46.137372000000056, "longitude": -60.19552249999994}, "102407319RR0001": {"name": "HOWARD PARK CHILDREN'S CENTRE", "designationCode": "C", "categoryCode": "20", "address": "30 MARMADUKE STREET", "city": "TORONTO", "province": "ON", "country": "CA", "postalCode": "M6R1T2", "twitter": "None", "instagram": "None", "facebook": "None", "youtube": "None", "website": "None", "summary": "None", "logo": "None", "latitude": 43.65021427061567, "longitude": -79.45192921510183}, "886799592RR0001": {"name": "HOWARD S BILLINGS SCHOLARSHIP COMMITTEE INC", "designationCode": "C", "categoryCode": "21", "address": "903 BLVD DE LERY", "city": "LERY", "province": "QC", "country": "CA", "postalCode": "J6N1B8", "twitter": "None", "instagram": "None", "facebook": "None", "youtube": "None", "website": "None", "summary": "None", "logo": "None", "latitude": 45.3499059994804, "longitude": -73.79699375607339}, "118964428RR0002": {"name": "HOWARD TRINITY CHURCH", "designationCode": "C", "categoryCode": "30", "address": "41 LOWE ST", "city": "CHATHAM", "province": "ON", "country": "CA", "postalCode": "N7L1J6", "twitter": "None", "instagram": "None", "facebook": "None", "youtube": "None", "website": "None", "summary": "None", "logo": "None", "latitude": 42.409184395233396, "longitude": -82.19515926340232}, "892420746RR0001": {"name": "HOWE SOUND SAMARITANS' FOUNDATION", "designationCode": "B", "categoryCode": "03", "address": "1500 GEORGIA STREET WEST      BOX 62  SUITE 1250", "city": "VANCOUVER", "province": "BC", "country": "CA", "postalCode": "V6G2Z6", "twitter": "None", "instagram": "None", "facebook": "None", "youtube": "None", "website": "None", "summary": "None", "logo": "None", "latitude": 49.29013479542975, "longitude": -123.1300069287031}, "118964451RR0001": {"name": "HOWE SOUND STUDENTS LOAN ASSOCIATION", "designationCode": "C", "categoryCode": "21", "address": "#4-41449 GOVERNMENT RD", "city": "BRACKENDALE", "province": "BC", "country": "CA", "postalCode": "V8B0G4", "twitter": "None", "instagram": "None", "facebook": "None", "youtube": "None", "website": "None", "summary": "None", "logo": "None", "latitude": 49.75966702772826, "longitude": -123.1435990049334}, "118964469RR0001": {"name": "HOWE SOUND WOMEN'S CENTRE SOCIETY", "designationCode": "C", "categoryCode": "09", "address": "PO BOX 2052", "city": "SQUAMISH", "province": "BC", "country": "CA", "postalCode": "V8B0B4", "twitter": "None", "instagram": "None", "facebook": "None", "youtube": "None", "website": "None", "summary": "None", "logo": "None", "latitude": 49.69853700000006, "longitude": -123.15505399999994}, "889024196RR0001": {"name": "HOWICK FOUNDATION-FONDATION HOWICK", "designationCode": "B", "categoryCode": "03", "address": "P.O. BOX 120 VICTORIA STATION", "city": "WESTMOUNT", "province": "QC", "country": "CA", "postalCode": "H3Z2V4", "twitter": "None", "instagram": "None", "facebook": "None", "youtube": "None", "website": "None", "summary": "None", "logo": "None", "latitude": 45.477919592222804, "longitude": -73.60110808699714}, "118964485RR0001": {"name": "HOWICK PASTORAL CHARGE", "designationCode": "C", "categoryCode": "44", "address": "2 BRIDGE ST", "city": "HOWICK", "province": "QC", "country": "CA", "postalCode": "J0S1G0", "twitter": "None", "instagram": "None", "facebook": "None", "youtube": "None", "website": "None", "summary": "None", "logo": "None", "latitude": 45.18330523065373, "longitude": -73.84581498237063}, "128406915RR0001": {"name": "HOWIE CENTRE VOLUNTEER FIRE DEPARTMENT", "designationCode": "C", "categoryCode": "59", "address": "47 TOMETARY DR", "city": "HOWIE CENTER", "province": "NS", "country": "CA", "postalCode": "B1L1G3", "twitter": "None", "instagram": "None", "facebook": "None", "youtube": "None", "website": "None", "summary": "None", "logo": "None", "latitude": 46.069932791303486, "longitude": -60.27438969481806}, "118964493RR0001": {"name": "HOWLAND SENIOR CITIZEN'S CLUB", "designationCode": "C", "categoryCode": "56", "address": "BOX 86                        GD", "city": "SHEGUIANDAH", "province": "ON", "country": "CA", "postalCode": "P0P1W0", "twitter": "None", "instagram": "None", "facebook": "None", "youtube": "None", "website": "None", "summary": "None", "logo": "None", "latitude": 45.88444000000004, "longitude": -81.91707999999994}, "890491442RR0001": {"name": "HOYT BAPTIST CHURCH INC.", "designationCode": "C", "categoryCode": "31", "address": "118 SAND BROOK ROAD", "city": "WIRRAL", "province": "NB", "country": "CA", "postalCode": "E5L2K8", "twitter": "None", "instagram": "None", "facebook": "None", "youtube": "None", "website": "None", "summary": "None", "logo": "None", "latitude": 45.535901241630484, "longitude": -66.53479375302413}, "827285925RR0001": {"name": "HPV Awareness Corporation / Corporation de sensibilisation VPH", "designationCode": "C", "categoryCode": "11", "address": "C.P. 30536", "city": "BROSSARD", "province": "QC", "country": "CA", "postalCode": "J4Z3R6", "twitter": "None", "instagram": "None", "facebook": "None", "youtube": "None", "website": "None", "summary": "None", "logo": "None", "latitude": 45.45593700000006, "longitude": -73.46766049999994}, "140942103RR0001": {"name": "HRC CARE SOCIETY", "designationCode": "C", "categoryCode": "01", "address": "1653 140 ST", "city": "SURREY", "province": "BC", "country": "CA", "postalCode": "V4A4H1", "twitter": "None", "instagram": "None", "facebook": "None", "youtube": "None", "website": "None", "summary": "None", "logo": "None", "latitude": 49.03237228782534, "longitude": -122.83442878782533}, "870167616RR0001": {"name": "HRC FOUNDATION", "designationCode": "B", "categoryCode": "13", "address": "15569 92 AVE", "city": "SURREY", "province": "BC", "country": "CA", "postalCode": "V3R5V9", "twitter": "None", "instagram": "None", "facebook": "None", "youtube": "None", "website": "None", "summary": "None", "logo": "None", "latitude": 49.17014348211083, "longitude": -122.79098160935425}, "891609174RR0001": {"name": "HRM Crime Prevention Association", "designationCode": "C", "categoryCode": "59", "address": "121 ASPEN CRESCENT", "city": "LOWER SACKVILLE", "province": "NS", "country": "CA", "postalCode": "B4C1C9", "twitter": "None", "instagram": "None", "facebook": "None", "youtube": "None", "website": "None", "summary": "None", "logo": "None", "latitude": 44.77465004801204, "longitude": -63.679735866755294}, "131272585RR0001": {"name": "HRVATSKO FRANJEVACKO SREDISTE ONTARIO", "designationCode": "C", "categoryCode": "56", "address": "9118 W. CHURCHILL BLVD", "city": "NORVAL", "province": "ON", "country": "CA", "postalCode": "L0P1K0", "twitter": "None", "instagram": "None", "facebook": "None", "youtube": "None", "website": "None", "summary": "None", "logo": "None", "latitude": 43.64265902898199, "longitude": -79.85233303986541}, "102415338RR0001": {"name": "HS MINISTRIES, INC.", "designationCode": "C", "categoryCode": "43", "address": "4684 HOMEWOOD AVE", "city": "NIAGARA FALLS", "province": "ON", "country": "CA", "postalCode": "L2E4Y2", "twitter": "None", "instagram": "None", "facebook": "None", "youtube": "None", "website": "None", "summary": "None", "logo": "None", "latitude": 43.10609483819033, "longitude": -79.08310387910456}, "885205427RR0001": {"name": "HSEF RENAISSANCE ACADEMY", "designationCode": "C", "categoryCode": "20", "address": "1250-1500 W. GEORGIA STREET   BOX 62", "city": "VANCOUVER", "province": "BC", "country": "CA", "postalCode": "V6G2Z6", "twitter": "None", "instagram": "None", "facebook": "None", "youtube": "None", "website": "None", "summary": "None", "logo": "None", "latitude": 49.290187500000016, "longitude": -123.130035}, "886973239RR0001": {"name": "HSIN KU (VANCOUVER) BENEVOLENT AND EDUCATIONAL SOCIETY", "designationCode": "C", "categoryCode": "35", "address": "1615 ROBINSON RD", "city": "LINDELL BEACH", "province": "BC", "country": "CA", "postalCode": "V2R4X7", "twitter": "None", "instagram": "None", "facebook": "None", "youtube": "None", "website": "None", "summary": "None", "logo": "None", "latitude": 49.03020279205497, "longitude": -122.0420524043817}, "889874798RR0001": {"name": "HSU & HSIEH FOUNDATION", "designationCode": "B", "categoryCode": "23", "address": "4669 BELLEVUE DR", "city": "VANCOUVER", "province": "BC", "country": "CA", "postalCode": "V6R1E7", "twitter": "None", "instagram": "None", "facebook": "None", "youtube": "None", "website": "None", "summary": "None", "logo": "None", "latitude": 49.27303738080667, "longitude": -123.21387303508585}, "874010119RR0001": {"name": "HUB Cycling", "designationCode": "C", "categoryCode": "29", "address": "1-828 WEST 8TH AVENUE", "city": "VANCOUVER", "province": "BC", "country": "CA", "postalCode": "V5Z1E2", "twitter": "None", "instagram": "None", "facebook": "None", "youtube": "None", "website": "None", "summary": "None", "logo": "None", "latitude": 49.26421553952925, "longitude": -123.12287405398465}, "882506389RR0001": {"name": "HUBBARDS HERITAGE SOCIETY", "designationCode": "C", "categoryCode": "50", "address": "BOX 173", "city": "HUBBARDS", "province": "NS", "country": "CA", "postalCode": "B0J1T0", "twitter": "None", "instagram": "None", "facebook": "None", "youtube": "None", "website": "None", "summary": "None", "logo": "None", "latitude": 44.503890000000055, "longitude": -64.06356499999993}, "131459943RR0001": {"name": "HUBLE HOMESTEAD/GISCOME PORTAGE HERITAGE SOCIETY", "designationCode": "C", "categoryCode": "52", "address": "202 1685 3RD AVENUE", "city": "PRINCE GEORGE", "province": "BC", "country": "CA", "postalCode": "V2L3G5", "twitter": "None", "instagram": "None", "facebook": "None", "youtube": "None", "website": "None", "summary": "None", "logo": "None", "latitude": 53.918660881638594, "longitude": -122.75224354386494}, "898519632RR0001": {"name": "HUBOLDT AREA VINTAGE & ANTIQUE CLUB, INC.", "designationCode": "C", "categoryCode": "50", "address": "BOX 3187", "city": "HUMBOLDT", "province": "SK", "country": "CA", "postalCode": "S0K2A0", "twitter": "None", "instagram": "None", "facebook": "None", "youtube": "None", "website": "None", "summary": "None", "logo": "None", "latitude": 51.7871843348964, "longitude": -104.71638483007007}, "881778120RR0001": {"name": "HUBTOWN THEATRE SOCIETY", "designationCode": "C", "categoryCode": "22", "address": "POST OFFICE BOX 25081", "city": "TRURO", "province": "NS", "country": "CA", "postalCode": "B2N7B8", "twitter": "None", "instagram": "None", "facebook": "None", "youtube": "None", "website": "None", "summary": "None", "logo": "None", "latitude": 45.36602700000006, "longitude": -63.289042999999936}, "107495954RR0001": {"name": "HUCKLEBUG PRESCHOOL INC.", "designationCode": "C", "categoryCode": "01", "address": "45 ALMA ST                    PO BOX 51", "city": "NORWOOD", "province": "ON", "country": "CA", "postalCode": "K0L2V0", "twitter": "None", "instagram": "None", "facebook": "None", "youtube": "None", "website": "None", "summary": "None", "logo": "None", "latitude": 44.38076685258838, "longitude": -77.97338971039864}, "118964626RR0001": {"name": "HUDSON BAY ALLIED ARTS COUNCIL INC.", "designationCode": "C", "categoryCode": "22", "address": "BOX 1566", "city": "HUDSON BAY", "province": "SK", "country": "CA", "postalCode": "S0E0Y0", "twitter": "None", "instagram": "None", "facebook": "None", "youtube": "None", "website": "None", "summary": "None", "logo": "None", "latitude": 52.862685000000056, "longitude": -102.38924149999994}, "118964659RR0001": {"name": "HUDSON BAY AND DISTRICT CULTURAL SOCIETY", "designationCode": "C", "categoryCode": "50", "address": "PO BOX 931", "city": "HUDSON BAY", "province": "SK", "country": "CA", "postalCode": "S0E0Y0", "twitter": "None", "instagram": "None", "facebook": "None", "youtube": "None", "website": "None", "summary": "None", "logo": "None", "latitude": 52.862685000000056, "longitude": -102.38924149999994}, "118964634RR0001": {"name": "HUDSON BAY AND DISTRICT DONORS CHOICE", "designationCode": "A", "categoryCode": "05", "address": "PO BOX 1638", "city": "HUDSON BAY", "province": "SK", "country": "CA", "postalCode": "S0E0Y0", "twitter": "None", "instagram": "None", "facebook": "None", "youtube": "None", "website": "None", "summary": "None", "logo": "None", "latitude": 52.862685000000056, "longitude": -102.38924149999994}, "893623074RR0001": {"name": "HUDSON BAY FAMILY AND SUPPORT CENTRE INC.", "designationCode": "C", "categoryCode": "59", "address": "BOX 403", "city": "HUDSON BAY", "province": "SK", "country": "CA", "postalCode": "S0E0Y0", "twitter": "None", "instagram": "None", "facebook": "None", "youtube": "None", "website": "None", "summary": "None", "logo": "None", "latitude": 52.862685000000056, "longitude": -102.38924149999994}, "102419892RR0001": {"name": "HUDSON BAY HERITAGE PARK INC.", "designationCode": "C", "categoryCode": "52", "address": "BOX 37", "city": "HUDSON BAY", "province": "SK", "country": "CA", "postalCode": "S0E0Y0", "twitter": "None", "instagram": "None", "facebook": "None", "youtube": "None", "website": "None", "summary": "None", "logo": "None", "latitude": 52.862685000000056, "longitude": -102.38924149999994}, "857814644RR0001": {"name": "HUDSON BAY HOPE FOUNDATION INC.", "designationCode": "A", "categoryCode": "09", "address": "PO BOX 153", "city": "HUDSON BAY", "province": "SK", "country": "CA", "postalCode": "S0E0Y0", "twitter": "None", "instagram": "None", "facebook": "None", "youtube": "None", "website": "None", "summary": "None", "logo": "None", "latitude": 52.862685000000056, "longitude": -102.38924149999994}, "107496267RR0001": {"name": "HUDSON BAY LARGER PARISH", "designationCode": "C", "categoryCode": "44", "address": "BOX 246", "city": "HUDSON BAY", "province": "SK", "country": "CA", "postalCode": "S0E0Y0", "twitter": "None", "instagram": "None", "facebook": "None", "youtube": "None", "website": "None", "summary": "None", "logo": "None", "latitude": 52.862685000000056, "longitude": -102.38924149999994}, "119030666RR0005": {"name": "HUDSON BAY SEVENTH-DAY ADVENTIST CHURCH", "designationCode": "C", "categoryCode": "41", "address": "1004 VICTORIA AVENUE", "city": "SASKATOON", "province": "SK", "country": "CA", "postalCode": "S7N0Z8", "twitter": "None", "instagram": "None", "facebook": "None", "youtube": "None", "website": "None", "summary": "None", "logo": "None", "latitude": 52.115409, "longitude": -106.66240826773014}, "136203114RR0001": {"name": "HUDSON OUT OF SCHOOL CARE SOCIETY", "designationCode": "C", "categoryCode": "20", "address": "PO BOX 34489 STN D", "city": "VANCOUVER", "province": "BC", "country": "CA", "postalCode": "V6J4W4", "twitter": "None", "instagram": "None", "facebook": "None", "youtube": "None", "website": "None", "summary": "None", "logo": "None", "latitude": 49.26077700000006, "longitude": -123.14626099999992}, "889477394RR0001": {"name": "HUDSON UNITED CHURCH,", "designationCode": "C", "categoryCode": "44", "address": "513 MAIN ROAD", "city": "HUDSON", "province": "QC", "country": "CA", "postalCode": "J0P1H0", "twitter": "None", "instagram": "None", "facebook": "None", "youtube": "None", "website": "None", "summary": "None", "logo": "None", "latitude": 45.459978183465516, "longitude": -74.14469092693851}, "894595685RR0001": {"name": "HUDSON'S BAY COMPANY EMPLOYEES' CHARITABLE FUND", "designationCode": "B", "categoryCode": "75", "address": "698 LAWRENCE AVENUE WEST      3RD FLOOR", "city": "TORONTO", "province": "ON", "country": "CA", "postalCode": "M6A3A5", "twitter": "None", "instagram": "None", "facebook": "None", "youtube": "None", "website": "None", "summary": "None", "logo": "None", "latitude": 43.71567910687277, "longitude": -79.44621918096827}, "140803917RR0001": {"name": "HUDSON'S BAY COMPANY HISTORY FOUNDATION", "designationCode": "B", "categoryCode": "23", "address": "698 LAWRENCE AVENUE WEST      3RD FLOOR", "city": "TORONTO", "province": "ON", "country": "CA", "postalCode": "M6A3A5", "twitter": "None", "instagram": "None", "facebook": "None", "youtube": "None", "website": "None", "summary": "None", "logo": "None", "latitude": 43.71567910687277, "longitude": -79.44621918096827}, "121416879RR0001": {"name": "HUDSON'S HOPE HEALTH CARE & HOUSING SOCIETY DBA SILVER WILLOW COURT", "designationCode": "C", "categoryCode": "11", "address": "POST OFFICE BOX 19120", "city": "DELTA", "province": "BC", "country": "CA", "postalCode": "V4L2P8", "twitter": "None", "instagram": "None", "facebook": "None", "youtube": "None", "website": "None", "summary": "None", "logo": "None", "latitude": 49.08485400000005, "longitude": -123.05969449999994}, "118964774RR0001": {"name": "HUDSON'S HOPE PUBLIC LIBRARY ASSOCIATION", "designationCode": "C", "categoryCode": "50", "address": "BOX 269", "city": "HUDSON HOPE", "province": "BC", "country": "CA", "postalCode": "V0C1V0", "twitter": "None", "instagram": "None", "facebook": "None", "youtube": "None", "website": "None", "summary": "None", "logo": "None", "latitude": 56.02881000000008, "longitude": -121.90894999999995}, "874979305RR0001": {"name": "HUGGS CANADA", "designationCode": "C", "categoryCode": "01", "address": "1044 ST. GEORGES AVE", "city": "NORTH VANCOUVER", "province": "BC", "country": "CA", "postalCode": "V7L3H6", "twitter": "None", "instagram": "None", "facebook": "None", "youtube": "None", "website": "None", "summary": "None", "logo": "None", "latitude": 49.31730476372047, "longitude": -123.06932767310667}, "899502538RR0001": {"name": "HUGHENDEN & DISTRICT COMMUNITY HALL ASSOCIATION", "designationCode": "C", "categoryCode": "56", "address": "PO BOX 291", "city": "HUGHENDEN", "province": "AB", "country": "CA", "postalCode": "T0B2E0", "twitter": "None", "instagram": "None", "facebook": "None", "youtube": "None", "website": "None", "summary": "None", "logo": "None", "latitude": 52.51683000000003, "longitude": -110.98494999999997}, "898400288RR0001": {"name": "HUGHENDEN FIREFIGHTERS ASSOCIATION", "designationCode": "C", "categoryCode": "59", "address": "BOX 231", "city": "HUGHENDEN", "province": "AB", "country": "CA", "postalCode": "T0B2E0", "twitter": "None", "instagram": "None", "facebook": "None", "youtube": "None", "website": "None", "summary": "None", "logo": "None", "latitude": 52.51683000000003, "longitude": -110.98494999999997}, "866066624RR0001": {"name": "HUGHENDEN LAKEVIEW CEMETERY", "designationCode": "C", "categoryCode": "59", "address": "BOX 12", "city": "HUGHENDEN", "province": "AB", "country": "CA", "postalCode": "T0B2E0", "twitter": "None", "instagram": "None", "facebook": "None", "youtube": "None", "website": "None", "summary": "None", "logo": "None", "latitude": 52.51683000000003, "longitude": -110.98494999999997}, "871777942RR0001": {"name": "HUGHENDEN PENTECOSTAL CHURCH", "designationCode": "C", "categoryCode": "36", "address": "12140-103 AVENUE NW", "city": "EDMONTON", "province": "AB", "country": "CA", "postalCode": "T5G2J9", "twitter": "None", "instagram": "None", "facebook": "None", "youtube": "None", "website": "None", "summary": "None", "logo": "None", "latitude": 53.575749, "longitude": -113.49743926319982}, "118964824RR0001": {"name": "HUGHENDEN UNITED CHURCH", "designationCode": "C", "categoryCode": "44", "address": "PO BOX 234", "city": "HUGHENDEN", "province": "AB", "country": "CA", "postalCode": "T0B2E0", "twitter": "None", "instagram": "None", "facebook": "None", "youtube": "None", "website": "None", "summary": "None", "logo": "None", "latitude": 52.51683000000003, "longitude": -110.98494999999997}, "118964840RR0001": {"name": "HUGHSON STREET BAPTIST CHURCH", "designationCode": "C", "categoryCode": "31", "address": "383 HUGHSON STREET NORTH", "city": "HAMILTON", "province": "ON", "country": "CA", "postalCode": "L8L4N2", "twitter": "None", "instagram": "None", "facebook": "None", "youtube": "None", "website": "None", "summary": "None", "logo": "None", "latitude": 43.26803631141435, "longitude": -79.86265426037255}, "840712459RR0001": {"name": "HUGS for Africa", "designationCode": "C", "categoryCode": "09", "address": "2020 56 ST N.E.", "city": "CALGARY", "province": "AB", "country": "CA", "postalCode": "T1Y1W7", "twitter": "None", "instagram": "None", "facebook": "None", "youtube": "None", "website": "None", "summary": "None", "logo": "None", "latitude": 51.07074120843674, "longitude": -113.95264797181038}, "140574708RR0001": {"name": "HULL CHILD AND FAMILY FOUNDATION", "designationCode": "A", "categoryCode": "03", "address": "2266 WOODPARK AVE SW", "city": "CALGARY", "province": "AB", "country": "CA", "postalCode": "T2W2Z8", "twitter": "None", "instagram": "None", "facebook": "None", "youtube": "None", "website": "None", "summary": "None", "logo": "None", "latitude": 50.947249493219324, "longitude": -114.11354913142702}, "872195730RR0001": {"name": "HULLCAR & DEEP CREEK HALL SOCIETY", "designationCode": "C", "categoryCode": "56", "address": "2307 WOLFGANG ROAD", "city": "ARMSTRONG", "province": "BC", "country": "CA", "postalCode": "V0E1B4", "twitter": "None", "instagram": "None", "facebook": "None", "youtube": "None", "website": "None", "summary": "None", "logo": "None", "latitude": 50.52949764888353, "longitude": -119.19561033328745}, "107497125RR0001": {"name": "HUMAN CONCERN INTERNATIONAL (HCI)", "designationCode": "C", "categoryCode": "09", "address": "PO BOX 3984 STN C", "city": "OTTAWA", "province": "ON", "country": "CA", "postalCode": "K1Y4P2", "twitter": "None", "instagram": "None", "facebook": "None", "youtube": "None", "website": "None", "summary": "None", "logo": "None", "latitude": 45.42177300000006, "longitude": -75.69115999999994}, "132737099RR0001": {"name": "HUMAN ECOLOGY FOUNDATION OF CANADA", "designationCode": "C", "categoryCode": "11", "address": "BOX 33023", "city": "OTTAWA", "province": "ON", "country": "CA", "postalCode": "K2C3Y9", "twitter": "None", "instagram": "None", "facebook": "None", "youtube": "None", "website": "None", "summary": "None", "logo": "None", "latitude": 45.34429200000005, "longitude": -75.76434349999994}, "884958356RR0001": {"name": "HUMAN HITEC ASSIST SOCIETY", "designationCode": "C", "categoryCode": "21", "address": "505, 375 WEST 10TH AVE", "city": "VANCOUVER", "province": "BC", "country": "CA", "postalCode": "V5Y3V1", "twitter": "None", "instagram": "None", "facebook": "None", "youtube": "None", "website": "None", "summary": "None", "logo": "None", "latitude": 49.26221151154118, "longitude": -123.11247133236193}, "894549997RR0001": {"name": "HUMAN HORIZONS", "designationCode": "A", "categoryCode": "53", "address": "19 SALISBURY AVE", "city": "TORONTO", "province": "ON", "country": "CA", "postalCode": "M4X1C3", "twitter": "None", "instagram": "None", "facebook": "None", "youtube": "None", "website": "None", "summary": "None", "logo": "None", "latitude": 43.6670078531653, "longitude": -79.36669725644876}, "836252544RR0001": {"name": "HUMAN RIGHTS WATCH, INC.", "designationCode": "C", "categoryCode": "29", "address": "617 - 1 EGLINTON AVE E", "city": "TORONTO", "province": "ON", "country": "CA", "postalCode": "M4P3A1", "twitter": "None", "instagram": "None", "facebook": "None", "youtube": "None", "website": "None", "summary": "None", "logo": "None", "latitude": 43.7089009100495, "longitude": -79.38780176683875}, "866661408RR0001": {"name": "HUMANE ANIMAL RESCUE TEAM SOCIETY (HARTS)", "designationCode": "C", "categoryCode": "54", "address": "12348- 134 STREET", "city": "EDMONTON", "province": "AB", "country": "CA", "postalCode": "T5L1T9", "twitter": "None", "instagram": "None", "facebook": "None", "youtube": "None", "website": "None", "summary": "None", "logo": "None", "latitude": 53.577309666397305, "longitude": -113.55674461590378}, "118964899RR0001": {"name": "HUMANE MEDICINE INC.", "designationCode": "C", "categoryCode": "09", "address": "118 EGLINTON AVE WEST         SUITE 340", "city": "TORONTO", "province": "ON", "country": "CA", "postalCode": "M4R2G4", "twitter": "None", "instagram": "None", "facebook": "None", "youtube": "None", "website": "None", "summary": "None", "logo": "None", "latitude": 43.70603620901367, "longitude": -79.40187911977026}, "874876626RR0001": {"name": "HUMANE SOCIETY DAWSON", "designationCode": "C", "categoryCode": "54", "address": "P.O. BOX 1143", "city": "DAWSON CITY", "province": "YT", "country": "CA", "postalCode": "Y0B1G0", "twitter": "None", "instagram": "None", "facebook": "None", "youtube": "None", "website": "None", "summary": "None", "logo": "None", "latitude": 64.05386000000004, "longitude": -139.43884999999995}, "132562984RR0001": {"name": "HUMANE SOCIETY OF DURHAM REGION", "designationCode": "C", "categoryCode": "54", "address": "1505 WENTWORTH ST", "city": "WHITBY", "province": "ON", "country": "CA", "postalCode": "L1N0H9", "twitter": "None", "instagram": "None", "facebook": "None", "youtube": "None", "website": "None", "summary": "None", "logo": "None", "latitude": 43.85587646154168, "longitude": -78.90610062391573}, "131161010RR0001": {"name": "HUMANE SOCIETY-YUKON", "designationCode": "C", "categoryCode": "54", "address": "126 TLINGIT ST", "city": "WHITEHORSE", "province": "YT", "country": "CA", "postalCode": "Y1A6J2", "twitter": "None", "instagram": "None", "facebook": "None", "youtube": "None", "website": "None", "summary": "None", "logo": "None", "latitude": 60.742075466355374, "longitude": -135.0792230217087}, "850805326RR0001": {"name": "HUMANIST ASSOCIATION OF MANITOBA", "designationCode": "C", "categoryCode": "59", "address": "181 ST CROSS ST", "city": "WINNIPEG", "province": "MB", "country": "CA", "postalCode": "R2W3Y4", "twitter": "None", "instagram": "None", "facebook": "None", "youtube": "None", "website": "None", "summary": "None", "logo": "None", "latitude": 49.92338122730684, "longitude": -97.11854191283409}, "869527606RR0001": {"name": "HUMANIST ASSOCIATION OF TORONTO INC.", "designationCode": "C", "categoryCode": "99", "address": "P.O. BOX 68559                360A BLOOR ST WEST", "city": "TORONTO", "province": "ON", "country": "CA", "postalCode": "M5S1X1", "twitter": "None", "instagram": "None", "facebook": "None", "youtube": "None", "website": "None", "summary": "None", "logo": "None", "latitude": 43.6665077600754, "longitude": -79.40499142685711}, "872035217RR0001": {"name": "HUMANISTIC LEADERSHIP INSTITUTE", "designationCode": "C", "categoryCode": "20", "address": "11 WATFORD STREET", "city": "WHITBY", "province": "ON", "country": "CA", "postalCode": "L1M1C8", "twitter": "None", "instagram": "None", "facebook": "None", "youtube": "None", "website": "None", "summary": "None", "logo": "None", "latitude": 43.95752647905242, "longitude": -78.94754906477601}, "894313998RR0001": {"name": "HUMANITARIAN AID RESPONSE TEAM SOCIETY (HART)", "designationCode": "C", "categoryCode": "09", "address": "106 - 90 FREEPORT BLVD NE", "city": "CALGARY", "province": "AB", "country": "CA", "postalCode": "T3J5J9", "twitter": "None", "instagram": "None", "facebook": "None", "youtube": "None", "website": "None", "summary": "None", "logo": "None", "latitude": 51.15088148211083, "longitude": -114.01245369317328}, "857428361RR0001": {"name": "HUMANITAS FOUNDATION", "designationCode": "A", "categoryCode": "03", "address": "810 - 570 GRANVILLE ST", "city": "VANCOUVER", "province": "BC", "country": "CA", "postalCode": "V6C3P1", "twitter": "None", "instagram": "None", "facebook": "None", "youtube": "None", "website": "None", "summary": "None", "logo": "None", "latitude": 49.28389665332692, "longitude": -123.11594555978436}, "846538981RR0001": {"name": "HUMANITAS GROUP", "designationCode": "C", "categoryCode": "22", "address": "810 - 570 GRANVILLE ST", "city": "VANCOUVER", "province": "BC", "country": "CA", "postalCode": "V6C3P1", "twitter": "None", "instagram": "None", "facebook": "None", "youtube": "None", "website": "None", "summary": "None", "logo": "None", "latitude": 49.28389665332692, "longitude": -123.11594555978436}, "118964956RR0001": {"name": "HUMBER BLVD. BAPTIST CHURCH", "designationCode": "C", "categoryCode": "31", "address": "5 LOUVAIN STREET", "city": "TORONTO", "province": "ON", "country": "CA", "postalCode": "M6N4W7", "twitter": "None", "instagram": "None", "facebook": "None", "youtube": "None", "website": "None", "summary": "None", "logo": "None", "latitude": 43.68082251624438, "longitude": -79.48259145614291}, "107497273RR0001": {"name": "HUMBER COLLEGE OF APPLIED ARTS AND TECHNOLOGY", "designationCode": "C", "categoryCode": "20", "address": "205 HUMBER COLLEGE BLVD", "city": "TORONTO", "province": "ON", "country": "CA", "postalCode": "M9W5L7", "twitter": "None", "instagram": "None", "facebook": "None", "youtube": "None", "website": "None", "summary": "None", "logo": "None", "latitude": 43.72983369286928, "longitude": -79.60472424156168}, "108227125RR0001": {"name": "HUMBER COMMUNITY SENIORS' SERVICES INC.", "designationCode": "C", "categoryCode": "09", "address": "1167 WESTON ROAD", "city": "WESTON", "province": "ON", "country": "CA", "postalCode": "M6M4P5", "twitter": "None", "instagram": "None", "facebook": "None", "youtube": "None", "website": "None", "summary": "None", "logo": "None", "latitude": 43.68731628310917, "longitude": -79.49025071328415}, "118964980RR0001": {"name": "HUMBER RIVER REGIONAL VOLUNTEER ASSOCIATION", "designationCode": "C", "categoryCode": "13", "address": "1235 WILSON AVE", "city": "NORTH YORK", "province": "ON", "country": "CA", "postalCode": "M3M0B2", "twitter": "None", "instagram": "None", "facebook": "None", "youtube": "None", "website": "None", "summary": "None", "logo": "None", "latitude": 43.72504867981632, "longitude": -79.48894099159752}, "868409863RR0001": {"name": "HUMBER UNITED CHURCH,", "designationCode": "C", "categoryCode": "44", "address": "P.O. BOX 424", "city": "CORNER BROOK", "province": "NL", "country": "CA", "postalCode": "A2H6E3", "twitter": "None", "instagram": "None", "facebook": "None", "youtube": "None", "website": "None", "summary": "None", "logo": "None", "latitude": 48.95097900000006, "longitude": -57.950103499999926}, "837852920RR0001": {"name": "HUMBER VALLEY BAPTIST CHURCH INC.", "designationCode": "C", "categoryCode": "31", "address": "57-59 HIGH ST.", "city": "DEER LAKE", "province": "NL", "country": "CA", "postalCode": "A8A1N4", "twitter": "None", "instagram": "None", "facebook": "None", "youtube": "None", "website": "None", "summary": "None", "logo": "None", "latitude": 49.17804559935554, "longitude": -57.41691674913758}, "896363363RR0001": {"name": "HUMBER VALLEY FOUNDATION", "designationCode": "A", "categoryCode": "43", "address": "5 ELSTREE ROAD", "city": "TORONTO", "province": "ON", "country": "CA", "postalCode": "M9A3Y9", "twitter": "None", "instagram": "None", "facebook": "None", "youtube": "None", "website": "None", "summary": "None", "logo": "None", "latitude": 43.6670677410411, "longitude": -79.52994987743112}, "897933495RR0001": {"name": "HUMBER VALLEY HERITAGE SOCIETY INC.", "designationCode": "C", "categoryCode": "50", "address": "2-44 TRANS CANADA HIGHWAY", "city": "DEER LAKE", "province": "NL", "country": "CA", "postalCode": "A8A2E4", "twitter": "None", "instagram": "None", "facebook": "None", "youtube": "None", "website": "None", "summary": "None", "logo": "None", "latitude": 49.20593543171663, "longitude": -57.371851377974814}, "130633167RR0001": {"name": "HUMBER VALLEY UNITED CHURCH,", "designationCode": "C", "categoryCode": "44", "address": "76 ANGLESEY BLVD.", "city": "ETOBICOKE", "province": "ON", "country": "CA", "postalCode": "M9A3C1", "twitter": "None", "instagram": "None", "facebook": "None", "youtube": "None", "website": "None", "summary": "None", "logo": "None", "latitude": 43.66481529672783, "longitude": -79.52904555369618}, "118964964RR0001": {"name": "HUMBERCREST UNITED CHURCH", "designationCode": "C", "categoryCode": "44", "address": "16 BABY POINT RD", "city": "TORONTO", "province": "ON", "country": "CA", "postalCode": "M6S2E9", "twitter": "None", "instagram": "None", "facebook": "None", "youtube": "None", "website": "None", "summary": "None", "logo": "None", "latitude": 43.65809617294684, "longitude": -79.48980679851682}, "888094547RR0001": {"name": "HUMBERVALE PARENT TEACHER ASSOCIATION", "designationCode": "C", "categoryCode": "21", "address": "1447 ROYAL YORK RD", "city": "ETOBICOKE", "province": "ON", "country": "CA", "postalCode": "M9P3V8", "twitter": "None", "instagram": "None", "facebook": "None", "youtube": "None", "website": "None", "summary": "None", "logo": "None", "latitude": 43.68634645158394, "longitude": -79.52833040417843}, "118965037RR0001": {"name": "HUMBERVALE PARK BAPTIST CHURCH", "designationCode": "C", "categoryCode": "31", "address": "763 ROYAL YORK ROAD", "city": "TORONTO", "province": "ON", "country": "CA", "postalCode": "M8Y2T3", "twitter": "None", "instagram": "None", "facebook": "None", "youtube": "None", "website": "None", "summary": "None", "logo": "None", "latitude": 43.63718761394188, "longitude": -79.50713136730356}, "107497497RR0001": {"name": "HUMBERVALE UNITED CHURCH", "designationCode": "C", "categoryCode": "44", "address": "1447 ROYAL YORK RD", "city": "ETOBICOKE", "province": "ON", "country": "CA", "postalCode": "M9P3B2", "twitter": "None", "instagram": "None", "facebook": "None", "youtube": "None", "website": "None", "summary": "None", "logo": "None", "latitude": 43.68634645158394, "longitude": -79.52833040417843}, "868158445RR0001": {"name": "HUMBOLDT AND DISTRICT MUSEUM AND GALLERY PUBLIC FOUNDATION", "designationCode": "C", "categoryCode": "55", "address": "MAIN STREET AND SIXTH AVE     PO BOX 2349", "city": "HUMBOLDT", "province": "SK", "country": "CA", "postalCode": "S0K2A0", "twitter": "None", "instagram": "None", "facebook": "None", "youtube": "None", "website": "None", "summary": "None", "logo": "None", "latitude": 52.198812000000004, "longitude": -105.122925}, "107497604RR0001": {"name": "HUMBOLDT BIBLE CHURCH", "designationCode": "C", "categoryCode": "34", "address": "BOX 568", "city": "HUMBOLDT", "province": "SK", "country": "CA", "postalCode": "S0K2A0", "twitter": "None", "instagram": "None", "facebook": "None", "youtube": "None", "website": "None", "summary": "None", "logo": "None", "latitude": 51.7871843348964, "longitude": -104.71638483007007}, "107497620RR0001": {"name": "HUMBOLDT CO-OPERATIVE DAYCARE CENTRE", "designationCode": "C", "categoryCode": "01", "address": "BOX 1976", "city": "HUMBOLDT", "province": "SK", "country": "CA", "postalCode": "S0K2A0", "twitter": "None", "instagram": "None", "facebook": "None", "youtube": "None", "website": "None", "summary": "None", "logo": "None", "latitude": 51.7871843348964, "longitude": -104.71638483007007}, "118965110RR0001": {"name": "HUMBOLDT CO-OPERATIVE PLAYSCHOOL", "designationCode": "C", "categoryCode": "20", "address": "BOX 1568", "city": "HUMBOLDT", "province": "SK", "country": "CA", "postalCode": "S0K2A0", "twitter": "None", "instagram": "None", "facebook": "None", "youtube": "None", "website": "None", "summary": "None", "logo": "None", "latitude": 51.7871843348964, "longitude": -104.71638483007007}, "888012374RR0001": {"name": "HUMBOLDT EMERGENCY RELIEF ORGANIZATION INC.", "designationCode": "C", "categoryCode": "19", "address": "PO BOX 3503", "city": "HUMBOLDT", "province": "SK", "country": "CA", "postalCode": "S0K2A0", "twitter": "None", "instagram": "None", "facebook": "None", "youtube": "None", "website": "None", "summary": "None", "logo": "None", "latitude": 51.7871843348964, "longitude": -104.71638483007007}, "894554146RR0001": {"name": "HUMBOLDT KINSMEN HOUSING CORP", "designationCode": "C", "categoryCode": "09", "address": "BOX 2786", "city": "HUMBOLDT", "province": "SK", "country": "CA", "postalCode": "S0K2A0", "twitter": "None", "instagram": "None", "facebook": "None", "youtube": "None", "website": "None", "summary": "None", "logo": "None", "latitude": 51.7871843348964, "longitude": -104.71638483007007}, "118965136RR0001": {"name": "HUMBOLDT MUSIC FESTIVAL ASSOCIATION", "designationCode": "C", "categoryCode": "22", "address": "BOX 2582", "city": "HUMBOLDT", "province": "SK", "country": "CA", "postalCode": "S0K2A0", "twitter": "None", "instagram": "None", "facebook": "None", "youtube": "None", "website": "None", "summary": "None", "logo": "None", "latitude": 51.7871843348964, "longitude": -104.71638483007007}, "118965144RR0001": {"name": "HUMBOLDT PASTORAL CHARGE,", "designationCode": "C", "categoryCode": "44", "address": "BOX 2050", "city": "HUMBOLDT", "province": "SK", "country": "CA", "postalCode": "S0K2A0", "twitter": "None", "instagram": "None", "facebook": "None", "youtube": "None", "website": "None", "summary": "None", "logo": "None", "latitude": 51.7871843348964, "longitude": -104.71638483007007}, "887322667RR0001": {"name": "HUMBOLDT RURAL NORTH BAND", "designationCode": "C", "categoryCode": "22", "address": "BOX 267", "city": "LAKE LENORE", "province": "SK", "country": "CA", "postalCode": "S0K2J0", "twitter": "None", "instagram": "None", "facebook": "None", "youtube": "None", "website": "None", "summary": "None", "logo": "None", "latitude": 52.39781000000005, "longitude": -104.98035999999996}, "118965177RR0001": {"name": "HUMEWOOD HOUSE ASSOCIATION", "designationCode": "C", "categoryCode": "01", "address": "40 HUMEWOOD DR", "city": "TORONTO", "province": "ON", "country": "CA", "postalCode": "M6C2W4", "twitter": "None", "instagram": "None", "facebook": "None", "youtube": "None", "website": "None", "summary": "None", "logo": "None", "latitude": 43.683887763835024, "longitude": -79.42697002792981}, "861595973RR0001": {"name": "HUMMINGBIRD FOUNDATION", "designationCode": "B", "categoryCode": "03", "address": "339 - 14032 23 AVE NW", "city": "EDMONTON", "province": "AB", "country": "CA", "postalCode": "T6R3L6", "twitter": "None", "instagram": "None", "facebook": "None", "youtube": "None", "website": "None", "summary": "None", "logo": "None", "latitude": 53.45416800000001, "longitude": -113.56236225}, "802052951RR0001": {"name": "HUMMINGBIRD MINISTRIES", "designationCode": "C", "categoryCode": "37", "address": "7111 NO 2 ROAD", "city": "RICHMOND", "province": "BC", "country": "CA", "postalCode": "V7C3L7", "twitter": "None", "instagram": "None", "facebook": "None", "youtube": "None", "website": "None", "summary": "None", "logo": "None", "latitude": 49.161698779906516, "longitude": -123.15890448727538}, "865362792RR0001": {"name": "HUMUH: JEWELED PATH OF LIVING WISDOM", "designationCode": "C", "categoryCode": "35", "address": "P.O.BOX 149 E. KETTLE RIVER RD", "city": "WESTBRIDGE", "province": "BC", "country": "CA", "postalCode": "V0H2B0", "twitter": "None", "instagram": "None", "facebook": "None", "youtube": "None", "website": "None", "summary": "None", "logo": "None", "latitude": 49.16978001124601, "longitude": -118.97640299662619}, "895675742RR0001": {"name": "HUNGARIAN CANADIAN COMMUNITY SERVICES (ONTARIO)", "designationCode": "C", "categoryCode": "09", "address": "141 SUNRISE AVE", "city": "NORTH YORK", "province": "ON", "country": "CA", "postalCode": "M4A1A9", "twitter": "None", "instagram": "None", "facebook": "None", "youtube": "None", "website": "None", "summary": "None", "logo": "None", "latitude": 43.717234010163665, "longitude": -79.31166069183016}, "118965219RR0001": {"name": "HUNGARIAN CANADIAN CULTURAL CENTRE-(HUNGARIAN HOUSE)", "designationCode": "C", "categoryCode": "22", "address": "141 SUNRISE AVE", "city": "NORTH YORK", "province": "ON", "country": "CA", "postalCode": "M4A1A9", "twitter": "None", "instagram": "None", "facebook": "None", "youtube": "None", "website": "None", "summary": "None", "logo": "None", "latitude": 43.717234010163665, "longitude": -79.31166069183016}, "118965276RR0001": {"name": "HUNGARIAN EVANGELICAL LUTHERAN CHURCH OF OUR REDEEMER", "designationCode": "C", "categoryCode": "32", "address": "116 BOND ST", "city": "TORONTO", "province": "ON", "country": "CA", "postalCode": "M5B1X8", "twitter": "None", "instagram": "None", "facebook": "None", "youtube": "None", "website": "None", "summary": "None", "logo": "None", "latitude": 43.65701210046747, "longitude": -79.37862481046204}, "118965292RR0001": {"name": "HUNGARIAN HELICON FOUNDATION (ONTARIO)", "designationCode": "A", "categoryCode": "55", "address": "330 - 500 HOOD RD", "city": "MARKHAM", "province": "ON", "country": "CA", "postalCode": "L3R9Z3", "twitter": "None", "instagram": "None", "facebook": "None", "youtube": "None", "website": "None", "summary": "None", "logo": "None", "latitude": 43.83223400193324, "longitude": -79.32950904059618}, "892949967RR0001": {"name": "HUNGARIAN KIDNEY ASSOCIATION OF CANADA", "designationCode": "C", "categoryCode": "21", "address": "36 ELDERWOOD DRIVE", "city": "TORONTO", "province": "ON", "country": "CA", "postalCode": "M5P1W7", "twitter": "None", "instagram": "None", "facebook": "None", "youtube": "None", "website": "None", "summary": "None", "logo": "None", "latitude": 43.69606528893755, "longitude": -79.41909509853421}, "107497992RR0001": {"name": "HUNGARIAN PRESBYTERIAN CHURCH IN MONTREAL", "designationCode": "C", "categoryCode": "37", "address": "385 DEGUIRE BLVD              APT # 606", "city": "MONTREAL", "province": "QC", "country": "CA", "postalCode": "H4N0A7", "twitter": "None", "instagram": "None", "facebook": "None", "youtube": "None", "website": "None", "summary": "None", "logo": "None", "latitude": 45.52963730114256, "longitude": -73.67915679990182}, "897223830RR0001": {"name": "HUNGARIAN REFORMED CHURCH OF VANCOUVER", "designationCode": "C", "categoryCode": "39", "address": "7159 MCKAY AVENUE", "city": "BURNABY", "province": "BC", "country": "CA", "postalCode": "V5J3S6", "twitter": "None", "instagram": "None", "facebook": "None", "youtube": "None", "website": "None", "summary": "None", "logo": "None", "latitude": 49.218606031363606, "longitude": -123.00877600833854}}