{"129892659RR0085": {"name": "COMMUNITY OF CHRIST AMHERSTBURG CONGREGATION", "designationCode": "C", "categoryCode": "39", "address": "5011 COUNTY ROAD 18           RR 1", "city": "AMHERSTBURG", "province": "ON", "country": "CA", "postalCode": "N9V2Y7", "twitter": "None", "instagram": "None", "facebook": "None", "youtube": "None", "website": "None", "summary": "None", "logo": "None", "latitude": 42.09805839554136, "longitude": -83.04863631342158}, "129892659RR0055": {"name": "COMMUNITY OF CHRIST BARRIE CONGREGATION", "designationCode": "C", "categoryCode": "39", "address": "1054 MACLEAN ST", "city": "INNISFIL", "province": "ON", "country": "CA", "postalCode": "L9S1V9", "twitter": "None", "instagram": "None", "facebook": "None", "youtube": "None", "website": "None", "summary": "None", "logo": "None", "latitude": 44.3063298593108, "longitude": -79.5464927196608}, "129892659RR0004": {"name": "COMMUNITY OF CHRIST BLENHEIM CONGREGATION", "designationCode": "C", "categoryCode": "39", "address": "PO BOX 171", "city": "ERIEAU", "province": "ON", "country": "CA", "postalCode": "N0P1N0", "twitter": "None", "instagram": "None", "facebook": "None", "youtube": "None", "website": "None", "summary": "None", "logo": "None", "latitude": 42.264972858279165, "longitude": -81.94473817023653}, "129892659RR0019": {"name": "COMMUNITY OF CHRIST BRYDGES STREET CONGREGATION", "designationCode": "C", "categoryCode": "39", "address": "1549 HORSESHOE CRES", "city": "LONDON", "province": "ON", "country": "CA", "postalCode": "N5X0L3", "twitter": "None", "instagram": "None", "facebook": "None", "youtube": "None", "website": "None", "summary": "None", "logo": "None", "latitude": 43.030943211882644, "longitude": -81.24922726203808}, "129892659RR0064": {"name": "COMMUNITY OF CHRIST CALGARY CONGREGATION", "designationCode": "C", "categoryCode": "39", "address": "P.O. BOX 71113 SILVER SPRINGS", "city": "CALGARY", "province": "AB", "country": "CA", "postalCode": "T3B5K2", "twitter": "None", "instagram": "None", "facebook": "None", "youtube": "None", "website": "None", "summary": "None", "logo": "None", "latitude": 51.10348224324807, "longitude": -114.18908464889931}, "129892659RR0049": {"name": "COMMUNITY OF CHRIST CAMBRIDGE CONGREGATION", "designationCode": "C", "categoryCode": "39", "address": "330 SUGAR MAPLE CRT", "city": "CAMBRIDGE", "province": "ON", "country": "CA", "postalCode": "N1R5S6", "twitter": "None", "instagram": "None", "facebook": "None", "youtube": "None", "website": "None", "summary": "None", "logo": "None", "latitude": 43.31407741444928, "longitude": -80.29192079987315}, "129892659RR0080": {"name": "COMMUNITY OF CHRIST CHILLIWACK CONGREGATION", "designationCode": "C", "categoryCode": "39", "address": "303 - 46005 BOLE AVE", "city": "CHILLIWACK", "province": "BC", "country": "CA", "postalCode": "V2P7W7", "twitter": "None", "instagram": "None", "facebook": "None", "youtube": "None", "website": "None", "summary": "None", "logo": "None", "latitude": 49.173027165182695, "longitude": -121.95235947425438}, "129892659RR0016": {"name": "COMMUNITY OF CHRIST CORINTH CONGREGATION", "designationCode": "C", "categoryCode": "39", "address": "794277 VANDECAR LINE", "city": "WOODSTOCK", "province": "ON", "country": "CA", "postalCode": "N4S7V8", "twitter": "None", "instagram": "None", "facebook": "None", "youtube": "None", "website": "None", "summary": "None", "logo": "None", "latitude": 43.08537125422707, "longitude": -80.61418602778558}, "129892659RR0002": {"name": "COMMUNITY OF CHRIST EASTERN CANADA MISSION CENTRE", "designationCode": "C", "categoryCode": "39", "address": "129 - 355 ELMIRA RD N", "city": "GUELPH", "province": "ON", "country": "CA", "postalCode": "N1K1S5", "twitter": "None", "instagram": "None", "facebook": "None", "youtube": "None", "website": "None", "summary": "None", "logo": "None", "latitude": 43.5333297891584, "longitude": -80.30727746752473}, "129892659RR0063": {"name": "COMMUNITY OF CHRIST EDMONTON", "designationCode": "C", "categoryCode": "39", "address": "2341 138A AVE NW", "city": "EDMONTON", "province": "AB", "country": "CA", "postalCode": "T5Y1B9", "twitter": "None", "instagram": "None", "facebook": "None", "youtube": "None", "website": "None", "summary": "None", "logo": "None", "latitude": 53.601090539529245, "longitude": -113.37905288773155}, "129892659RR0045": {"name": "COMMUNITY OF CHRIST ELORA CONGREGATION", "designationCode": "C", "categoryCode": "39", "address": "78 JAMES STREET", "city": "ELORA", "province": "ON", "country": "CA", "postalCode": "N0B1S0", "twitter": "None", "instagram": "None", "facebook": "None", "youtube": "None", "website": "None", "summary": "None", "logo": "None", "latitude": 43.68239962177229, "longitude": -80.43130075856986}, "129892659RR0003": {"name": "COMMUNITY OF CHRIST ERIE BEACH", "designationCode": "C", "categoryCode": "39", "address": "7800 PAIN COURT LINE          RR 1", "city": "PAIN COURT", "province": "ON", "country": "CA", "postalCode": "N0P1Z0", "twitter": "None", "instagram": "None", "facebook": "None", "youtube": "None", "website": "None", "summary": "None", "logo": "None", "latitude": 42.414390367736246, "longitude": -82.26717399096897}, "129892659RR0046": {"name": "COMMUNITY OF CHRIST GRAND VALLEY CONGREGATION", "designationCode": "C", "categoryCode": "39", "address": "23 MILL ST E", "city": "GRAND VALLEY", "province": "ON", "country": "CA", "postalCode": "L9W5V8", "twitter": "None", "instagram": "None", "facebook": "None", "youtube": "None", "website": "None", "summary": "None", "logo": "None", "latitude": 43.89771914721999, "longitude": -80.31392193867107}, "129892659RR0081": {"name": "COMMUNITY OF CHRIST GREATER VANCOUVER CONGREGATION", "designationCode": "C", "categoryCode": "39", "address": "3333 KASLO STREET", "city": "VANCOUVER", "province": "BC", "country": "CA", "postalCode": "V5M3H3", "twitter": "None", "instagram": "None", "facebook": "None", "youtube": "None", "website": "None", "summary": "None", "logo": "None", "latitude": 49.25466995337297, "longitude": -123.04709346505838}, "129892659RR0057": {"name": "COMMUNITY OF CHRIST GTA WEST", "designationCode": "C", "categoryCode": "39", "address": "84 OLD BURNHAMTHORPE RD", "city": "ETOBICOKE", "province": "ON", "country": "CA", "postalCode": "M9C3J7", "twitter": "None", "instagram": "None", "facebook": "None", "youtube": "None", "website": "None", "summary": "None", "logo": "None", "latitude": 43.64198590149445, "longitude": -79.5815134486984}, "129892659RR0047": {"name": "COMMUNITY OF CHRIST GUELPH CONGREGATION", "designationCode": "C", "categoryCode": "39", "address": "8 MITCHELL ST", "city": "GUELPH", "province": "ON", "country": "CA", "postalCode": "N1E4J1", "twitter": "None", "instagram": "None", "facebook": "None", "youtube": "None", "website": "None", "summary": "None", "logo": "None", "latitude": 43.5504211090658, "longitude": -80.25073649890348}, "129892659RR0023": {"name": "COMMUNITY OF CHRIST HAMILTON CONGREGATION", "designationCode": "C", "categoryCode": "39", "address": "817 UPPER SHERMAN AVE", "city": "HAMILTON", "province": "ON", "country": "CA", "postalCode": "L8V3M9", "twitter": "None", "instagram": "None", "facebook": "None", "youtube": "None", "website": "None", "summary": "None", "logo": "None", "latitude": 43.22208790729418, "longitude": -79.85160858309789}, "129892659RR0090": {"name": "COMMUNITY OF CHRIST HILLS OF PEACE", "designationCode": "C", "categoryCode": "56", "address": "P.O. BOX 345                  224-6655 178 ST NW", "city": "EDMONTON", "province": "AB", "country": "CA", "postalCode": "T5T4J5", "twitter": "None", "instagram": "None", "facebook": "None", "youtube": "None", "website": "None", "summary": "None", "logo": "None", "latitude": 53.50103562895238, "longitude": -113.63064655802789}, "129892659RR0093": {"name": "COMMUNITY OF CHRIST KINGSTON/BELLEVILLE CONGREGATION", "designationCode": "C", "categoryCode": "39", "address": "1000 LUCAS RD RR#4", "city": "ODESSA", "province": "ON", "country": "CA", "postalCode": "K0H2H0", "twitter": "None", "instagram": "None", "facebook": "None", "youtube": "None", "website": "None", "summary": "None", "logo": "None", "latitude": 44.25230709439251, "longitude": -76.74832634175164}, "129892659RR0048": {"name": "COMMUNITY OF CHRIST KITCHENER CONGREGATION", "designationCode": "C", "categoryCode": "39", "address": "414 FISCHER HALLMAN ROAD", "city": "KITCHENER", "province": "ON", "country": "CA", "postalCode": "N2M4Y1", "twitter": "None", "instagram": "None", "facebook": "None", "youtube": "None", "website": "None", "summary": "None", "logo": "None", "latitude": 43.42087428922599, "longitude": -80.51598128680274}, "129892659RR0008": {"name": "COMMUNITY OF CHRIST LASALLE ROAD CONGREGATION", "designationCode": "C", "categoryCode": "39", "address": "383 APRIL COURT", "city": "CORUNNA", "province": "ON", "country": "CA", "postalCode": "N0N1G0", "twitter": "None", "instagram": "None", "facebook": "None", "youtube": "None", "website": "None", "summary": "None", "logo": "None", "latitude": 42.886866553955976, "longitude": -82.4349817245369}, "129892659RR0044": {"name": "COMMUNITY OF CHRIST LETHBRIDGE CONGREGATION", "designationCode": "C", "categoryCode": "39", "address": "425 11 ST S", "city": "LETHBRIDGE", "province": "AB", "country": "CA", "postalCode": "T1J2N9", "twitter": "None", "instagram": "None", "facebook": "None", "youtube": "None", "website": "None", "summary": "None", "logo": "None", "latitude": 49.69363846794391, "longitude": -112.83051112986917}, "129892659RR0094": {"name": "COMMUNITY OF CHRIST LIVING WATER CONGREGATION", "designationCode": "C", "categoryCode": "39", "address": "PO BOX 1194", "city": "DRESDEN", "province": "ON", "country": "CA", "postalCode": "N0P1M0", "twitter": "None", "instagram": "None", "facebook": "None", "youtube": "None", "website": "None", "summary": "None", "logo": "None", "latitude": 42.58952000000005, "longitude": -82.17963999999995}, "129892659RR0021": {"name": "COMMUNITY OF CHRIST LOWBANKS CONGREGATION", "designationCode": "C", "categoryCode": "39", "address": "572 ALAN AVE", "city": "WELLAND", "province": "ON", "country": "CA", "postalCode": "L3C2Y9", "twitter": "None", "instagram": "None", "facebook": "None", "youtube": "None", "website": "None", "summary": "None", "logo": "None", "latitude": 43.00215299999999, "longitude": -79.27656443738836}, "129892659RR0092": {"name": "COMMUNITY OF CHRIST MCGOWAN'S LAKE", "designationCode": "C", "categoryCode": "39", "address": "38 BARROW CRES", "city": "KANATA", "province": "ON", "country": "CA", "postalCode": "K2L2K1", "twitter": "None", "instagram": "None", "facebook": "None", "youtube": "None", "website": "None", "summary": "None", "logo": "None", "latitude": 45.31042878628314, "longitude": -75.8824296448728}, "129892659RR0082": {"name": "COMMUNITY OF CHRIST MEADOWRIDGE MISSION", "designationCode": "C", "categoryCode": "39", "address": "19442 DAVISON RD", "city": "PITT MEADOWS", "province": "BC", "country": "CA", "postalCode": "V3Y1A7", "twitter": "None", "instagram": "None", "facebook": "None", "youtube": "None", "website": "None", "summary": "None", "logo": "None", "latitude": 49.227350428790025, "longitude": -122.6823235391539}, "129892659RR0028": {"name": "COMMUNITY OF CHRIST MONETVILLE CONGREGATION", "designationCode": "C", "categoryCode": "39", "address": "620 EAST ROAD", "city": "MONETVILLE", "province": "ON", "country": "CA", "postalCode": "P0M2K0", "twitter": "None", "instagram": "None", "facebook": "None", "youtube": "None", "website": "None", "summary": "None", "logo": "None", "latitude": 46.169580790193955, "longitude": -80.35674289104405}, "129892659RR0030": {"name": "COMMUNITY OF CHRIST NEW LISKEARD CONGREGATION", "designationCode": "C", "categoryCode": "39", "address": "PO BOX 1697", "city": "NEW LISKEARD", "province": "ON", "country": "CA", "postalCode": "P0J1P0", "twitter": "None", "instagram": "None", "facebook": "None", "youtube": "None", "website": "None", "summary": "None", "logo": "None", "latitude": 47.50254600000005, "longitude": -79.69562449999994}, "129892659RR0024": {"name": "COMMUNITY OF CHRIST NIAGARA FALLS CONGREGATION", "designationCode": "C", "categoryCode": "39", "address": "6479 RUSSELL ST", "city": "NIAGARA FALLS", "province": "ON", "country": "CA", "postalCode": "L2J1P6", "twitter": "None", "instagram": "None", "facebook": "None", "youtube": "None", "website": "None", "summary": "None", "logo": "None", "latitude": 43.12439045325738, "longitude": -79.10473402553522}, "129892659RR0025": {"name": "COMMUNITY OF CHRIST NORONTO", "designationCode": "C", "categoryCode": "39", "address": "63 MAPLE CRES                 SS 301", "city": "JANETVILLE", "province": "ON", "country": "CA", "postalCode": "L0B1K0", "twitter": "None", "instagram": "None", "facebook": "None", "youtube": "None", "website": "None", "summary": "None", "logo": "None", "latitude": 44.23049238219165, "longitude": -78.75678402155317}, "129892659RR0026": {"name": "COMMUNITY OF CHRIST NORTH BAY CONGREGATION", "designationCode": "C", "categoryCode": "39", "address": "340 MCCONNELL STREET          P.O. BOX 1143", "city": "MATTAWA", "province": "ON", "country": "CA", "postalCode": "P0H1V0", "twitter": "None", "instagram": "None", "facebook": "None", "youtube": "None", "website": "None", "summary": "None", "logo": "None", "latitude": 46.31599626034391, "longitude": -78.70291656053416}, "129892659RR0051": {"name": "COMMUNITY OF CHRIST OTTAWA CONGREGATION", "designationCode": "C", "categoryCode": "39", "address": "P.O. BOX 67016                340 RICHMOND ROAD", "city": "OTTAWA", "province": "ON", "country": "CA", "postalCode": "K2A4E4", "twitter": "None", "instagram": "None", "facebook": "None", "youtube": "None", "website": "None", "summary": "None", "logo": "None", "latitude": 45.391644000000014, "longitude": -75.754053}, "129892659RR0039": {"name": "COMMUNITY OF CHRIST OWEN SOUND CONGREGATION", "designationCode": "C", "categoryCode": "39", "address": "162 SOMERS ST RR7", "city": "OWEN SOUND", "province": "ON", "country": "CA", "postalCode": "N4K6V5", "twitter": "None", "instagram": "None", "facebook": "None", "youtube": "None", "website": "None", "summary": "None", "logo": "None", "latitude": 44.57793888066244, "longitude": -80.96513732269574}, "129892659RR0075": {"name": "COMMUNITY OF CHRIST PADDOCKWOOD MISSION", "designationCode": "C", "categoryCode": "39", "address": "PO BOX 126", "city": "PADDOCKWOOD", "province": "SK", "country": "CA", "postalCode": "S0J1Z0", "twitter": "None", "instagram": "None", "facebook": "None", "youtube": "None", "website": "None", "summary": "None", "logo": "None", "latitude": 53.40891114568029, "longitude": -105.56798855043105}, "129892659RR0076": {"name": "COMMUNITY OF CHRIST PORCUPINE PLAIN MISSION", "designationCode": "C", "categoryCode": "39", "address": "BOX 181", "city": "PORCUPINE  PLAIN", "province": "SK", "country": "CA", "postalCode": "S0E1H0", "twitter": "None", "instagram": "None", "facebook": "None", "youtube": "None", "website": "None", "summary": "None", "logo": "None", "latitude": 52.59907000000004, "longitude": -103.26022999999998}, "129892659RR0040": {"name": "COMMUNITY OF CHRIST PORT ELGIN CONGREGATION", "designationCode": "C", "categoryCode": "39", "address": "16 - 160 MORPETH ST", "city": "SOUTHAMPTON", "province": "ON", "country": "CA", "postalCode": "N0H2L0", "twitter": "None", "instagram": "None", "facebook": "None", "youtube": "None", "website": "None", "summary": "None", "logo": "None", "latitude": 44.49299243714614, "longitude": -81.37530537145999}, "129892659RR0071": {"name": "COMMUNITY OF CHRIST PRINCE ALBERT MISSION", "designationCode": "C", "categoryCode": "39", "address": "520 PEARSON COURT", "city": "PRINCE ALBERT", "province": "SK", "country": "CA", "postalCode": "S6V6C6", "twitter": "None", "instagram": "None", "facebook": "None", "youtube": "None", "website": "None", "summary": "None", "logo": "None", "latitude": 53.18339453318128, "longitude": -105.76700083236193}, "129892659RR0037": {"name": "COMMUNITY OF CHRIST PROTON CONGREGATION", "designationCode": "C", "categoryCode": "39", "address": "15 ELM STREET                 BOX 633", "city": "DUNDALK", "province": "ON", "country": "CA", "postalCode": "N0C1B0", "twitter": "None", "instagram": "None", "facebook": "None", "youtube": "None", "website": "None", "summary": "None", "logo": "None", "latitude": 44.169884185094546, "longitude": -80.38784055346504}, "129892659RR0031": {"name": "COMMUNITY OF CHRIST PROVIDENCE BAY CONGREGATION", "designationCode": "C", "categoryCode": "39", "address": "PO BOX 84                     RR 1", "city": "PROVIDENCE BAY", "province": "ON", "country": "CA", "postalCode": "P0P1T0", "twitter": "None", "instagram": "None", "facebook": "None", "youtube": "None", "website": "None", "summary": "None", "logo": "None", "latitude": 45.66588000000007, "longitude": -82.26592999999997}, "129892659RR0072": {"name": "COMMUNITY OF CHRIST REGINA CONGREGATION", "designationCode": "C", "categoryCode": "39", "address": "7826 CENTURY DR.", "city": "REGINA", "province": "SK", "country": "CA", "postalCode": "S4Y1E9", "twitter": "None", "instagram": "None", "facebook": "None", "youtube": "None", "website": "None", "summary": "None", "logo": "None", "latitude": 50.48171201610017, "longitude": -104.69426813630311}, "129892659RR0066": {"name": "COMMUNITY OF CHRIST RIBSTONE CONGREGATION", "designationCode": "C", "categoryCode": "39", "address": "BOX 2", "city": "CHAUVIN", "province": "AB", "country": "CA", "postalCode": "T0B0V0", "twitter": "None", "instagram": "None", "facebook": "None", "youtube": "None", "website": "None", "summary": "None", "logo": "None", "latitude": 52.69398459544295, "longitude": -110.14731364388533}, "129892659RR0009": {"name": "COMMUNITY OF CHRIST SARNIA CONGREGATION", "designationCode": "C", "categoryCode": "39", "address": "4367 NORTH ST", "city": "PETROLIA", "province": "ON", "country": "CA", "postalCode": "N0N1R0", "twitter": "None", "instagram": "None", "facebook": "None", "youtube": "None", "website": "None", "summary": "None", "logo": "None", "latitude": 42.882381525102524, "longitude": -82.13203391909515}, "129892659RR0073": {"name": "COMMUNITY OF CHRIST SASKATOON CONGREGATION", "designationCode": "C", "categoryCode": "39", "address": "701 1ST ST E", "city": "SASKATOON", "province": "SK", "country": "CA", "postalCode": "S7H1S9", "twitter": "None", "instagram": "None", "facebook": "None", "youtube": "None", "website": "None", "summary": "None", "logo": "None", "latitude": 52.10831249321934, "longitude": -106.65365383236194}, "129892659RR0083": {"name": "COMMUNITY OF CHRIST SAULT STE MARIE CONGREGATION", "designationCode": "C", "categoryCode": "39", "address": "585 BOUNDARY RD", "city": "SAULT STE MARIE", "province": "ON", "country": "CA", "postalCode": "P6A5C5", "twitter": "None", "instagram": "None", "facebook": "None", "youtube": "None", "website": "None", "summary": "None", "logo": "None", "latitude": 46.51866000000001, "longitude": -84.27088094618824}, "129892659RR0058": {"name": "COMMUNITY OF CHRIST SCARBOROUGH CONGREGATION", "designationCode": "C", "categoryCode": "39", "address": "10 EPPLEWORTH STREET", "city": "SCARBOROUGH", "province": "ON", "country": "CA", "postalCode": "M1K3G9", "twitter": "None", "instagram": "None", "facebook": "None", "youtube": "None", "website": "None", "summary": "None", "logo": "None"}, "129892659RR0070": {"name": "COMMUNITY OF CHRIST SENLAC CONGREGATION", "designationCode": "C", "categoryCode": "39", "address": "PO BOX 64", "city": "SENLAC", "province": "SK", "country": "CA", "postalCode": "S0L2Y0", "twitter": "None", "instagram": "None", "facebook": "None", "youtube": "None", "website": "None", "summary": "None", "logo": "None", "latitude": 52.48345000000006, "longitude": -109.70150999999998}, "129892659RR0014": {"name": "COMMUNITY OF CHRIST ST. THOMAS CONGREGATION", "designationCode": "C", "categoryCode": "39", "address": "105 FAIRVIEW AVE", "city": "ST THOMAS", "province": "ON", "country": "CA", "postalCode": "N5R4X7", "twitter": "None", "instagram": "None", "facebook": "None", "youtube": "None", "website": "None", "summary": "None", "logo": "None", "latitude": 42.76646520706563, "longitude": -81.16628547599406}, "129892659RR0018": {"name": "COMMUNITY OF CHRIST STRATFORD CONGREGATION", "designationCode": "C", "categoryCode": "39", "address": "226 FORMAN AVENUE", "city": "STRATFORD", "province": "ON", "country": "CA", "postalCode": "N5A6R4", "twitter": "None", "instagram": "None", "facebook": "None", "youtube": "None", "website": "None", "summary": "None", "logo": "None", "latitude": 43.37992894090814, "longitude": -80.99680601684997}, "129892659RR0086": {"name": "COMMUNITY OF CHRIST THUNDER BAY CONGREGATION", "designationCode": "C", "categoryCode": "39", "address": "811 ISABELLA ST", "city": "THUNDER BAY", "province": "ON", "country": "CA", "postalCode": "P7E5B3", "twitter": "None", "instagram": "None", "facebook": "None", "youtube": "None", "website": "None", "summary": "None", "logo": "None", "latitude": 48.37763046047076, "longitude": -89.24960211226845}, "129892659RR0060": {"name": "COMMUNITY OF CHRIST TORONTO CONGREGATION", "designationCode": "C", "categoryCode": "39", "address": "260 ADELAIDE ST EAST          BOX 134", "city": "TORONTO", "province": "ON", "country": "CA", "postalCode": "M5A1N1", "twitter": "None", "instagram": "None", "facebook": "None", "youtube": "None", "website": "None", "summary": "None", "logo": "None", "latitude": 43.651775146834694, "longitude": -79.37042615251885}, "129892659RR0079": {"name": "COMMUNITY OF CHRIST VICTORIA CONGREGATION", "designationCode": "C", "categoryCode": "39", "address": "205 - 3810 CEDAR HILL CROSS RD", "city": "VICTORIA", "province": "BC", "country": "CA", "postalCode": "V8P2M4", "twitter": "None", "instagram": "None", "facebook": "None", "youtube": "None", "website": "None", "summary": "None", "logo": "None", "latitude": 48.46310302412159, "longitude": -123.33842025480398}, "129892659RR0010": {"name": "COMMUNITY OF CHRIST WABASH CONGREGATION", "designationCode": "C", "categoryCode": "39", "address": "488 SYDENHAM STREET, BOX 163", "city": "DRESDEN", "province": "ON", "country": "CA", "postalCode": "N0P1M0", "twitter": "None", "instagram": "None", "facebook": "None", "youtube": "None", "website": "None", "summary": "None", "logo": "None", "latitude": 42.589700495989284, "longitude": -82.1683274289629}, "129892659RR0042": {"name": "COMMUNITY OF CHRIST WESTERN CANADA MISSION CENTRE", "designationCode": "C", "categoryCode": "39", "address": "224-6655 178 STREET NW,       SUITE 345", "city": "EDMONTON", "province": "AB", "country": "CA", "postalCode": "T5T4J5", "twitter": "None", "instagram": "None", "facebook": "None", "youtube": "None", "website": "None", "summary": "None", "logo": "None"}, "129892659RR0034": {"name": "COMMUNITY OF CHRIST WIARTON CONGREGATION", "designationCode": "C", "categoryCode": "39", "address": "285 HWY 6", "city": "SOUTH BRUCE PENINSULA", "province": "ON", "country": "CA", "postalCode": "N0H2T0", "twitter": "None", "instagram": "None", "facebook": "None", "youtube": "None", "website": "None", "summary": "None", "logo": "None", "latitude": 44.77187946165584, "longitude": -81.15731578267187}, "129892659RR0059": {"name": "COMMUNITY OF CHRIST WILLOWDALE CONGREGATION", "designationCode": "C", "categoryCode": "39", "address": "303 COLONIAL DR", "city": "GUELPH", "province": "ON", "country": "CA", "postalCode": "N1L0G4", "twitter": "None", "instagram": "None", "facebook": "None", "youtube": "None", "website": "None", "summary": "None", "logo": "None", "latitude": 43.51553407016957, "longitude": -80.17767471996503}, "129892659RR0084": {"name": "COMMUNITY OF CHRIST WINDSOR CONGREGATION", "designationCode": "C", "categoryCode": "39", "address": "PO BOX 403", "city": "RUTHVEN", "province": "ON", "country": "CA", "postalCode": "N0P2G0", "twitter": "None", "instagram": "None", "facebook": "None", "youtube": "None", "website": "None", "summary": "None", "logo": "None", "latitude": 32.95451000000003, "longitude": -115.00644999999997}, "129892659RR0087": {"name": "COMMUNITY OF CHRIST WINNIPEG CONGREGATION", "designationCode": "C", "categoryCode": "39", "address": "154 PENTLAND STREET", "city": "WINNIPEG", "province": "MB", "country": "CA", "postalCode": "R2G1S8", "twitter": "None", "instagram": "None", "facebook": "None", "youtube": "None", "website": "None", "summary": "None", "logo": "None", "latitude": 49.94974663944846, "longitude": -97.07532096595334}, "129892659RR0013": {"name": "COMMUNITY OF CHRIST WOODFIELD CONGREGATION", "designationCode": "C", "categoryCode": "39", "address": "615 COLBORNE STREET", "city": "LONDON", "province": "ON", "country": "CA", "postalCode": "N6B2V3", "twitter": "None", "instagram": "None", "facebook": "None", "youtube": "None", "website": "None", "summary": "None", "logo": "None", "latitude": 42.99347176268118, "longitude": -81.24329481008667}, "129892659RR0089": {"name": "COMMUNITY OF CHRIST ZIONTARIO (ON) CAMPGROUNDS", "designationCode": "C", "categoryCode": "56", "address": "4659 LINE 32  RR#3", "city": "STRATFORD", "province": "ON", "country": "CA", "postalCode": "N5A6S4", "twitter": "None", "instagram": "None", "facebook": "None", "youtube": "None", "website": "None", "summary": "None", "logo": "None", "latitude": 43.351107000000056, "longitude": -80.99994949999993}, "129892659RR0050": {"name": "COMMUNITY OF CHRIST, MONTREAL CONGREGATION", "designationCode": "C", "categoryCode": "39", "address": "2500 ROSEMONT BOULEVARD", "city": "MONTREAL", "province": "QC", "country": "CA", "postalCode": "H1Y1K4", "twitter": "None", "instagram": "None", "facebook": "None", "youtube": "None", "website": "None", "summary": "None", "logo": "None", "latitude": 45.5465885456461, "longitude": -73.58612837105447}, "893124297RR0001": {"name": "COMMUNITY OF MAPLE CHILD CARE SERVICES", "designationCode": "C", "categoryCode": "20", "address": "9350 KEELE ST", "city": "MAPLE", "province": "ON", "country": "CA", "postalCode": "L6A1P4", "twitter": "None", "instagram": "None", "facebook": "None", "youtube": "None", "website": "None", "summary": "None", "logo": "None", "latitude": 43.84011006021706, "longitude": -79.50897905559982}, "126482785RR0001": {"name": "COMMUNITY ONE FOUNDATION", "designationCode": "A", "categoryCode": "05", "address": "800 - 1 TORONTO ST", "city": "TORONTO", "province": "ON", "country": "CA", "postalCode": "M5C2V6", "twitter": "None", "instagram": "None", "facebook": "None", "youtube": "None", "website": "None", "summary": "None", "logo": "None", "latitude": 43.64988730558597, "longitude": -79.37604079929623}, "132752858RR0001": {"name": "COMMUNITY OPTIONS FOR JUSTICE (OXFORD)", "designationCode": "C", "categoryCode": "59", "address": "496 ADELAIDE ST               2ND FLOOR", "city": "WOODSTOCK", "province": "ON", "country": "CA", "postalCode": "N4S4B4", "twitter": "None", "instagram": "None", "facebook": "None", "youtube": "None", "website": "None", "summary": "None", "logo": "None", "latitude": 43.13102149860391, "longitude": -80.7556497816302}, "107282949RR0001": {"name": "COMMUNITY OPTIONS-A SOCIETY FOR CHILDREN AND FAMILIES", "designationCode": "C", "categoryCode": "01", "address": "15824-131 AVE SUITE 200", "city": "EDMONTON", "province": "AB", "country": "CA", "postalCode": "T6V1J4", "twitter": "None", "instagram": "None", "facebook": "None", "youtube": "None", "website": "None", "summary": "None", "logo": "None", "latitude": 53.59049650822297, "longitude": -113.59574002553522}, "118870997RR0001": {"name": "COMMUNITY ORGANIZED SUPPORT AND PREVENTION (QUINTE)", "designationCode": "C", "categoryCode": "59", "address": "206-121 DUNDAS ST E", "city": "BELLEVILLE", "province": "ON", "country": "CA", "postalCode": "K8N1C3", "twitter": "None", "instagram": "None", "facebook": "None", "youtube": "None", "website": "None", "summary": "None", "logo": "None", "latitude": 44.16211058338634, "longitude": -77.37529132791853}, "118901297RR0001": {"name": "COMMUNITY OUTREACH PROGRAM ERIE", "designationCode": "C", "categoryCode": "09", "address": "32 DUFFERIN STREET", "city": "FORT ERIE", "province": "ON", "country": "CA", "postalCode": "L2A2T5", "twitter": "None", "instagram": "None", "facebook": "None", "youtube": "None", "website": "None", "summary": "None", "logo": "None", "latitude": 42.930673478792606, "longitude": -78.9170117216227}, "877882423RR0001": {"name": "COMMUNITY OWNERSHIP SOLUTIONS INC", "designationCode": "C", "categoryCode": "53", "address": "101 - 765 MAIN ST", "city": "WINNIPEG", "province": "MB", "country": "CA", "postalCode": "R2W3N5", "twitter": "None", "instagram": "None", "facebook": "None", "youtube": "None", "website": "None", "summary": "None", "logo": "None", "latitude": 49.90587282263842, "longitude": -97.1339225146292}, "882586423RR0001": {"name": "COMMUNITY PARTNERS FOR SUCCESS CO-OPERATIVE QUNITE INC", "designationCode": "C", "categoryCode": "09", "address": "100 NORTH TRENT STREET        P. O. BOX 99", "city": "FRANKFORD", "province": "ON", "country": "CA", "postalCode": "K0K2C0", "twitter": "None", "instagram": "None", "facebook": "None", "youtube": "None", "website": "None", "summary": "None", "logo": "None", "latitude": 44.20572470774425, "longitude": -77.59735946557797}, "881968762RR0001": {"name": "COMMUNITY PARTNERS IN PROGRESS FOR INTERNATIONAL DEVELOPMENT", "designationCode": "C", "categoryCode": "09", "address": "9101 WEST RIDGE LINE", "city": "BLENHEIM", "province": "ON", "country": "CA", "postalCode": "N0P1A0", "twitter": "None", "instagram": "None", "facebook": "None", "youtube": "None", "website": "None", "summary": "None", "logo": "None", "latitude": 42.3161612334237, "longitude": -82.01056399197857}, "870767639RR0001": {"name": "COMMUNITY PENTECOSTAL CHURCH", "designationCode": "C", "categoryCode": "36", "address": "B 1355 THORAH CONC.           RD1", "city": "BEAVERTON", "province": "ON", "country": "CA", "postalCode": "L0K1A0", "twitter": "None", "instagram": "None", "facebook": "None", "youtube": "None", "website": "None", "summary": "None", "logo": "None", "latitude": 44.49696509725958, "longitude": -79.1140006256633}, "877666826RR0001": {"name": "COMMUNITY PENTECOSTAL CHURCH", "designationCode": "C", "categoryCode": "36", "address": "PO BOX 126", "city": "STIRLING", "province": "ON", "country": "CA", "postalCode": "K0K3E0", "twitter": "None", "instagram": "None", "facebook": "None", "youtube": "None", "website": "None", "summary": "None", "logo": "None", "latitude": 44.29383000389519, "longitude": -77.55681006939226}, "851830877RR0001": {"name": "COMMUNITY PENTECOSTAL CHURCH OF OTTAWA", "designationCode": "C", "categoryCode": "36", "address": "1825 ST JOSEPH BLVD", "city": "ORLEANS", "province": "ON", "country": "CA", "postalCode": "K1C7C6", "twitter": "None", "instagram": "None", "facebook": "None", "youtube": "None", "website": "None", "summary": "None", "logo": "None", "latitude": 45.46195625791973, "longitude": -75.54612881060629}, "126615962RR0001": {"name": "COMMUNITY PLANNING ASSOCIATION OF ALBERTA", "designationCode": "C", "categoryCode": "59", "address": "205-10940 166A ST", "city": "EDMONTON", "province": "AB", "country": "CA", "postalCode": "T5P3V5", "twitter": "None", "instagram": "None", "facebook": "None", "youtube": "None", "website": "None", "summary": "None", "logo": "None", "latitude": 53.55734117069649, "longitude": -113.60784318281459}, "139906499RR0001": {"name": "COMMUNITY POLICE RADIO NETWORK (CPRN) ASSOCIATION", "designationCode": "C", "categoryCode": "59", "address": "5328 CALGARY TRAIL SOUTH      SUITE 1354", "city": "EDMONTON", "province": "AB", "country": "CA", "postalCode": "T6H4J8", "twitter": "None", "instagram": "None", "facebook": "None", "youtube": "None", "website": "None", "summary": "None", "logo": "None", "latitude": 53.49123769080735, "longitude": -113.49539595798925}, "119290674RR0001": {"name": "COMMUNITY PRESBYTERIAN CHURCH", "designationCode": "C", "categoryCode": "37", "address": "138 GREEN POINTE DRIVE", "city": "WELLAND", "province": "ON", "country": "CA", "postalCode": "L3C6Y6", "twitter": "None", "instagram": "None", "facebook": "None", "youtube": "None", "website": "None", "summary": "None", "logo": "None", "latitude": 43.00954166472388, "longitude": -79.25686246292358}, "118871086RR0001": {"name": "COMMUNITY RADIO EDUCATION SOCIETY", "designationCode": "C", "categoryCode": "59", "address": "110-360 COLUMBIA ST", "city": "VANCOUVER", "province": "BC", "country": "CA", "postalCode": "V6A4J1", "twitter": "None", "instagram": "None", "facebook": "None", "youtube": "None", "website": "None", "summary": "None", "logo": "None", "latitude": 49.281727984536246, "longitude": -123.10218257567163}, "120666672RR0001": {"name": "COMMUNITY RADIO SOCIETY OF SASKATOON, INC", "designationCode": "C", "categoryCode": "20", "address": "PO BOX 7544  STN MAIN", "city": "SASKATOON", "province": "SK", "country": "CA", "postalCode": "S7K4L4", "twitter": "None", "instagram": "None", "facebook": "None", "youtube": "None", "website": "None", "summary": "None", "logo": "None", "latitude": 52.13049000000005, "longitude": -106.65926449999994}, "870544715RR0001": {"name": "COMMUNITY RECREATIONAL INITIATIVES SOCIETY", "designationCode": "C", "categoryCode": "56", "address": "PO BOX 25141 MISSION PK PO", "city": "KELOWNA", "province": "BC", "country": "CA", "postalCode": "V1W3Y7", "twitter": "None", "instagram": "None", "facebook": "None", "youtube": "None", "website": "None", "summary": "None", "logo": "None", "latitude": 49.77796200000006, "longitude": -119.49561349999993}, "118871094RR0001": {"name": "COMMUNITY RECREATIONAL ORGANIZATION OF WELWYN", "designationCode": "C", "categoryCode": "56", "address": "BOX 90", "city": "WELWYN", "province": "SK", "country": "CA", "postalCode": "S0A4L0", "twitter": "None", "instagram": "None", "facebook": "None", "youtube": "None", "website": "None", "summary": "None", "logo": "None", "latitude": 50.32496070630703, "longitude": -101.51907828679097}, "101072239RR0001": {"name": "COMMUNITY RESIDENTIAL LIVING BOARD-WOODSTOCK INC.", "designationCode": "C", "categoryCode": "01", "address": "119 BROADWAY STREET", "city": "WOODSTOCK", "province": "NB", "country": "CA", "postalCode": "E7M6B4", "twitter": "None", "instagram": "None", "facebook": "None", "youtube": "None", "website": "None", "summary": "None", "logo": "None", "latitude": 46.14695075991122, "longitude": -67.57653277488619}, "119260297RR0001": {"name": "COMMUNITY RESOURCE & EMPLOYMENT SERVICE (BRANTFORD)", "designationCode": "C", "categoryCode": "59", "address": "1100 CLARENCE ST S", "city": "BRANTFORD", "province": "ON", "country": "CA", "postalCode": "N3S7N8", "twitter": "None", "instagram": "None", "facebook": "None", "youtube": "None", "website": "None", "summary": "None", "logo": "None", "latitude": 43.134790890023794, "longitude": -80.25985743299286}, "123873937RR0001": {"name": "COMMUNITY RESOURCE CENTRE (KILLALOE) INC.", "designationCode": "C", "categoryCode": "59", "address": "15 LAKE STREET", "city": "KILLALOE", "province": "ON", "country": "CA", "postalCode": "K0J2A0", "twitter": "None", "instagram": "None", "facebook": "None", "youtube": "None", "website": "None", "summary": "None", "logo": "None", "latitude": 45.55492082653356, "longitude": -77.4145791201743}, "106963515RR0001": {"name": "COMMUNITY RESOURCES CENTRE (MINTO) INC.", "designationCode": "C", "categoryCode": "09", "address": "19 UNION ST", "city": "MINTO", "province": "NB", "country": "CA", "postalCode": "E4B2N3", "twitter": "None", "instagram": "None", "facebook": "None", "youtube": "None", "website": "None", "summary": "None", "logo": "None", "latitude": 46.07067867084072, "longitude": -66.06153970301237}, "892379983RR0001": {"name": "COMMUNITY RESOURCES FOR PEOPLE IN CONFLICT WITH THE LAW", "designationCode": "C", "categoryCode": "59", "address": "55 NORTHFIELD DRIVE           PO BOX 397", "city": "WATERLOO", "province": "ON", "country": "CA", "postalCode": "N2K3T6", "twitter": "None", "instagram": "None", "facebook": "None", "youtube": "None", "website": "None", "summary": "None", "logo": "None"}, "101072254RR0001": {"name": "COMMUNITY RESPITE SERVICE INC.", "designationCode": "C", "categoryCode": "01", "address": "1155 NOTRE DAME AVE", "city": "WINNIPEG", "province": "MB", "country": "CA", "postalCode": "R3E3G1", "twitter": "None", "instagram": "None", "facebook": "None", "youtube": "None", "website": "None", "summary": "None", "logo": "None", "latitude": 49.90767095423834, "longitude": -97.17853377113528}, "888004926RR0001": {"name": "COMMUNITY RESPONSE TO NEIGHBOURHOOD CONCERNS (CRNC)", "designationCode": "C", "categoryCode": "59", "address": "9 TRILLIUM COURT", "city": "KINGSTON", "province": "ON", "country": "CA", "postalCode": "K7K6W9", "twitter": "None", "instagram": "None", "facebook": "None", "youtube": "None", "website": "None", "summary": "None", "logo": "None", "latitude": 44.26216357146978, "longitude": -76.4933359161523}, "854204526RR0001": {"name": "COMMUNITY SCHOOL OF BUILDING", "designationCode": "C", "categoryCode": "20", "address": "52 MCDOUGALL RD.", "city": "WATERLOO", "province": "ON", "country": "CA", "postalCode": "N2L2W5", "twitter": "None", "instagram": "None", "facebook": "None", "youtube": "None", "website": "None", "summary": "None", "logo": "None", "latitude": 43.45981603248878, "longitude": -80.54338290158135}, "861659498RR0001": {"name": "COMMUNITY SCIENCE CENTRE ASSOCIATION", "designationCode": "C", "categoryCode": "50", "address": "1 WEST STREET, PO BOX 5000    BIOLOGY DEPT. STFX UNIVERSITY", "city": "ANTIGONISH", "province": "NS", "country": "CA", "postalCode": "B2G2W5", "twitter": "None", "instagram": "None", "facebook": "None", "youtube": "None", "website": "None", "summary": "None", "logo": "None", "latitude": 45.62003170941249, "longitude": -61.997170537647015}, "887927648RR0001": {"name": "COMMUNITY SERVICES COMMITTEE OF THE ROTARY CLUB OF GRAND FALLS", "designationCode": "A", "categoryCode": "05", "address": "PO BOX 593", "city": "GRAND FALLS-WINDSOR", "province": "NL", "country": "CA", "postalCode": "A2A2J9", "twitter": "None", "instagram": "None", "facebook": "None", "youtube": "None", "website": "None", "summary": "None", "logo": "None", "latitude": 48.927786000000054, "longitude": -55.65881149999993}, "140982570RR0001": {"name": "COMMUNITY SERVICES COORDINATION NETWORK (ONTARIO)", "designationCode": "C", "categoryCode": "09", "address": "750-171 QUEENS AVE", "city": "LONDON", "province": "ON", "country": "CA", "postalCode": "N6A5J7", "twitter": "None", "instagram": "None", "facebook": "None", "youtube": "None", "website": "None", "summary": "None", "logo": "None", "latitude": 42.984996005799715, "longitude": -81.25006560892157}, "106961683RR0001": {"name": "COMMUNITY SOCIAL PLANNING COUNCIL OF GREATER VICTORIA", "designationCode": "C", "categoryCode": "09", "address": "216 - 852 FORT ST", "city": "VICTORIA", "province": "BC", "country": "CA", "postalCode": "V8W1H8", "twitter": "None", "instagram": "None", "facebook": "None", "youtube": "None", "website": "None", "summary": "None", "logo": "None", "latitude": 48.424125434935526, "longitude": -123.36034799694157}, "129621298RR0001": {"name": "COMMUNITY SUPPORT CONNECTIONS - MEALS ON WHEELS AND MORE", "designationCode": "C", "categoryCode": "09", "address": "61 WOOLWICH ST. N. PO BOX 29", "city": "BRESLAU", "province": "ON", "country": "CA", "postalCode": "N0B1M0", "twitter": "None", "instagram": "None", "facebook": "None", "youtube": "None", "website": "None", "summary": "None", "logo": "None", "latitude": 43.48517758422307, "longitude": -80.4159456311099}, "885273631RR0001": {"name": "COMMUNITY SUPPORT SERVICES OF NIAGARA REGION", "designationCode": "C", "categoryCode": "09", "address": "3 - 320 VANSICKLE RD", "city": "ST CATHARINES", "province": "ON", "country": "CA", "postalCode": "L2S0B4", "twitter": "None", "instagram": "None", "facebook": "None", "youtube": "None", "website": "None", "summary": "None", "logo": "None", "latitude": 43.14474945045876, "longitude": -79.27016641459443}, "106963739RR0001": {"name": "COMMUNITY THERAPY SERVICES INC.", "designationCode": "C", "categoryCode": "11", "address": "101 - 1555 ST JAMES ST", "city": "WINNIPEG", "province": "MB", "country": "CA", "postalCode": "R3H1B5", "twitter": "None", "instagram": "None", "facebook": "None", "youtube": "None", "website": "None", "summary": "None", "logo": "None", "latitude": 49.9109565961683, "longitude": -97.19922067023514}, "118871185RR0001": {"name": "COMMUNITY TORCHLIGHT INC.", "designationCode": "C", "categoryCode": "59", "address": "PO BOX 1027 STN MAIN", "city": "GUELPH", "province": "ON", "country": "CA", "postalCode": "N1H6N1", "twitter": "None", "instagram": "None", "facebook": "None", "youtube": "None", "website": "None", "summary": "None", "logo": "None", "latitude": 43.54455300000005, "longitude": -80.24788249999993}, "129543443RR0001": {"name": "COMMUNITY UNEMPLOYED HELP CENTRE INC", "designationCode": "C", "categoryCode": "59", "address": "501-275 BROADWAY", "city": "WINNIPEG", "province": "MB", "country": "CA", "postalCode": "R3C4M6", "twitter": "None", "instagram": "None", "facebook": "None", "youtube": "None", "website": "None", "summary": "None", "logo": "None", "latitude": 49.888115201800304, "longitude": -97.13855716654155}, "773661525RR0001": {"name": "COMMUNITY UNITY - HALTON HILLS", "designationCode": "C", "categoryCode": "09", "address": "537 MAIN STREET,", "city": "GLEN WILLIAMS", "province": "ON", "country": "CA", "postalCode": "L7G3T1", "twitter": "None", "instagram": "None", "facebook": "None", "youtube": "None", "website": "None", "summary": "None", "logo": "None", "latitude": 43.6725618989843, "longitude": -79.92660772349862}, "123640948RR0001": {"name": "COMMUNITY VENTURES SOCIETY", "designationCode": "C", "categoryCode": "59", "address": "2322 ST JOHNS ST", "city": "PORT MOODY", "province": "BC", "country": "CA", "postalCode": "V3H2A9", "twitter": "None", "instagram": "None", "facebook": "None", "youtube": "None", "website": "None", "summary": "None", "logo": "None", "latitude": 49.27674653318129, "longitude": -122.86009294463038}, "845913268RR0001": {"name": "COMMUNITY VETERINARY OUTREACH", "designationCode": "C", "categoryCode": "54", "address": "PO BOX 75", "city": "CARP", "province": "ON", "country": "CA", "postalCode": "K0A1L0", "twitter": "None", "instagram": "None", "facebook": "None", "youtube": "None", "website": "None", "summary": "None", "logo": "None", "latitude": 45.443587712606245, "longitude": -76.1842754094586}, "107980336RR0001": {"name": "COMMUNITY VISIONS & NETWORKING (QUINTE) ASSOCIATION", "designationCode": "C", "categoryCode": "11", "address": "265 CHARLES ST", "city": "BELLEVILLE", "province": "ON", "country": "CA", "postalCode": "K8N3M7", "twitter": "None", "instagram": "None", "facebook": "None", "youtube": "None", "website": "None", "summary": "None", "logo": "None", "latitude": 44.169111963644745, "longitude": -77.37649983845012}}