{"812697183RR0001": {"name": "Paws and Kisses 4 Second Chances", "designationCode": "C", "categoryCode": "54", "address": "4064 CH SCHNUPP", "city": "BOURGET", "province": "ON", "country": "CA", "postalCode": "K0A1E0", "twitter": "None", "instagram": "None", "facebook": "None", "youtube": "None", "website": "None", "summary": "None", "logo": "None", "latitude": 45.42830917262973, "longitude": -75.13614642215357}, "843102047RR0001": {"name": "Paws and Tails Cat Rescue", "designationCode": "C", "categoryCode": "54", "address": "213 MILL STREET SOUTH", "city": "BRAMPTON", "province": "ON", "country": "CA", "postalCode": "L6Y1T9", "twitter": "None", "instagram": "None", "facebook": "None", "youtube": "None", "website": "None", "summary": "None", "logo": "None", "latitude": 43.67422155785111, "longitude": -79.7480809730798}, "846898088RR0001": {"name": "Paws for Hope Animal Foundation", "designationCode": "C", "categoryCode": "54", "address": "PO BOX 20973 RPO SQUARE", "city": "MAPLE RIDGE", "province": "BC", "country": "CA", "postalCode": "V2X1P7", "twitter": "None", "instagram": "None", "facebook": "None", "youtube": "None", "website": "None", "summary": "None", "logo": "None", "latitude": 49.21686600000005, "longitude": -122.60537449999993}, "837539030RR0001": {"name": "Paws it Forward Dog Rescue Society", "designationCode": "C", "categoryCode": "54", "address": "202-1433 ST. PAUL STREET", "city": "KELOWNA", "province": "BC", "country": "CA", "postalCode": "V1Y2E4", "twitter": "None", "instagram": "None", "facebook": "None", "youtube": "None", "website": "None", "summary": "None", "logo": "None", "latitude": 49.888116419095155, "longitude": -119.49185884217236}, "824621643RR0001": {"name": "Paws-United Dog Rescue", "designationCode": "C", "categoryCode": "54", "address": "23141 THAMES ROAD", "city": "APPIN", "province": "ON", "country": "CA", "postalCode": "N0L1A0", "twitter": "None", "instagram": "None", "facebook": "None", "youtube": "None", "website": "None", "summary": "None", "logo": "None", "latitude": 42.80835181178972, "longitude": -81.66757870529139}, "750365298RR0001": {"name": "Pawsitive Independence Autism Service Dogs of Saskatchewan Inc.", "designationCode": "C", "categoryCode": "11", "address": "POST OFFICE BOX 1630", "city": "MARTENSVILLE", "province": "SK", "country": "CA", "postalCode": "S0K2T0", "twitter": "None", "instagram": "None", "facebook": "None", "youtube": "None", "website": "None", "summary": "None", "logo": "None", "latitude": 52.28949000000006, "longitude": -106.66201999999998}, "846187680RR0001": {"name": "Pawsitive Match Rescue Foundation", "designationCode": "C", "categoryCode": "54", "address": "PO BOX 84165 RPO MARKET MALL", "city": "CALGARY", "province": "AB", "country": "CA", "postalCode": "T3A5C4", "twitter": "None", "instagram": "None", "facebook": "None", "youtube": "None", "website": "None", "summary": "None", "logo": "None", "latitude": 51.08194000000003, "longitude": -114.15466999999995}, "107827461RR0001": {"name": "Payukotayno: James & Hudson Bay Family Services", "designationCode": "C", "categoryCode": "01", "address": "50 BAY ROAD", "city": "MOOSONEE", "province": "ON", "country": "CA", "postalCode": "P0L1Y0", "twitter": "None", "instagram": "None", "facebook": "None", "youtube": "None", "website": "None", "summary": "None", "logo": "None", "latitude": 51.27676026980317, "longitude": -80.63888996980268}, "812867752RR0001": {"name": "PayPal Giving Fund Canada", "designationCode": "A", "categoryCode": "03", "address": "3600 - 22 ADELAIDE ST W", "city": "TORONTO", "province": "ON", "country": "CA", "postalCode": "M5H4E3", "twitter": "None", "instagram": "None", "facebook": "None", "youtube": "None", "website": "None", "summary": "None", "logo": "None", "latitude": 43.6500561684748, "longitude": -79.38026958604074}, "851502625RR0001": {"name": "Peac Scholarship Foundation", "designationCode": "C", "categoryCode": "21", "address": "160 AVENUE RD", "city": "TORONTO", "province": "ON", "country": "CA", "postalCode": "M5R2H8", "twitter": "None", "instagram": "None", "facebook": "None", "youtube": "None", "website": "None", "summary": "None", "logo": "None", "latitude": 43.67517040161002, "longitude": -79.39684677243334}, "808861892RR0001": {"name": "Peace and Love International Society", "designationCode": "C", "categoryCode": "22", "address": "107 - 131 WATER ST", "city": "VANCOUVER", "province": "BC", "country": "CA", "postalCode": "V6B4M3", "twitter": "None", "instagram": "None", "facebook": "None", "youtube": "None", "website": "None", "summary": "None", "logo": "None", "latitude": 49.28412026729746, "longitude": -123.10753546696296}, "848423133RR0001": {"name": "Peace of Mind Golf Tournament", "designationCode": "B", "categoryCode": "05", "address": "39 WESTLAKE DR", "city": "ST THOMAS", "province": "ON", "country": "CA", "postalCode": "N5P0C6", "twitter": "None", "instagram": "None", "facebook": "None", "youtube": "None", "website": "None", "summary": "None", "logo": "None", "latitude": 42.80925761990433, "longitude": -81.1696519093711}, "790828495RR0001": {"name": "Peace Africa Alliance Consulting, Educating and Training Centre", "designationCode": "C", "categoryCode": "21", "address": "56 RANCHERO RISE NW", "city": "CALGARY", "province": "AB", "country": "CA", "postalCode": "T3G1E2", "twitter": "None", "instagram": "None", "facebook": "None", "youtube": "None", "website": "None", "summary": "None", "logo": "None", "latitude": 51.11962943825373, "longitude": -114.18904818872988}, "119297513RR0001": {"name": "Peace Arch Hospice Society", "designationCode": "C", "categoryCode": "10", "address": "15435 16A AVE", "city": "SURREY", "province": "BC", "country": "CA", "postalCode": "V4A1T2", "twitter": "None", "instagram": "None", "facebook": "None", "youtube": "None", "website": "None", "summary": "None", "logo": "None", "latitude": 49.032124137555215, "longitude": -122.79492437115402}, "127311348RR0001": {"name": "Peace Arch Hospital and Community Health Foundation", "designationCode": "A", "categoryCode": "13", "address": "15521 RUSSELL AVE", "city": "WHITE ROCK", "province": "BC", "country": "CA", "postalCode": "V4B2R4", "twitter": "None", "instagram": "None", "facebook": "None", "youtube": "None", "website": "None", "summary": "None", "logo": "None", "latitude": 49.02937780491054, "longitude": -122.79174043279416}, "753982529RR0001": {"name": "Peace By Piece - Autism Development And Sensory Centre", "designationCode": "C", "categoryCode": "11", "address": "1 VIVIANS CRES,", "city": "BRAMPTON", "province": "ON", "country": "CA", "postalCode": "L6Y4T9", "twitter": "None", "instagram": "None", "facebook": "None", "youtube": "None", "website": "None", "summary": "None", "logo": "None", "latitude": 43.6597636702638, "longitude": -79.7647917191412}, "741581326RR0001": {"name": "Peace Chapel Christian Fellowship", "designationCode": "C", "categoryCode": "36", "address": "187 MARTINVALLEY CRES NE", "city": "CALGARY", "province": "AB", "country": "CA", "postalCode": "T3J4L6", "twitter": "None", "instagram": "None", "facebook": "None", "youtube": "None", "website": "None", "summary": "None", "logo": "None", "latitude": 51.124660522072766, "longitude": -113.95328391618096}, "118818491RR0112": {"name": "Peace Christian School", "designationCode": "C", "categoryCode": "20", "address": "BOX 2050", "city": "CHETWYND", "province": "BC", "country": "CA", "postalCode": "V0C1J0", "twitter": "None", "instagram": "None", "facebook": "None", "youtube": "None", "website": "None", "summary": "None", "logo": "None", "latitude": 55.13200336111122, "longitude": -121.00608273128003}, "852237668RR0001": {"name": "Peace Community Church of Jesus Christ Inc.", "designationCode": "C", "categoryCode": "39", "address": "33 MC CORMACK STREET", "city": "TORONTO", "province": "ON", "country": "CA", "postalCode": "M6N1X8", "twitter": "None", "instagram": "None", "facebook": "None", "youtube": "None", "website": "None", "summary": "None", "logo": "None", "latitude": 43.67529600000006, "longitude": -79.47933649999993}, "831451422RR0001": {"name": "Peace Country Hospice Society", "designationCode": "C", "categoryCode": "19", "address": "12734 95 ST", "city": "GRANDE PRAIRIE", "province": "AB", "country": "CA", "postalCode": "T8X1N4", "twitter": "None", "instagram": "None", "facebook": "None", "youtube": "None", "website": "None", "summary": "None", "logo": "None", "latitude": 55.196489840671816, "longitude": -118.77699741704635}, "747302727RR0001": {"name": "Peace Hills Youth For Christ", "designationCode": "C", "categoryCode": "49", "address": "1000-3725 56 STREET", "city": "WETASKIWIN", "province": "AB", "country": "CA", "postalCode": "T9A2V7", "twitter": "None", "instagram": "None", "facebook": "None", "youtube": "None", "website": "None", "summary": "None", "logo": "None", "latitude": 52.9551676944489, "longitude": -113.39003415956704}, "841739089RR0001": {"name": "Peace House International Ministry", "designationCode": "C", "categoryCode": "39", "address": "3 - 10468 WHALLEY BLVD", "city": "SURREY", "province": "BC", "country": "CA", "postalCode": "V3T4H5", "twitter": "None", "instagram": "None", "facebook": "None", "youtube": "None", "website": "None", "summary": "None", "logo": "None", "latitude": 49.19291045490217, "longitude": -122.84229483386248}, "824608681RR0001": {"name": "Peace Officers Memorial Foundation", "designationCode": "C", "categoryCode": "59", "address": "PO BOX 1680 STN MAIN", "city": "WINNIPEG", "province": "MB", "country": "CA", "postalCode": "R3C2Z7", "twitter": "None", "instagram": "None", "facebook": "None", "youtube": "None", "website": "None", "summary": "None", "logo": "None", "latitude": 49.886161958421624, "longitude": -97.13345310241456}, "841117997RR0001": {"name": "Peace Pregnancy Support Society", "designationCode": "C", "categoryCode": "09", "address": "1025 119 AVE", "city": "DAWSON CREEK", "province": "BC", "country": "CA", "postalCode": "V1G3J1", "twitter": "None", "instagram": "None", "facebook": "None", "youtube": "None", "website": "None", "summary": "None", "logo": "None", "latitude": 55.74197648845882, "longitude": -120.229902}, "805809688RR0001": {"name": "Peace Regional Outreach Student and Daycare Support Society", "designationCode": "C", "categoryCode": "21", "address": "9610-94 AVE", "city": "PEACE RIVER", "province": "AB", "country": "CA", "postalCode": "T8S1J1", "twitter": "None", "instagram": "None", "facebook": "None", "youtube": "None", "website": "None", "summary": "None", "logo": "None", "latitude": 56.23912652207279, "longitude": -117.29695444463039}, "803688407RR0001": {"name": "Peace River and District Health Foundation", "designationCode": "A", "categoryCode": "13", "address": "POST OFFICE BOX 6524", "city": "PEACE RIVER", "province": "AB", "country": "CA", "postalCode": "T8S1S2", "twitter": "None", "instagram": "None", "facebook": "None", "youtube": "None", "website": "None", "summary": "None", "logo": "None", "latitude": 56.232969000000054, "longitude": -117.29043349999993}, "803929439RR0001": {"name": "Peace View Hutterian Brethren Church Foundation", "designationCode": "B", "categoryCode": "39", "address": "4414 TRIANGLE RD", "city": "PEACE RIVER REGIONAL DISTRICT", "province": "BC", "country": "CA", "postalCode": "V1G0J4", "twitter": "None", "instagram": "None", "facebook": "None", "youtube": "None", "website": "None", "summary": "None", "logo": "None", "latitude": 56.66650000000004, "longitude": -122.75301999999999}, "738250695RR0001": {"name": "Peaceful Heart Ministries", "designationCode": "C", "categoryCode": "45", "address": "3515 AMENT LINE               RR 3", "city": "WALLENSTEIN", "province": "ON", "country": "CA", "postalCode": "N0B2S0", "twitter": "None", "instagram": "None", "facebook": "None", "youtube": "None", "website": "None", "summary": "None", "logo": "None", "latitude": 43.55935045715253, "longitude": -80.63871136066712}, "769267691RR0001": {"name": "Peaceful Hearts Georgina Foundation", "designationCode": "C", "categoryCode": "11", "address": "111 KERFOOT CRESCENT", "city": "KESWICK", "province": "ON", "country": "CA", "postalCode": "L4P4B5", "twitter": "None", "instagram": "None", "facebook": "None", "youtube": "None", "website": "None", "summary": "None", "logo": "None", "latitude": 44.252114216227014, "longitude": -79.48184976187311}, "873620611RR0001": {"name": "Peaceful Hill Cemetery", "designationCode": "C", "categoryCode": "59", "address": "1024 CENTRAL PORT MOUTON RD", "city": "PORT MOUTON", "province": "NS", "country": "CA", "postalCode": "B0T1T0", "twitter": "None", "instagram": "None", "facebook": "None", "youtube": "None", "website": "None", "summary": "None", "logo": "None", "latitude": 43.89471341822979, "longitude": -64.80574953473914}, "843225939RR0001": {"name": "Peacegeeks International Society", "designationCode": "C", "categoryCode": "59", "address": "210-128 WEST HASTINGS STREET", "city": "VANCOUVER", "province": "BC", "country": "CA", "postalCode": "V6B1G8", "twitter": "None", "instagram": "None", "facebook": "None", "youtube": "None", "website": "None", "summary": "None", "logo": "None", "latitude": 49.282042145290724, "longitude": -123.10798179037513}, "859941999RR0001": {"name": "Peachland Seniors' Support Society", "designationCode": "C", "categoryCode": "09", "address": "5806 BEACH AVENUE", "city": "PEACHLAND", "province": "BC", "country": "CA", "postalCode": "V0H1X7", "twitter": "None", "instagram": "None", "facebook": "None", "youtube": "None", "website": "None", "summary": "None", "logo": "None", "latitude": 49.77374248043738, "longitude": -119.73611569429846}, "827376310RR0001": {"name": "Peak - People, Education, and Action for Kenya", "designationCode": "C", "categoryCode": "21", "address": "11700 SARCEE TRAIL NW         P.O. BOX 80084", "city": "CALGARY", "province": "AB", "country": "CA", "postalCode": "T3R0B2", "twitter": "None", "instagram": "None", "facebook": "None", "youtube": "None", "website": "None", "summary": "None", "logo": "None", "latitude": 51.15742698864591, "longitude": -114.1621635274934}, "809685928RR0001": {"name": "Peculiar Peoples Church", "designationCode": "C", "categoryCode": "39", "address": "32 SILVER ARROW CRESCENT,", "city": "MAPLE", "province": "ON", "country": "CA", "postalCode": "L6A1K3", "twitter": "None", "instagram": "None", "facebook": "None", "youtube": "None", "website": "None", "summary": "None", "logo": "None", "latitude": 43.84331020180031, "longitude": -79.50117972912452}, "856425384RR0001": {"name": "Pedal Foundation", "designationCode": "C", "categoryCode": "59", "address": "2429 MAIN ST", "city": "VANCOUVER", "province": "BC", "country": "CA", "postalCode": "V5T3E1", "twitter": "None", "instagram": "None", "facebook": "None", "youtube": "None", "website": "None", "summary": "None", "logo": "None", "latitude": 49.26343050111821, "longitude": -123.10101286074645}, "807725536RR0001": {"name": "Pediatric Cancers Survivorship Society of BC", "designationCode": "C", "categoryCode": "11", "address": "B - 60 BRAID ST", "city": "NEW WESTMINSTER", "province": "BC", "country": "CA", "postalCode": "V3L3P3", "twitter": "None", "instagram": "None", "facebook": "None", "youtube": "None", "website": "None", "summary": "None", "logo": "None", "latitude": 49.23045641210567, "longitude": -122.88063364318788}, "849449467RR0001": {"name": "Pedorthic Research Foundation of Canada Inc.", "designationCode": "C", "categoryCode": "21", "address": "386 BROADWAY                  SUITE 503", "city": "WINNIPEG", "province": "MB", "country": "CA", "postalCode": "R3C3R6", "twitter": "None", "instagram": "None", "facebook": "None", "youtube": "None", "website": "None", "summary": "None", "logo": "None", "latitude": 49.88653076545114, "longitude": -97.14461727517464}, "827304692RR0001": {"name": "Peel Islamic Cultural Center", "designationCode": "C", "categoryCode": "60", "address": "499 RAY LAWSON BLVD           UNIT 28", "city": "BRAMPTON", "province": "ON", "country": "CA", "postalCode": "L6Y3E6", "twitter": "None", "instagram": "None", "facebook": "None", "youtube": "None", "website": "None", "summary": "None", "logo": "None", "latitude": 43.65155427725212, "longitude": -79.73575851953396}, "840919302RR0001": {"name": "Peer Support Accreditation and Certification (Canada)", "designationCode": "C", "categoryCode": "11", "address": "1404 - 71 SOMERSET ST W", "city": "OTTAWA", "province": "ON", "country": "CA", "postalCode": "K2P2G2", "twitter": "None", "instagram": "None", "facebook": "None", "youtube": "None", "website": "None", "summary": "None", "logo": "None", "latitude": 45.41918543300228, "longitude": -75.68723318945104}, "860860287RR0001": {"name": "Peer Support South East Ontario", "designationCode": "C", "categoryCode": "10", "address": "C-2 350 FRONT ST", "city": "BELLEVILLE", "province": "ON", "country": "CA", "postalCode": "K8N5M5", "twitter": "None", "instagram": "None", "facebook": "None", "youtube": "None", "website": "None", "summary": "None", "logo": "None", "latitude": 44.167707241185305, "longitude": -77.38587209163798}, "811785914RR0001": {"name": "Peguis Church Inc.", "designationCode": "B", "categoryCode": "39", "address": "BOX 179                       LOT 30", "city": "PEQUIS", "province": "MB", "country": "CA", "postalCode": "R0C3J0", "twitter": "None", "instagram": "None", "facebook": "None", "youtube": "None", "website": "None", "summary": "None", "logo": "None", "latitude": 49.904619000000054, "longitude": -97.04713399999993}, "811285410RR0001": {"name": "Peguis Foundation Inc.", "designationCode": "A", "categoryCode": "53", "address": "LOT 25 BOX 129", "city": "PEGUIS", "province": "MB", "country": "CA", "postalCode": "R0C3J0", "twitter": "None", "instagram": "None", "facebook": "None", "youtube": "None", "website": "None", "summary": "None", "logo": "None", "latitude": 49.904619000000054, "longitude": -97.04713399999993}, "119088078RR0002": {"name": "Pelham Community Church", "designationCode": "C", "categoryCode": "44", "address": "461 CANBORO RD", "city": "FENWICK", "province": "ON", "country": "CA", "postalCode": "L0S1C0", "twitter": "None", "instagram": "None", "facebook": "None", "youtube": "None", "website": "None", "summary": "None", "logo": "None", "latitude": 43.034341921489755, "longitude": -79.32666085403068}, "701868697RR0001": {"name": "Pelican Pointe Recreation Committee Inc.", "designationCode": "C", "categoryCode": "56", "address": "PO BOX 330", "city": "SILTON", "province": "SK", "country": "CA", "postalCode": "S0G4L0", "twitter": "None", "instagram": "None", "facebook": "None", "youtube": "None", "website": "None", "summary": "None", "logo": "None", "latitude": 50.98678823681553, "longitude": -104.86664427875967}, "813714177RR0001": {"name": "Pelican Rising Ministries Inc.", "designationCode": "C", "categoryCode": "39", "address": "POST OFFICE BOX 364", "city": "PELICAN NARROWS", "province": "SK", "country": "CA", "postalCode": "S0P0E0", "twitter": "None", "instagram": "None", "facebook": "None", "youtube": "None", "website": "None", "summary": "None", "logo": "None", "latitude": 55.17155000000008, "longitude": -102.93388999999996}, "120148655RR0001": {"name": "Pellatt United Firefighters", "designationCode": "C", "categoryCode": "59", "address": "RR 1 BOX 1 SITE 6B", "city": "KEEWATIN", "province": "ON", "country": "CA", "postalCode": "P0X1C0", "twitter": "None", "instagram": "None", "facebook": "None", "youtube": "None", "website": "None", "summary": "None", "logo": "None", "latitude": 49.75863000000005, "longitude": -94.54708249999993}, "803567312RR0001": {"name": "Pellegrini Opera", "designationCode": "C", "categoryCode": "22", "address": "29 BANCHORY CRES", "city": "KANATA", "province": "ON", "country": "CA", "postalCode": "K2K2V4", "twitter": "None", "instagram": "None", "facebook": "None", "youtube": "None", "website": "None", "summary": "None", "logo": "None", "latitude": 45.35199131836791, "longitude": -75.92373784707712}, "851926089RR0001": {"name": "Pema Lingpa Society of Canada", "designationCode": "C", "categoryCode": "49", "address": "1050 FINLAYSON ST.", "city": "VICTORIA", "province": "BC", "country": "CA", "postalCode": "V8T2T7", "twitter": "None", "instagram": "None", "facebook": "None", "youtube": "None", "website": "None", "summary": "None", "logo": "None", "latitude": 48.446594369438344, "longitude": -123.35881505704306}, "863851366RR0001": {"name": "Pemberton Community Church", "designationCode": "C", "categoryCode": "34", "address": "BOX 301", "city": "PEMBERTON", "province": "BC", "country": "CA", "postalCode": "V0N2L0", "twitter": "None", "instagram": "None", "facebook": "None", "youtube": "None", "website": "None", "summary": "None", "logo": "None", "latitude": 50.443383074414584, "longitude": -122.91368590568882}, "840597512RR0001": {"name": "Pembina Active Living (55+) Inc.", "designationCode": "C", "categoryCode": "56", "address": "PO BOX 34056", "city": "WINNIPEG", "province": "MB", "country": "CA", "postalCode": "R3T5T5", "twitter": "None", "instagram": "None", "facebook": "None", "youtube": "None", "website": "None", "summary": "None", "logo": "None", "latitude": 49.802685000000054, "longitude": -97.14879799999993}, "872099544RR0001": {"name": "Pembina Lobstick Historical Society", "designationCode": "C", "categoryCode": "50", "address": "POST OFFICE BOX 968", "city": "EVANSBURG", "province": "AB", "country": "CA", "postalCode": "T0E0T0", "twitter": "None", "instagram": "None", "facebook": "None", "youtube": "None", "website": "None", "summary": "None", "logo": "None", "latitude": 53.59391000000005, "longitude": -115.02120999999994}, "826866337RR0001": {"name": "Pembina Manitou Community Canvass Inc.", "designationCode": "A", "categoryCode": "03", "address": "315 MAIN STREET               POST OFFICE BOX 517", "city": "MANITOU", "province": "MB", "country": "CA", "postalCode": "R0G1G0", "twitter": "None", "instagram": "None", "facebook": "None", "youtube": "None", "website": "None", "summary": "None", "logo": "None", "latitude": 49.240491760304884, "longitude": -98.53833656880333}, "890384985RR0001": {"name": "Pembina North Community School Fundraising Association", "designationCode": "C", "categoryCode": "21", "address": "RR 1", "city": "DAPP", "province": "AB", "country": "CA", "postalCode": "T0G0S0", "twitter": "None", "instagram": "None", "facebook": "None", "youtube": "None", "website": "None", "summary": "None", "logo": "None", "latitude": 55.31675519581397, "longitude": -115.62772911561181}, "119030666RR0049": {"name": "Pembina Valley Seventh-day Adventist Church", "designationCode": "C", "categoryCode": "41", "address": "1004 VICTORIA AVE", "city": "SASKATOON", "province": "SK", "country": "CA", "postalCode": "S7N0Z8", "twitter": "None", "instagram": "None", "facebook": "None", "youtube": "None", "website": "None", "summary": "None", "logo": "None", "latitude": 52.115409, "longitude": -106.66240826773014}, "787254721RR0001": {"name": "Pembroke Cemetery Company,Limited", "designationCode": "C", "categoryCode": "59", "address": "340 SHARPS MOUNTAIN RD", "city": "PEMBROKE", "province": "NB", "country": "CA", "postalCode": "E7N1Y5", "twitter": "None", "instagram": "None", "facebook": "None", "youtube": "None", "website": "None", "summary": "None", "logo": "None", "latitude": 46.17909573270256, "longitude": -67.51010640867914}, "858125958RR0001": {"name": "Pembroke Petawawa District Community Foundation", "designationCode": "A", "categoryCode": "03", "address": "284 PEMBROKE STREET EAST", "city": "PEMBROKE", "province": "ON", "country": "CA", "postalCode": "K8A6X7", "twitter": "None", "instagram": "None", "facebook": "None", "youtube": "None", "website": "None", "summary": "None", "logo": "None", "latitude": 45.827135656096885, "longitude": -77.10694988467313}, "842927741RR0001": {"name": "Pena Family Foundation", "designationCode": "A", "categoryCode": "11", "address": "6062 NEWTON WYND", "city": "VANCOUVER", "province": "BC", "country": "CA", "postalCode": "V6T1H9", "twitter": "None", "instagram": "None", "facebook": "None", "youtube": "None", "website": "None", "summary": "None", "logo": "None", "latitude": 49.2727341911403, "longitude": -123.2532585062003}, "852715994RR0001": {"name": "Pencils For Kids/Des Crayons Pour Les Enfants", "designationCode": "C", "categoryCode": "21", "address": "904 - 1 BEDFORD RD", "city": "TORONTO", "province": "ON", "country": "CA", "postalCode": "M5R2B5", "twitter": "None", "instagram": "None", "facebook": "None", "youtube": "None", "website": "None", "summary": "None", "logo": "None", "latitude": 43.66843667222569, "longitude": -79.39750935619506}, "816923437RR0001": {"name": "Pender Charitable Foundation", "designationCode": "B", "categoryCode": "03", "address": "1800 - 510 GEORGIA ST W", "city": "VANCOUVER", "province": "BC", "country": "CA", "postalCode": "V6B0M3", "twitter": "None", "instagram": "None", "facebook": "None", "youtube": "None", "website": "None", "summary": "None", "logo": "None", "latitude": 49.281267759207665, "longitude": -123.11633309804196}, "761825298RR0001": {"name": "Pender Harbour & District Health Centre Auxiliary Society", "designationCode": "A", "categoryCode": "03", "address": "PO BOX 308", "city": "MADEIRA PARK", "province": "BC", "country": "CA", "postalCode": "V0N2H0", "twitter": "None", "instagram": "None", "facebook": "None", "youtube": "None", "website": "None", "summary": "None", "logo": "None", "latitude": 49.61982063633974, "longitude": -124.0231710391864}, "849351317RR0001": {"name": "Pender Harbour Reading Centre Society", "designationCode": "C", "categoryCode": "21", "address": "BOX 278", "city": "MADEIRA PARK", "province": "BC", "country": "CA", "postalCode": "V0N2H0", "twitter": "None", "instagram": "None", "facebook": "None", "youtube": "None", "website": "None", "summary": "None", "logo": "None", "latitude": 49.61982063633974, "longitude": -124.0231710391864}, "892185042RR0001": {"name": "Pender Harbour Seniors Housing Society", "designationCode": "C", "categoryCode": "01", "address": "PO BOX 264", "city": "MADEIRA PARK", "province": "BC", "country": "CA", "postalCode": "V0N2H0", "twitter": "None", "instagram": "None", "facebook": "None", "youtube": "None", "website": "None", "summary": "None", "logo": "None", "latitude": 49.61982063633974, "longitude": -124.0231710391864}, "868557059RR0001": {"name": "Penhold & District Public Library", "designationCode": "C", "categoryCode": "50", "address": "POST OFFICE BOX 675           1 WASKASOO AVENUE", "city": "PENHOLD", "province": "AB", "country": "CA", "postalCode": "T0M1R0", "twitter": "None", "instagram": "None", "facebook": "None", "youtube": "None", "website": "None", "summary": "None", "logo": "None", "latitude": 52.20279115234012, "longitude": -113.84533305825128}, "829553007RR0001": {"name": "Peniel Glorious Destiny Christian Church Calgary", "designationCode": "C", "categoryCode": "39", "address": "P.O. BOX 99046 32 AVE.        (LONDON TOWN)", "city": "CALGARY", "province": "AB", "country": "CA", "postalCode": "T1Y0A6", "twitter": "None", "instagram": "None", "facebook": "None", "youtube": "None", "website": "None", "summary": "None", "logo": "None", "latitude": 51.08145533714105, "longitude": -113.92979886228379}, "795485929RR0001": {"name": "Peniel Pentecostal Assembly Beaumont", "designationCode": "C", "categoryCode": "39", "address": "11737 10A AVE NW", "city": "EDMONTON", "province": "AB", "country": "CA", "postalCode": "T6J7A7", "twitter": "None", "instagram": "None", "facebook": "None", "youtube": "None", "website": "None", "summary": "None", "logo": "None", "latitude": 53.440806532315904, "longitude": -113.5372510269202}, "762290526RR0001": {"name": "Penimi", "designationCode": "C", "categoryCode": "49", "address": "1365 AV LAJOIE", "city": "OUTREMONT", "province": "QC", "country": "CA", "postalCode": "H2V1P6", "twitter": "None", "instagram": "None", "facebook": "None", "youtube": "None", "website": "None", "summary": "None", "logo": "None", "latitude": 45.51941882237862, "longitude": -73.61198541453618}, "891528929RR0001": {"name": "Peninsula Community Foundation", "designationCode": "A", "categoryCode": "03", "address": "250-2411 160TH STREET", "city": "SURREY", "province": "BC", "country": "CA", "postalCode": "V3S0C8", "twitter": "None", "instagram": "None", "facebook": "None", "youtube": "None", "website": "None", "summary": "None", "logo": "None", "latitude": 49.123796854360464, "longitude": -122.77882962626087}, "819644410RR0001": {"name": "Peninsula Mission Community Church", "designationCode": "C", "categoryCode": "39", "address": "2244 COOPERIDGE DR", "city": "SAANICHTON", "province": "BC", "country": "CA", "postalCode": "V8M1N2", "twitter": "None", "instagram": "None", "facebook": "None", "youtube": "None", "website": "None", "summary": "None", "logo": "None", "latitude": 48.57193357021259, "longitude": -123.4056754890972}, "849372883RR0001": {"name": "Peninsula Productions Society", "designationCode": "C", "categoryCode": "22", "address": "14600 NORTH BLUFF RD", "city": "WHITE ROCK", "province": "BC", "country": "CA", "postalCode": "V4B3C9", "twitter": "None", "instagram": "None", "facebook": "None", "youtube": "None", "website": "None", "summary": "None", "logo": "None", "latitude": 49.03107557579798, "longitude": -122.8174231797648}, "118879287RR0001": {"name": "Peninsula United Church", "designationCode": "C", "categoryCode": "44", "address": "15639 24 AVE", "city": "SURREY", "province": "BC", "country": "CA", "postalCode": "V4A2J6", "twitter": "None", "instagram": "None", "facebook": "None", "youtube": "None", "website": "None", "summary": "None", "logo": "None", "latitude": 49.04559150764606, "longitude": -122.78882250000001}, "806563045RR0001": {"name": "Penmar Community Arts Society", "designationCode": "C", "categoryCode": "22", "address": "PO BOX 646", "city": "OKANAGAN FALLS", "province": "BC", "country": "CA", "postalCode": "V0H1R0", "twitter": "None", "instagram": "None", "facebook": "None", "youtube": "None", "website": "None", "summary": "None", "logo": "None", "latitude": 49.34373000000005, "longitude": -119.57151999999996}, "818239766RR0001": {"name": "PennyDrops", "designationCode": "B", "categoryCode": "21", "address": "2 CHESHIRE PLACE", "city": "RICHMOND HILL", "province": "ON", "country": "CA", "postalCode": "L4C6G5", "twitter": "None", "instagram": "None", "facebook": "None", "youtube": "None", "website": "None", "summary": "None", "logo": "None", "latitude": 43.83819281793522, "longitude": -79.4451254595767}, "830114526RR0001": {"name": "Pentecost Community Development Agency (PENTCDA)", "designationCode": "C", "categoryCode": "59", "address": "2256 SHEPPARD AVENUE WEST", "city": "TORONTO", "province": "ON", "country": "CA", "postalCode": "M9M1L7", "twitter": "None", "instagram": "None", "facebook": "None", "youtube": "None", "website": "None", "summary": "None", "logo": "None", "latitude": 43.7355352018003, "longitude": -79.53029702873788}, "135360352RR0001": {"name": "Pentecostal Assemblies of Canada, Saskatchewan District Inc.", "designationCode": "C", "categoryCode": "36", "address": "1303 JACKSON AVE", "city": "SASKATOON", "province": "SK", "country": "CA", "postalCode": "S7H2M9", "twitter": "None", "instagram": "None", "facebook": "None", "youtube": "None", "website": "None", "summary": "None", "logo": "None", "latitude": 52.112934062178944, "longitude": -106.63378772058442}, "107833394RR0061": {"name": "Pentecostal Assembly of Birchy Head", "designationCode": "C", "categoryCode": "37", "address": "133 TABLELAND DRIVE", "city": "BIRCHY HEAD", "province": "NL", "country": "CA", "postalCode": "A0K1K0", "twitter": "None", "instagram": "None", "facebook": "None", "youtube": "None", "website": "None", "summary": "None", "logo": "None", "latitude": 49.436133000000055, "longitude": -57.896994499999934}, "810500645RR0001": {"name": "Pentecostal Church in Motion Inc.", "designationCode": "C", "categoryCode": "36", "address": "1709 RTE 101", "city": "NASONWORTH", "province": "NB", "country": "CA", "postalCode": "E3C2E2", "twitter": "None", "instagram": "None", "facebook": "None", "youtube": "None", "website": "None", "summary": "None", "logo": "None", "latitude": 45.8363517603464, "longitude": -66.67541188384645}, "831479175RR0001": {"name": "Pentecostales de Tri-City", "designationCode": "C", "categoryCode": "39", "address": "100 EIGHTTH AVENUE-APT 510", "city": "KITCHNER", "province": "ON", "country": "CA", "postalCode": "N2C1S3", "twitter": "None", "instagram": "None", "facebook": "None", "youtube": "None", "website": "None", "summary": "None", "logo": "None", "latitude": 43.430775000000054, "longitude": -80.44927099999994}, "832348247RR0001": {"name": "Penticton and Area Access Society", "designationCode": "C", "categoryCode": "59", "address": "#209-304 MARTIN STREET", "city": "PENTICTON", "province": "BC", "country": "CA", "postalCode": "V2A5K4", "twitter": "None", "instagram": "None", "facebook": "None", "youtube": "None", "website": "None", "summary": "None", "logo": "None", "latitude": 49.49845742714524, "longitude": -119.59351031389585}, "889154068RR0001": {"name": "Penticton Skaha Community Projects Society", "designationCode": "C", "categoryCode": "56", "address": "150 ACACIA PL", "city": "PENTICTON", "province": "BC", "country": "CA", "postalCode": "V2A7B2", "twitter": "None", "instagram": "None", "facebook": "None", "youtube": "None", "website": "None", "summary": "None", "logo": "None", "latitude": 49.49570700000001, "longitude": -119.57320868192056}, "826058620RR0001": {"name": "Penticton Writers and Publishers", "designationCode": "C", "categoryCode": "22", "address": "4011 FINNERTY ROAD", "city": "PENTICTON", "province": "BC", "country": "CA", "postalCode": "V2A8W2", "twitter": "None", "instagram": "None", "facebook": "None", "youtube": "None", "website": "None", "summary": "None", "logo": "None", "latitude": 49.44595823757862, "longitude": -119.58076424868713}, "809937840RR0001": {"name": "People and the Sea Film Festival Inc.", "designationCode": "C", "categoryCode": "22", "address": "61 PRINCE OF WALES STREET", "city": "ST. JOHN'S", "province": "NL", "country": "CA", "postalCode": "A1C4N1", "twitter": "None", "instagram": "None", "facebook": "None", "youtube": "None", "website": "None", "summary": "None", "logo": "None", "latitude": 47.56109151788917, "longitude": -52.72209913627445}, "899625990RR0001": {"name": "People for Animals of Saskatchewan Inc.", "designationCode": "C", "categoryCode": "54", "address": "P.O BOX 33066                 CATHEDRAL POSTAL OUTLET", "city": "REGINA", "province": "SK", "country": "CA", "postalCode": "S4T7X2", "twitter": "None", "instagram": "None", "facebook": "None", "youtube": "None", "website": "None", "summary": "None", "logo": "None", "latitude": 50.448246000000054, "longitude": -104.59517299999993}, "137824348RR0001": {"name": "People for Equal Partnership in Mental Health-Nipissing", "designationCode": "C", "categoryCode": "11", "address": "351 FERGUSON ST               3RD FLOOR", "city": "NORTH BAY", "province": "ON", "country": "CA", "postalCode": "P1B1X1", "twitter": "None", "instagram": "None", "facebook": "None", "youtube": "None", "website": "None", "summary": "None", "logo": "None", "latitude": 46.3106686075366, "longitude": -79.4635319136708}, "847451119RR0001": {"name": "People for Progress Foundation (PFPF)", "designationCode": "C", "categoryCode": "09", "address": "303-228 90 AVE SE", "city": "CALGARY", "province": "AB", "country": "CA", "postalCode": "T2J6P6", "twitter": "None", "instagram": "None", "facebook": "None", "youtube": "None", "website": "None", "summary": "None", "logo": "None", "latitude": 50.97232702907635, "longitude": -114.06602754958303}, "841717283RR0001": {"name": "People in Pain Network Society", "designationCode": "C", "categoryCode": "11", "address": "121 - 303 ARDEN RD", "city": "COURTENAY", "province": "BC", "country": "CA", "postalCode": "V9N0A8", "twitter": "None", "instagram": "None", "facebook": "None", "youtube": "None", "website": "None", "summary": "None", "logo": "None", "latitude": 49.681097958389714, "longitude": -125.02417470444726}, "846880722RR0001": {"name": "People of Praise Ministries International (Canada)", "designationCode": "C", "categoryCode": "39", "address": "201 - 4631 199 ST NW", "city": "EDMONTON", "province": "AB", "country": "CA", "postalCode": "T6M0T1", "twitter": "None", "instagram": "None", "facebook": "None", "youtube": "None", "website": "None", "summary": "None", "logo": "None", "latitude": 53.46467696303322, "longitude": -113.66435700000001}, "141014860RR0001": {"name": "People Advocating for Change Through Empowerment Inc.", "designationCode": "C", "categoryCode": "11", "address": "217 ALGOMA STREET SOUTH", "city": "THUNDER BAY", "province": "ON", "country": "CA", "postalCode": "P7B3C3", "twitter": "None", "instagram": "None", "facebook": "None", "youtube": "None", "website": "None", "summary": "None", "logo": "None", "latitude": 48.43008405522538, "longitude": -89.23113708407882}, "130164015RR0001": {"name": "People First of Ontario", "designationCode": "C", "categoryCode": "59", "address": "104 - 1323 LANGLOIS AVE", "city": "WINDSOR", "province": "ON", "country": "CA", "postalCode": "N8X4L8", "twitter": "None", "instagram": "None", "facebook": "None", "youtube": "None", "website": "None", "summary": "None", "logo": "None", "latitude": 42.30819089119401, "longitude": -83.01556953277723}, "817496722RR0001": {"name": "Peoples Baptist Church, Inc.", "designationCode": "C", "categoryCode": "31", "address": "380 RUPERTSLAND AVENUE", "city": "WINNIPEG", "province": "MB", "country": "CA", "postalCode": "R2V0G8", "twitter": "None", "instagram": "None", "facebook": "None", "youtube": "None", "website": "None", "summary": "None", "logo": "None", "latitude": 49.93466106797867, "longitude": -97.13083017389913}, "851997106RR0001": {"name": "Peoples Gospel Church", "designationCode": "C", "categoryCode": "39", "address": "201 TEMPO AVENUE", "city": "TORONTO", "province": "ON", "country": "CA", "postalCode": "M2H2R9", "twitter": "None", "instagram": "None", "facebook": "None", "youtube": "None", "website": "None", "summary": "None", "logo": "None", "latitude": 43.80575890697704, "longitude": -79.33991420578234}, "810157040RR0001": {"name": "Peoples 25:40 Church", "designationCode": "C", "categoryCode": "39", "address": "207 BROOKLYN ROAD", "city": "MIDDLETON", "province": "NS", "country": "CA", "postalCode": "B0S1P0", "twitter": "None", "instagram": "None", "facebook": "None", "youtube": "None", "website": "None", "summary": "None", "logo": "None"}, "843808718RR0001": {"name": "PeopleSense Foundation", "designationCode": "B", "categoryCode": "05", "address": "131 BLOOR STREET WEST,        SUITE 357", "city": "TORONTO", "province": "ON", "country": "CA", "postalCode": "M5S1R8", "twitter": "None", "instagram": "None", "facebook": "None", "youtube": "None", "website": "None", "summary": "None", "logo": "None", "latitude": 43.6690298892321, "longitude": -79.3924665777022}, "836285494RR0001": {"name": "Perdue Daycare Inc.", "designationCode": "C", "categoryCode": "01", "address": "BOX 142", "city": "PERDUE", "province": "SK", "country": "CA", "postalCode": "S0K3C0", "twitter": "None", "instagram": "None", "facebook": "None", "youtube": "None", "website": "None", "summary": "None", "logo": "None", "latitude": 52.13422819405385, "longitude": -107.23358805782026}, "873169163RR0001": {"name": "Peregrine Falcon Recovery Project (Manitoba)", "designationCode": "C", "categoryCode": "54", "address": "BOX 69005,110-2025 CORYDON AVE", "city": "WINNIPEG", "province": "MB", "country": "CA", "postalCode": "R3P2G9", "twitter": "None", "instagram": "None", "facebook": "None", "youtube": "None", "website": "None", "summary": "None", "logo": "None", "latitude": 49.86654052322662, "longitude": -97.21201206688214}, "748700127RR0001": {"name": "Perfect Attendance Foundation", "designationCode": "C", "categoryCode": "21", "address": "2506 - 99 SPRUCE PL SW", "city": "CALGARY", "province": "AB", "country": "CA", "postalCode": "T3C3X7", "twitter": "None", "instagram": "None", "facebook": "None", "youtube": "None", "website": "None", "summary": "None", "logo": "None", "latitude": 51.043032, "longitude": -114.13645962323787}, "855756110RR0001": {"name": "Performance Boat Club Charities", "designationCode": "A", "categoryCode": "03", "address": "69 LAFONTAINE RD. E", "city": "TINY", "province": "ON", "country": "CA", "postalCode": "L9M0S1", "twitter": "None", "instagram": "None", "facebook": "None", "youtube": "None", "website": "None", "summary": "None", "logo": "None", "latitude": 44.77278601410961, "longitude": -80.0195592587287}, "805843117RR0001": {"name": "Peri Operative Program (POP) / Programme P\u00e9ri-Op\u00e9ratoire (POP)", "designationCode": "C", "categoryCode": "11", "address": "602 - 3465 RUE REDPATH", "city": "MONTREAL", "province": "QC", "country": "CA", "postalCode": "H3G2G8", "twitter": "None", "instagram": "None", "facebook": "None", "youtube": "None", "website": "None", "summary": "None", "logo": "None", "latitude": 45.499088177650044, "longitude": -73.58265103883676}, "739711521RR0001": {"name": "Periods On The Street", "designationCode": "A", "categoryCode": "03", "address": "1308 - 588 BROUGHTON ST", "city": "VANCOUVER", "province": "BC", "country": "CA", "postalCode": "V6G3E3", "twitter": "None", "instagram": "None", "facebook": "None", "youtube": "None", "website": "None", "summary": "None", "logo": "None", "latitude": 49.28989370382045, "longitude": -123.12689352256372}, "740385497RR0001": {"name": "Perpetual GRACCE Foundation Inc", "designationCode": "B", "categoryCode": "03", "address": "14 PARKRIDGE DR", "city": "CAMROSE", "province": "AB", "country": "CA", "postalCode": "T4V4X8", "twitter": "None", "instagram": "None", "facebook": "None", "youtube": "None", "website": "None", "summary": "None", "logo": "None", "latitude": 53.00092837526674, "longitude": -112.83728744336096}, "770963320RR0001": {"name": "Perrinham Foundation", "designationCode": "B", "categoryCode": "03", "address": "316-425 CARRALL STREET", "city": "VANCOUVER", "province": "BC", "country": "CA", "postalCode": "V6B6E3", "twitter": "None", "instagram": "None", "facebook": "None", "youtube": "None", "website": "None", "summary": "None", "logo": "None", "latitude": 49.28107458090486, "longitude": -123.10442464770009}}