{"106721194RR0001": {"name": "ARK AID STREET MISSION INC.", "designationCode": "C", "categoryCode": "47", "address": "696 DUNDAS ST E", "city": "LONDON", "province": "ON", "country": "CA", "postalCode": "N5W2Z4", "twitter": "None", "instagram": "None", "facebook": "None", "youtube": "None", "website": "None", "summary": "None", "logo": "None", "latitude": 42.98977186984237, "longitude": -81.22842899945174}, "890241227RR0001": {"name": "ARK ANGEL FOUNDATION", "designationCode": "A", "categoryCode": "53", "address": "SUITE  409                    120 CARLETON ST.", "city": "TORONTO", "province": "ON", "country": "CA", "postalCode": "M5A4K2", "twitter": "None", "instagram": "None", "facebook": "None", "youtube": "None", "website": "None", "summary": "None", "logo": "None", "latitude": 43.66252315794319, "longitude": -79.37630931294355}, "869008136RR0001": {"name": "ARK ANGEL FUND", "designationCode": "C", "categoryCode": "54", "address": "SUITE 409                     120 CARLETON ST.", "city": "TORONTO", "province": "ON", "country": "CA", "postalCode": "M5A4K2", "twitter": "None", "instagram": "None", "facebook": "None", "youtube": "None", "website": "None", "summary": "None", "logo": "None", "latitude": 43.66252315794319, "longitude": -79.37630931294355}, "890992340RR0001": {"name": "ARKAN DANCE COMPANY", "designationCode": "C", "categoryCode": "22", "address": "952 FLETCHER VALLEY CRESCENT", "city": "MISSISSAUGA", "province": "ON", "country": "CA", "postalCode": "L5J2X7", "twitter": "None", "instagram": "None", "facebook": "None", "youtube": "None", "website": "None", "summary": "None", "logo": "None", "latitude": 43.51053012075123, "longitude": -79.61915566054027}, "139697460RR0001": {"name": "ARKELL ROAD BIBLE CHAPEL", "designationCode": "C", "categoryCode": "47", "address": "P.O. BOX 1749", "city": "GUELPH", "province": "ON", "country": "CA", "postalCode": "N1H6Z9", "twitter": "None", "instagram": "None", "facebook": "None", "youtube": "None", "website": "None", "summary": "None", "logo": "None", "latitude": 43.54455300000005, "longitude": -80.24788249999993}, "118789536RR0001": {"name": "ARKELL UNITED CHURCH", "designationCode": "C", "categoryCode": "44", "address": "600 ARKELL RD", "city": "ARKELL", "province": "ON", "country": "CA", "postalCode": "N0B1C0", "twitter": "None", "instagram": "None", "facebook": "None", "youtube": "None", "website": "None", "summary": "None", "logo": "None", "latitude": 43.537129300882754, "longitude": -80.16804965753917}, "118789544RR0001": {"name": "ARKONA BAPTIST CHURCH", "designationCode": "C", "categoryCode": "31", "address": "8152 ZION LINE                RR#4", "city": "WATFORD", "province": "ON", "country": "CA", "postalCode": "N0M2S0", "twitter": "None", "instagram": "None", "facebook": "None", "youtube": "None", "website": "None", "summary": "None", "logo": "None", "latitude": 42.9799354754744, "longitude": -81.85932}, "889480307RR0001": {"name": "ARLINGTON BEACH CAMP & CONFERENCE CENTRE INC.", "designationCode": "C", "categoryCode": "56", "address": "PO BOX 15", "city": "CYMRIC", "province": "SK", "country": "CA", "postalCode": "S0G0Z0", "twitter": "None", "instagram": "None", "facebook": "None", "youtube": "None", "website": "None", "summary": "None", "logo": "None", "latitude": 51.24126000000007, "longitude": -104.98683999999997}, "119288918RR0188": {"name": "ARLINGTON CONGREGATION OF JEHOVAH'S WITNESSES, WINNIPEG, MANITOBA", "designationCode": "C", "categoryCode": "61", "address": "1060 WOLEVER AVENUE", "city": "WINNIPEG", "province": "MB", "country": "CA", "postalCode": "R3G3N6", "twitter": "None", "instagram": "None", "facebook": "None", "youtube": "None", "website": "None", "summary": "None", "logo": "None", "latitude": 49.88683655727421, "longitude": -97.17702180544174}, "118789601RR0001": {"name": "ARLINGTON UNITED BAPTIST CHURCH", "designationCode": "C", "categoryCode": "31", "address": "673 BAINS RD. RR#2", "city": "CENTREVILLE", "province": "NS", "country": "CA", "postalCode": "B0P1J0", "twitter": "None", "instagram": "None", "facebook": "None", "youtube": "None", "website": "None", "summary": "None", "logo": "None", "latitude": 45.15249374606141, "longitude": -64.50156046531818}, "838895829RR0001": {"name": "ARLINGTON WOODS FREE METHODIST CHURCH", "designationCode": "C", "categoryCode": "39", "address": "225 MCCLELLAN ROAD", "city": "NEPEAN", "province": "ON", "country": "CA", "postalCode": "K2H8N5", "twitter": "None", "instagram": "None", "facebook": "None", "youtube": "None", "website": "None", "summary": "None", "logo": "None", "latitude": 45.325196158520114, "longitude": -75.7852169317042}, "863312286RR0001": {"name": "ARLYN AWARD SOCIETY", "designationCode": "C", "categoryCode": "22", "address": "4348 COASTVIEW DR.", "city": "GARDEN BAY", "province": "BC", "country": "CA", "postalCode": "V0N1S1", "twitter": "None", "instagram": "None", "facebook": "None", "youtube": "None", "website": "None", "summary": "None", "logo": "None", "latitude": 49.64162443046345, "longitude": -124.06183970586831}, "892468042RR0001": {"name": "ARM RIVER CHARITABLE TRUST", "designationCode": "B", "categoryCode": "39", "address": "3425-2 AVENUE SOUTH", "city": "LETHBRIDGE", "province": "AB", "country": "CA", "postalCode": "T1J4V1", "twitter": "None", "instagram": "None", "facebook": "None", "youtube": "None", "website": "None", "summary": "None", "logo": "None", "latitude": 49.696839530439966, "longitude": -112.78914308381903}, "871850806RR0001": {"name": "ARMADA CHARITABLE TRUST", "designationCode": "B", "categoryCode": "39", "address": "3425-2 AVE S", "city": "LETHBRIDGE", "province": "AB", "country": "CA", "postalCode": "T1J4A1", "twitter": "None", "instagram": "None", "facebook": "None", "youtube": "None", "website": "None", "summary": "None", "logo": "None", "latitude": 49.696839530439966, "longitude": -112.78914308381903}, "106721434RR0001": {"name": "ARMADALE FREE METHODIST CHURCH", "designationCode": "C", "categoryCode": "39", "address": "2 MORAN ROAD", "city": "SCARBOROUGH", "province": "ON", "country": "CA", "postalCode": "M1S2H9", "twitter": "None", "instagram": "None", "facebook": "None", "youtube": "None", "website": "None", "summary": "None", "logo": "None", "latitude": 43.792441009983314, "longitude": -79.27355433210214}, "118789635RR0001": {"name": "ARMAGH", "designationCode": "C", "categoryCode": "01", "address": "PO BOX 52581                  1801 LAKESHORE RD WEST", "city": "MISSISSAUGA", "province": "ON", "country": "CA", "postalCode": "L5J4S6", "twitter": "None", "instagram": "None", "facebook": "None", "youtube": "None", "website": "None", "summary": "None", "logo": "None", "latitude": 43.51611909856288, "longitude": -79.62441457735548}, "118789643RR0001": {"name": "ARMAGH L. SIFTON CHARITABLE FOUNDATION", "designationCode": "B", "categoryCode": "05", "address": "4 FOOTHILLS DRIVE", "city": "NEPEAN", "province": "ON", "country": "CA", "postalCode": "K2H6K3", "twitter": "None", "instagram": "None", "facebook": "None", "youtube": "None", "website": "None", "summary": "None", "logo": "None", "latitude": 45.329352276155596, "longitude": -75.81331207911582}, "107951618RR0563": {"name": "ARMEE DU SALUT EGLISE COMMUNAUTAIRE NOUVEL ESPOIR (SHAWINIGAN)", "designationCode": "C", "categoryCode": "40", "address": "663 RUE VIGER", "city": "SHAWINIGAN", "province": "QC", "country": "CA", "postalCode": "G9N4J7", "twitter": "None", "instagram": "None", "facebook": "None", "youtube": "None", "website": "None", "summary": "None", "logo": "None", "latitude": 46.553924987218075, "longitude": -72.74019004151981}, "118789866RR0001": {"name": "ARMEN ONTARIO OF ARMENIAN GENERAL BENEVOLENT UNION INC.", "designationCode": "C", "categoryCode": "56", "address": "930 PROGRESS AVE", "city": "SCARBOROUGH", "province": "ON", "country": "CA", "postalCode": "M1G3T5", "twitter": "None", "instagram": "None", "facebook": "None", "youtube": "None", "website": "None", "summary": "None", "logo": "None", "latitude": 43.78256201335886, "longitude": -79.23269911676915}, "118789718RR0001": {"name": "ARMENIAN BIBLICAL BROTHERHOOD CHURCH", "designationCode": "C", "categoryCode": "39", "address": "4810 4E RUE", "city": "LAVAL", "province": "QC", "country": "CA", "postalCode": "H7W2K7", "twitter": "None", "instagram": "None", "facebook": "None", "youtube": "None", "website": "None", "summary": "None", "logo": "None", "latitude": 45.52968248124545, "longitude": -73.76405416763806}, "134145317RR0001": {"name": "ARMENIAN CATHOLIC COMMUNITY OF TORONTO", "designationCode": "C", "categoryCode": "38", "address": "100 NORTHDALE RD", "city": "TORONTO", "province": "ON", "country": "CA", "postalCode": "M2L2M1", "twitter": "None", "instagram": "None", "facebook": "None", "youtube": "None", "website": "None", "summary": "None", "logo": "None", "latitude": 43.763501050550836, "longitude": -79.37924895833596}, "118789759RR0001": {"name": "ARMENIAN COMMUNITY CENTRE", "designationCode": "C", "categoryCode": "59", "address": "45 HALLCROWN PL", "city": "WILLOWDALE", "province": "ON", "country": "CA", "postalCode": "M2J4Y4", "twitter": "None", "instagram": "None", "facebook": "None", "youtube": "None", "website": "None", "summary": "None", "logo": "None", "latitude": 43.770191218420045, "longitude": -79.32306468985601}, "140547225RR0001": {"name": "ARMENIAN COMMUNITY CENTRE (HAMILTON)", "designationCode": "C", "categoryCode": "56", "address": "191 BARTON STREET EAST", "city": "STONEY CREEK", "province": "ON", "country": "CA", "postalCode": "L8E2K3", "twitter": "None", "instagram": "None", "facebook": "None", "youtube": "None", "website": "None", "summary": "None", "logo": "None", "latitude": 43.23204320237721, "longitude": -79.7374565950431}, "129958948RR0001": {"name": "ARMENIAN COMMUNITY CENTRE (ST CATHARINES)", "designationCode": "C", "categoryCode": "56", "address": "156 MARTINDALE RD", "city": "ST CATHARINES", "province": "ON", "country": "CA", "postalCode": "L2S2X9", "twitter": "None", "instagram": "None", "facebook": "None", "youtube": "None", "website": "None", "summary": "None", "logo": "None", "latitude": 43.16786134225834, "longitude": -79.27037876579784}, "118789767RR0001": {"name": "ARMENIAN COMMUNITY CENTRE OF CAMBRIDGE", "designationCode": "C", "categoryCode": "22", "address": "15 INTERNATIONAL DRIVE", "city": "CAMBRIDGE", "province": "ON", "country": "CA", "postalCode": "N1R7M5", "twitter": "None", "instagram": "None", "facebook": "None", "youtube": "None", "website": "None", "summary": "None", "logo": "None", "latitude": 43.39035000000001, "longitude": -80.31851878968735}, "132175753RR0001": {"name": "ARMENIAN CULTURAL ASSOCIATION OF BRITISH COLUMBIA", "designationCode": "C", "categoryCode": "22", "address": "44 N.DELTA AVE", "city": "BURNABY", "province": "BC", "country": "CA", "postalCode": "V5B1E6", "twitter": "None", "instagram": "None", "facebook": "None", "youtube": "None", "website": "None", "summary": "None", "logo": "None", "latitude": 49.285060239800345, "longitude": -122.99191795444081}, "890470990RR0001": {"name": "ARMENIAN CULTURAL ASSOCIATION OF OTTAWA", "designationCode": "C", "categoryCode": "56", "address": "PO BOX 23153", "city": "OTTAWA", "province": "ON", "country": "CA", "postalCode": "K2A4E2", "twitter": "None", "instagram": "None", "facebook": "None", "youtube": "None", "website": "None", "summary": "None", "logo": "None", "latitude": 45.42177300000006, "longitude": -75.69115999999994}, "888427846RR0001": {"name": "ARMENIAN EMMANUEL CHURCH OF THE NAZARENE", "designationCode": "C", "categoryCode": "39", "address": "2537 BAYVIEW AVE", "city": "TORONTO", "province": "ON", "country": "CA", "postalCode": "M2L1B1", "twitter": "None", "instagram": "None", "facebook": "None", "youtube": "None", "website": "None", "summary": "None", "logo": "None", "latitude": 43.74564302054357, "longitude": -79.38367437754668}, "883050775RR0001": {"name": "ARMENIAN ENDOWMENT FUND", "designationCode": "A", "categoryCode": "03", "address": "45 HALLCROWN PLACE", "city": "TORONTO", "province": "ON", "country": "CA", "postalCode": "M2J4Y4", "twitter": "None", "instagram": "None", "facebook": "None", "youtube": "None", "website": "None", "summary": "None", "logo": "None"}, "138445051RR0001": {"name": "ARMENIAN EVANGELICAL BROTHERHOOD CHURCH OF TORONTO", "designationCode": "C", "categoryCode": "39", "address": "480 HUNTINGWOOD DR", "city": "SCARBOROUGH", "province": "ON", "country": "CA", "postalCode": "M1W1G4", "twitter": "None", "instagram": "None", "facebook": "None", "youtube": "None", "website": "None", "summary": "None", "logo": "None", "latitude": 43.78457510023632, "longitude": -79.31499806947922}, "106721673RR0001": {"name": "ARMENIAN EVANGELICAL CHURCH OF CAMBRIDGE", "designationCode": "C", "categoryCode": "39", "address": "1620 FRANKLIN BLVD.", "city": "CAMBRIDGE", "province": "ON", "country": "CA", "postalCode": "N3C1P2", "twitter": "None", "instagram": "None", "facebook": "None", "youtube": "None", "website": "None", "summary": "None", "logo": "None", "latitude": 43.424711559813026, "longitude": -80.31016030021893}, "106721681RR0001": {"name": "ARMENIAN EVANGELICAL CHURCH OF MONTREAL (THE UNITED CHURCH OF CANADA)", "designationCode": "C", "categoryCode": "44", "address": "123 BOUL DES PRAIRIES", "city": "LAVAL", "province": "QC", "country": "CA", "postalCode": "H7N2T6", "twitter": "None", "instagram": "None", "facebook": "None", "youtube": "None", "website": "None", "summary": "None", "logo": "None", "latitude": 45.5532502181889, "longitude": -73.6860258412774}, "129542932RR0001": {"name": "ARMENIAN EVANGELICAL CHURCH OF TORONTO", "designationCode": "C", "categoryCode": "39", "address": "2600 - 14TH AVE.", "city": "MARKHAM", "province": "ON", "country": "CA", "postalCode": "L3R3X1", "twitter": "None", "instagram": "None", "facebook": "None", "youtube": "None", "website": "None", "summary": "None", "logo": "None", "latitude": 43.82911495813347, "longitude": -79.36274081115454}, "125160143RR0001": {"name": "ARMENIAN GENERAL BENEVOLENT UNION OF CANADA INC.", "designationCode": "C", "categoryCode": "43", "address": "930 PROGRESS AVE", "city": "SCARBOROUGH", "province": "ON", "country": "CA", "postalCode": "M1G3T5", "twitter": "None", "instagram": "None", "facebook": "None", "youtube": "None", "website": "None", "summary": "None", "logo": "None", "latitude": 43.78256201335886, "longitude": -79.23269911676915}, "118789817RR0001": {"name": "ARMENIAN GENERAL BENEVOLENT UNION OF MONTREAL INC./UNION GENERALE ARMENIENNE BIENFAISANCE DE MONTREAL INC.", "designationCode": "C", "categoryCode": "09", "address": "805 RUE MANOOGIAN", "city": "SAINT-LAURENT", "province": "QC", "country": "CA", "postalCode": "H4N1Z5", "twitter": "None", "instagram": "None", "facebook": "None", "youtube": "None", "website": "None", "summary": "None", "logo": "None", "latitude": 45.517179363033044, "longitude": -73.66698918598858}, "118789833RR0001": {"name": "ARMENIAN HOLY APOSTOLIC CHURCH", "designationCode": "C", "categoryCode": "39", "address": "615 STUART AVENUE", "city": "OUTREMONT", "province": "QC", "country": "CA", "postalCode": "H2V3H2", "twitter": "None", "instagram": "None", "facebook": "None", "youtube": "None", "website": "None", "summary": "None", "logo": "None", "latitude": 45.51780118875856, "longitude": -73.61138857879871}, "892191396RR0001": {"name": "ARMENIAN HOLY APOSTOLIC CHURCH CANADIAN DIOCESE/DIOCESE CANADIEN DE LA SAINTE EGLISE APOSTOLIQUE ARMENIENNE", "designationCode": "C", "categoryCode": "39", "address": "615 STUART", "city": "OUTREMONT", "province": "QC", "country": "CA", "postalCode": "H2V3H2", "twitter": "None", "instagram": "None", "facebook": "None", "youtube": "None", "website": "None", "summary": "None", "logo": "None", "latitude": 45.51780118875856, "longitude": -73.61138857879871}, "890624190RR0001": {"name": "ARMENIAN MISSIONARY ASSOCIATION OF CANADA", "designationCode": "C", "categoryCode": "49", "address": "45 FAIRGLEN AVENUE", "city": "TORONTO", "province": "ON", "country": "CA", "postalCode": "M1T1G8", "twitter": "None", "instagram": "None", "facebook": "None", "youtube": "None", "website": "None", "summary": "None", "logo": "None", "latitude": 43.77902925895891, "longitude": -79.32183829361209}, "860740745RR0001": {"name": "ARMENIAN ORPHANS FUND", "designationCode": "C", "categoryCode": "21", "address": "7788 - 143 STREET", "city": "SURREY", "province": "BC", "country": "CA", "postalCode": "V3W0L2", "twitter": "None", "instagram": "None", "facebook": "None", "youtube": "None", "website": "None", "summary": "None", "logo": "None", "latitude": 49.14391783902703, "longitude": -122.82713794780437}, "888360864RR0001": {"name": "ARMOND COMMUNITY CLUB", "designationCode": "C", "categoryCode": "59", "address": "552 DIVIDE RD", "city": "DIVIDE", "province": "NB", "country": "CA", "postalCode": "E7L1L7", "twitter": "None", "instagram": "None", "facebook": "None", "youtube": "None", "website": "None", "summary": "None", "logo": "None", "latitude": 46.56107321238918, "longitude": -67.34253279084213}, "106721798RR0001": {"name": "ARMOUR HEIGHTS CHILD CARE PROGRAM", "designationCode": "C", "categoryCode": "20", "address": "148 WILSON AVE", "city": "TORONTO", "province": "ON", "country": "CA", "postalCode": "M5M3A5", "twitter": "None", "instagram": "None", "facebook": "None", "youtube": "None", "website": "None", "summary": "None", "logo": "None", "latitude": 43.74042611855819, "longitude": -79.41924914490146}, "106721806RR0001": {"name": "ARMOUR HEIGHTS PRESBYTERIAN CHURCH", "designationCode": "C", "categoryCode": "37", "address": "105 WILSON AVE", "city": "TORONTO", "province": "ON", "country": "CA", "postalCode": "M5M2Z9", "twitter": "None", "instagram": "None", "facebook": "None", "youtube": "None", "website": "None", "summary": "None", "logo": "None", "latitude": 43.74093184205682, "longitude": -79.41676701220501}, "118789908RR0001": {"name": "ARMOURED BRANCH TRUST RCAC ASSOCIATION", "designationCode": "C", "categoryCode": "51", "address": "652 AVENUE WESTLUKE", "city": "MONTREAL", "province": "QC", "country": "CA", "postalCode": "H4X1P7", "twitter": "None", "instagram": "None", "facebook": "None", "youtube": "None", "website": "None", "summary": "None", "logo": "None", "latitude": 45.45705232333091, "longitude": -73.665201168619}, "865159636RR0001": {"name": "ARMSTRONG BIBLE CHAPEL", "designationCode": "C", "categoryCode": "34", "address": "2145 ROSEDALE AVE", "city": "ARMSTRONG", "province": "BC", "country": "CA", "postalCode": "V0E1B1", "twitter": "None", "instagram": "None", "facebook": "None", "youtube": "None", "website": "None", "summary": "None", "logo": "None", "latitude": 50.44163751341713, "longitude": -119.18509922439266}, "129144549RR0044": {"name": "ARMSTRONG ENDERBY PARISH", "designationCode": "C", "categoryCode": "30", "address": "P.O. BOX 21", "city": "ARMSTRONG", "province": "BC", "country": "CA", "postalCode": "V0E1B0", "twitter": "None", "instagram": "None", "facebook": "None", "youtube": "None", "website": "None", "summary": "None", "logo": "None", "latitude": 50.44798500000006, "longitude": -119.19492799999993}, "888595105RR0001": {"name": "ARMSTRONG FAMILY FOUNDATION", "designationCode": "B", "categoryCode": "03", "address": "3005-700 WEST GEORGIA ST      PO BOX 10095 PACIFIC CENTRE", "city": "VANCOUVER", "province": "BC", "country": "CA", "postalCode": "V7Y1B6", "twitter": "None", "instagram": "None", "facebook": "None", "youtube": "None", "website": "None", "summary": "None", "logo": "None", "latitude": 49.28299000000004, "longitude": -123.11890999999997}, "118818491RR0036": {"name": "ARMSTRONG SEVENTH-DAY ADVENTIST CHURCH", "designationCode": "C", "categoryCode": "41", "address": "PO 1000", "city": "ABBOTSFORD", "province": "BC", "country": "CA", "postalCode": "V2S4P5", "twitter": "None", "instagram": "None", "facebook": "None", "youtube": "None", "website": "None", "summary": "None", "logo": "None", "latitude": 49.03851300000005, "longitude": -122.29441549999993}, "863256137RR0001": {"name": "ARMSTRONG SPALLUMCHEEN ENVIRONMENTAL TRUST", "designationCode": "C", "categoryCode": "21", "address": "PO BOX 551", "city": "ARMSTRONG", "province": "BC", "country": "CA", "postalCode": "V0E1B0", "twitter": "None", "instagram": "None", "facebook": "None", "youtube": "None", "website": "None", "summary": "None", "logo": "None", "latitude": 50.44798500000006, "longitude": -119.19492799999993}, "106722044RR0001": {"name": "ARMSTRONG SPALLUMCHEEN MUSEUM AND ARTS SOCIETY", "designationCode": "C", "categoryCode": "50", "address": "2535 PATTERSON AVE            BOX 405", "city": "ARMSTRONG", "province": "BC", "country": "CA", "postalCode": "V0E1B0", "twitter": "None", "instagram": "None", "facebook": "None", "youtube": "None", "website": "None", "summary": "None", "logo": "None", "latitude": 50.44707669696718, "longitude": -119.19202579778033}, "865535496RR0001": {"name": "ARMSTRONG/SPALLUMCHEEN CITIZENS ON PATROL", "designationCode": "C", "categoryCode": "59", "address": "4144 NOBLE RD", "city": "ARMSTRONG", "province": "BC", "country": "CA", "postalCode": "V0E1B4", "twitter": "None", "instagram": "None", "facebook": "None", "youtube": "None", "website": "None", "summary": "None", "logo": "None", "latitude": 50.445110501009616, "longitude": -119.223432}, "118790005RR0001": {"name": "ARMSTRONG/SPALLUMCHEEN HEALTHCARE AUXILIARY", "designationCode": "C", "categoryCode": "19", "address": "BOX 173", "city": "ARMSTRONG", "province": "BC", "country": "CA", "postalCode": "V0E1B0", "twitter": "None", "instagram": "None", "facebook": "None", "youtube": "None", "website": "None", "summary": "None", "logo": "None", "latitude": 50.44798500000006, "longitude": -119.19492799999993}, "119288918RR1193": {"name": "ARMSTRONG, BRITISH COLUMBIA CONGREGATION OF JEHOVAH'S WITNESSES", "designationCode": "C", "categoryCode": "61", "address": "4395 MAW RD", "city": "ARMSTRONG", "province": "BC", "country": "CA", "postalCode": "V0E1B4", "twitter": "None", "instagram": "None", "facebook": "None", "youtube": "None", "website": "None", "summary": "None", "logo": "None", "latitude": 50.46644427743717, "longitude": -119.23985226838207}, "886393792RR0001": {"name": "ARMY CADET FOUNDATION - FONDATION DES CADETS DE L'ARMEE", "designationCode": "A", "categoryCode": "23", "address": "66, RUE LISGAR STREET", "city": "OTTAWA", "province": "ON", "country": "CA", "postalCode": "K2P0C1", "twitter": "None", "instagram": "None", "facebook": "None", "youtube": "None", "website": "None", "summary": "None", "logo": "None", "latitude": 45.420221589214734, "longitude": -75.68892969787647}, "118790047RR0001": {"name": "ARMY CADET LEAGUE FOUNDATION OF ONTARIO", "designationCode": "A", "categoryCode": "29", "address": "527 - 1200 MARKHAM RD", "city": "SCARBOROUGH", "province": "ON", "country": "CA", "postalCode": "M1H3C3", "twitter": "None", "instagram": "None", "facebook": "None", "youtube": "None", "website": "None", "summary": "None", "logo": "None", "latitude": 43.77665010629583, "longitude": -79.23186416307908}, "890711948RR0001": {"name": "ARNASON BOURASSA FAMILY FOUNDATION INC", "designationCode": "B", "categoryCode": "03", "address": "703 BRABANT CRESCENT", "city": "SASKATOON", "province": "SK", "country": "CA", "postalCode": "S7J4Z3", "twitter": "None", "instagram": "None", "facebook": "None", "youtube": "None", "website": "None", "summary": "None", "logo": "None", "latitude": 52.09667656506448, "longitude": -106.57683300152921}, "106722630RR0001": {"name": "ARNAUD MENNONITE CHURCH", "designationCode": "C", "categoryCode": "34", "address": "P O BOX 3", "city": "ARNAUD", "province": "MB", "country": "CA", "postalCode": "R0A0B0", "twitter": "None", "instagram": "None", "facebook": "None", "youtube": "None", "website": "None", "summary": "None", "logo": "None", "latitude": 49.251460000000066, "longitude": -97.11805999999996}, "118790070RR0001": {"name": "ARNES CEMETERY ASSOCIATION INC.", "designationCode": "C", "categoryCode": "59", "address": "BOX 22", "city": "ARNES", "province": "MB", "country": "CA", "postalCode": "R0C0C0", "twitter": "None", "instagram": "None", "facebook": "None", "youtube": "None", "website": "None", "summary": "None", "logo": "None", "latitude": 50.80219698368185, "longitude": -96.99425405944469}, "888980018RR0001": {"name": "ARNOLD ANDERSON SPORT ACCESS FOR NEEDY YOUTH", "designationCode": "C", "categoryCode": "09", "address": "126 ST. GEORGE ST.", "city": "BRANTFORD", "province": "ON", "country": "CA", "postalCode": "N3R1V6", "twitter": "None", "instagram": "None", "facebook": "None", "youtube": "None", "website": "None", "summary": "None", "logo": "None", "latitude": 43.15560753814428, "longitude": -80.27382110603604}, "889117610RR0001": {"name": "ARNOLD CEMETERY", "designationCode": "C", "categoryCode": "59", "address": "11538 LONGWOODS ROAD          R.R. #6", "city": "THAMESVILLE", "province": "ON", "country": "CA", "postalCode": "N0P2K0", "twitter": "None", "instagram": "None", "facebook": "None", "youtube": "None", "website": "None", "summary": "None", "logo": "None", "latitude": 42.51132974629256, "longitude": -82.07713489684949}, "869094524RR0001": {"name": "ARNOLD COMMUNITY CHURCH", "designationCode": "C", "categoryCode": "34", "address": "310 ARNOLD RD", "city": "ABBOTSFORD", "province": "BC", "country": "CA", "postalCode": "V3G1S4", "twitter": "None", "instagram": "None", "facebook": "None", "youtube": "None", "website": "None", "summary": "None", "logo": "None", "latitude": 49.008176916180986, "longitude": -122.15051162871531}, "819198144RR0001": {"name": "ARNPRIOR & DISTRICT PARACLETE MINISTRIES", "designationCode": "C", "categoryCode": "49", "address": "PO BOX 21005", "city": "ARNPRIOR", "province": "ON", "country": "CA", "postalCode": "K7S3X6", "twitter": "None", "instagram": "None", "facebook": "None", "youtube": "None", "website": "None", "summary": "None", "logo": "None", "latitude": 45.43563300000005, "longitude": -76.35842449999993}, "890111990RR0001": {"name": "ARNPRIOR & MCNAB/BRAESIDE ARCHIVES", "designationCode": "C", "categoryCode": "50", "address": "21B MADAWASKA ST", "city": "ARNPRIOR", "province": "ON", "country": "CA", "postalCode": "K7S1R6", "twitter": "None", "instagram": "None", "facebook": "None", "youtube": "None", "website": "None", "summary": "None", "logo": "None", "latitude": 45.434889728400755, "longitude": -76.35236957147394}, "130362718RR0001": {"name": "ARNPRIOR AND DISTRICT CHILD CARE SERVICES", "designationCode": "C", "categoryCode": "20", "address": "225A BASKIN DRIVE W", "city": "ARNPRIOR", "province": "ON", "country": "CA", "postalCode": "K7S0E3", "twitter": "None", "instagram": "None", "facebook": "None", "youtube": "None", "website": "None", "summary": "None", "logo": "None", "latitude": 45.42952540910042, "longitude": -76.37464705852265}, "889473062RR0001": {"name": "ARNPRIOR AND DISTRICT FOOD BANK INC.", "designationCode": "C", "categoryCode": "09", "address": "PO BOX 463", "city": "ARNPRIOR", "province": "ON", "country": "CA", "postalCode": "K7S3L9", "twitter": "None", "instagram": "None", "facebook": "None", "youtube": "None", "website": "None", "summary": "None", "logo": "None", "latitude": 45.43563300000005, "longitude": -76.35842449999993}, "888957073RR0001": {"name": "ARNPRIOR AND DISTRICT HUMANE SOCIETY", "designationCode": "C", "categoryCode": "54", "address": "490 DIDAK DRIVE", "city": "ARNPRIOR", "province": "ON", "country": "CA", "postalCode": "K7S0C3", "twitter": "None", "instagram": "None", "facebook": "None", "youtube": "None", "website": "None", "summary": "None", "logo": "None", "latitude": 45.424950376610745, "longitude": -76.33409887355045}, "119288918RR0070": {"name": "ARNPRIOR CONGREGATION OF JEHOVAH'S WITNESSES", "designationCode": "C", "categoryCode": "61", "address": "124 SECOND AVE", "city": "ARNPRIOR", "province": "ON", "country": "CA", "postalCode": "K7S1Y2", "twitter": "None", "instagram": "None", "facebook": "None", "youtube": "None", "website": "None", "summary": "None", "logo": "None", "latitude": 45.4349365694891, "longitude": -76.34378920849463}, "880481601RR0001": {"name": "ARNPRIOR COUNCIL 2082 CHARITABLE WELFARE TRUST", "designationCode": "A", "categoryCode": "63", "address": "P.O. 426", "city": "ARNPRIOR", "province": "ON", "country": "CA", "postalCode": "K7S3L9", "twitter": "None", "instagram": "None", "facebook": "None", "youtube": "None", "website": "None", "summary": "None", "logo": "None", "latitude": 45.43563300000005, "longitude": -76.35842449999993}, "106723000RR0001": {"name": "ARNPRIOR FAMILY PRESCHOOL RESOURCE CENTRE", "designationCode": "C", "categoryCode": "09", "address": "16 EDWARD ST SOUTH SUITE 130", "city": "ARNPRIOR", "province": "ON", "country": "CA", "postalCode": "K7S3W4", "twitter": "None", "instagram": "None", "facebook": "None", "youtube": "None", "website": "None", "summary": "None", "logo": "None", "latitude": 45.434786417474626, "longitude": -76.36152819677407}, "889576971RR0001": {"name": "ARNPRIOR FIREFIGHTERS FUND RAISING ASSOCIATION", "designationCode": "C", "categoryCode": "59", "address": "POST OFFICE BOX 132", "city": "ARNPRIOR", "province": "ON", "country": "CA", "postalCode": "K7S3H4", "twitter": "None", "instagram": "None", "facebook": "None", "youtube": "None", "website": "None", "summary": "None", "logo": "None", "latitude": 45.43563300000005, "longitude": -76.35842449999993}, "118790179RR0001": {"name": "ARNPRIOR PUBLIC LIBRARY BOARD", "designationCode": "C", "categoryCode": "50", "address": "21 MADAWASKA ST", "city": "ARNPRIOR", "province": "ON", "country": "CA", "postalCode": "K7S1R6", "twitter": "None", "instagram": "None", "facebook": "None", "youtube": "None", "website": "None", "summary": "None", "logo": "None", "latitude": 45.434831467684106, "longitude": -76.35230157646143}, "106723042RR0001": {"name": "ARNPRIOR-BRAESIDE-MCNAB SENIORS AT HOME PROGRAM INC.", "designationCode": "C", "categoryCode": "09", "address": "106 MCGONIGAL STREET WEST     UNIT 7A", "city": "ARNPRIOR", "province": "ON", "country": "CA", "postalCode": "K7S1M4", "twitter": "None", "instagram": "None", "facebook": "None", "youtube": "None", "website": "None", "summary": "None", "logo": "None", "latitude": 45.4343006075681, "longitude": -76.3576186214476}, "131543597RR0001": {"name": "AROKIS CENTRE OF MUSIC SOCIETY", "designationCode": "C", "categoryCode": "22", "address": "7844 11TH AVE", "city": "BURNABY", "province": "BC", "country": "CA", "postalCode": "V3N2N3", "twitter": "None", "instagram": "None", "facebook": "None", "youtube": "None", "website": "None", "summary": "None", "logo": "None", "latitude": 49.219057725797164, "longitude": -122.92965428237274}, "118790195RR0001": {"name": "AROOSTOOK BAPTIST CHURCH", "designationCode": "C", "categoryCode": "31", "address": "81 WOODLAND HILL", "city": "PERTH-ANDOVER", "province": "NB", "country": "CA", "postalCode": "E7H5H4", "twitter": "None", "instagram": "None", "facebook": "None", "youtube": "None", "website": "None", "summary": "None", "logo": "None", "latitude": 46.731610013907115, "longitude": -67.70368303248878}, "856077763RR0001": {"name": "AROUND THE BEND FOUNDATION", "designationCode": "B", "categoryCode": "05", "address": "302-197 DUFFERIN STREET", "city": "BRIDGEWATER", "province": "NS", "country": "CA", "postalCode": "B4V2G9", "twitter": "None", "instagram": "None", "facebook": "None", "youtube": "None", "website": "None", "summary": "None", "logo": "None", "latitude": 44.3708631115473, "longitude": -64.52203814218974}, "106723141RR0001": {"name": "ARRABON, INCORPORATED", "designationCode": "C", "categoryCode": "01", "address": "29 WILSON PARK RD", "city": "TORONTO", "province": "ON", "country": "CA", "postalCode": "M6K3B6", "twitter": "None", "instagram": "None", "facebook": "None", "youtube": "None", "website": "None", "summary": "None", "logo": "None", "latitude": 43.637711667782284, "longitude": -79.44179877474195}, "118790229RR0001": {"name": "ARRAN TARA AGRICULTURAL SOCIETY", "designationCode": "C", "categoryCode": "56", "address": "335 CONC. 2 RR1", "city": "DOBBINTON", "province": "ON", "country": "CA", "postalCode": "N0H1L0", "twitter": "None", "instagram": "None", "facebook": "None", "youtube": "None", "website": "None", "summary": "None", "logo": "None", "latitude": 44.42618429342797, "longitude": -81.1420132677302}, "891864779RR0001": {"name": "ARRAS FIRE BRIGADE", "designationCode": "C", "categoryCode": "59", "address": "P.O. BOX 2596", "city": "DAWSON CREEK", "province": "BC", "country": "CA", "postalCode": "V1G5A1", "twitter": "None", "instagram": "None", "facebook": "None", "youtube": "None", "website": "None", "summary": "None", "logo": "None", "latitude": 55.76171100000006, "longitude": -120.23704249999994}, "118790237RR0001": {"name": "ARRAYMUSIC", "designationCode": "C", "categoryCode": "22", "address": "161 WALNUT AVE", "city": "TORONTO", "province": "ON", "country": "CA", "postalCode": "M6J3W3", "twitter": "None", "instagram": "None", "facebook": "None", "youtube": "None", "website": "None", "summary": "None", "logo": "None", "latitude": 43.64422559339834, "longitude": -79.41004193836932}, "872388079RR0001": {"name": "ARRELL FAMILY FOUNDATION", "designationCode": "B", "categoryCode": "23", "address": "181 BAY STREET,               SUITE 4510", "city": "TORONTO", "province": "ON", "country": "CA", "postalCode": "M5J2T3", "twitter": "None", "instagram": "None", "facebook": "None", "youtube": "None", "website": "None", "summary": "None", "logo": "None", "latitude": 43.64734187870053, "longitude": -79.37943361864508}, "889177747RR0001": {"name": "ARRIMAGE JEUNESSE", "designationCode": "C", "categoryCode": "09", "address": "106 - 330 RUE PERREAULT E", "city": "ROUYN-NORANDA", "province": "QC", "country": "CA", "postalCode": "J9X3C6", "twitter": "None", "instagram": "None", "facebook": "None", "youtube": "None", "website": "None", "summary": "None", "logo": "None", "latitude": 48.23814053231591, "longitude": -79.0101225}, "129955266RR0001": {"name": "ARROW AND SLOCAN LAKES COMMUNITY SERVICES", "designationCode": "C", "categoryCode": "09", "address": "PO BOX 100", "city": "NAKUSP", "province": "BC", "country": "CA", "postalCode": "V0G1R0", "twitter": "None", "instagram": "None", "facebook": "None", "youtube": "None", "website": "None", "summary": "None", "logo": "None", "latitude": 50.23888800000006, "longitude": -117.80203399999994}, "118790260RR0001": {"name": "ARROW LAKES ALLIANCE CHURCH", "designationCode": "C", "categoryCode": "39", "address": "339 ALEXANDER RD              RR1, S5, C30", "city": "NAKUSP", "province": "BC", "country": "CA", "postalCode": "V0G1R0", "twitter": "None", "instagram": "None", "facebook": "None", "youtube": "None", "website": "None", "summary": "None", "logo": "None", "latitude": 50.24455208381903, "longitude": -117.77885703127764}, "106723273RR0001": {"name": "ARROW LAKES HISTORICAL SOCIETY", "designationCode": "C", "categoryCode": "50", "address": "PO 819", "city": "NAKUSP", "province": "BC", "country": "CA", "postalCode": "V0G1R0", "twitter": "None", "instagram": "None", "facebook": "None", "youtube": "None", "website": "None", "summary": "None", "logo": "None", "latitude": 50.23888800000006, "longitude": -117.80203399999994}, "119050425RR0001": {"name": "ARROW LAKES HOSPITAL FOUNDATION", "designationCode": "C", "categoryCode": "13", "address": "BOX 284", "city": "NAKUSP", "province": "BC", "country": "CA", "postalCode": "V0G1R0", "twitter": "None", "instagram": "None", "facebook": "None", "youtube": "None", "website": "None", "summary": "None", "logo": "None", "latitude": 50.23888800000006, "longitude": -117.80203399999994}, "106723307RR0001": {"name": "ARROW LAKES PASTORAL CHARGE", "designationCode": "C", "categoryCode": "44", "address": "BOX 929", "city": "NAKUSP", "province": "BC", "country": "CA", "postalCode": "V0G1R0", "twitter": "None", "instagram": "None", "facebook": "None", "youtube": "None", "website": "None", "summary": "None", "logo": "None", "latitude": 50.23888800000006, "longitude": -117.80203399999994}, "870275534RR0001": {"name": "ARROW LEADERSHIP INTERNATIONAL MINISTRIES", "designationCode": "C", "categoryCode": "39", "address": "130 - 33973 GLADYS AVE", "city": "ABBOTSFORD", "province": "BC", "country": "CA", "postalCode": "V2S2E8", "twitter": "None", "instagram": "None", "facebook": "None", "youtube": "None", "website": "None", "summary": "None", "logo": "None", "latitude": 49.04342324159766, "longitude": -122.27896650582666}, "119949774RR0001": {"name": "ARROW RIVER FOREST HERMITAGE", "designationCode": "C", "categoryCode": "35", "address": "634 HARTLAND ST", "city": "THUNDER BAY", "province": "ON", "country": "CA", "postalCode": "P7B2E6", "twitter": "None", "instagram": "None", "facebook": "None", "youtube": "None", "website": "None", "summary": "None", "logo": "None", "latitude": 48.429849456575596, "longitude": -89.252451}, "863498051RR0001": {"name": "ARROWHEAD CLUBHOUSE SOCIETY", "designationCode": "C", "categoryCode": "09", "address": "PO BOX 676                    5554 INLET AVE", "city": "SECHELT", "province": "BC", "country": "CA", "postalCode": "V0N3A0", "twitter": "None", "instagram": "None", "facebook": "None", "youtube": "None", "website": "None", "summary": "None", "logo": "None", "latitude": 49.473864445778325, "longitude": -123.75627137520655}, "875364713RR0001": {"name": "ARROWSMITH AGRICULTURAL ASSOCIATION", "designationCode": "C", "categoryCode": "56", "address": "BOX 195", "city": "COOMBS", "province": "BC", "country": "CA", "postalCode": "V0R1M0", "twitter": "None", "instagram": "None", "facebook": "None", "youtube": "None", "website": "None", "summary": "None", "logo": "None", "latitude": 49.306405694074456, "longitude": -124.43092128704372}, "132502691RR0001": {"name": "ARROWSMITH BAPTIST CHURCH", "designationCode": "C", "categoryCode": "31", "address": "4283 GLENSIDE ROAD", "city": "PORT ALBERNI", "province": "BC", "country": "CA", "postalCode": "V9Y5W9", "twitter": "None", "instagram": "None", "facebook": "None", "youtube": "None", "website": "None", "summary": "None", "logo": "None", "latitude": 49.26611645325738, "longitude": -124.80072202553522}, "867491029RR0001": {"name": "ARROWSMITH COMMUNITY JUSTICE SOCIETY", "designationCode": "C", "categoryCode": "59", "address": "727 WEST ISLAND HIGHWAY", "city": "PARKSVILLE", "province": "BC", "country": "CA", "postalCode": "V9P1B9", "twitter": "None", "instagram": "None", "facebook": "None", "youtube": "None", "website": "None", "summary": "None", "logo": "None", "latitude": 49.32837149518124, "longitude": -124.33929236923682}, "106723331RR0001": {"name": "ARROWSMITH REST HOME SOCIETY", "designationCode": "C", "categoryCode": "01", "address": "266B MOILLIET ST", "city": "PARKSVILLE", "province": "BC", "country": "CA", "postalCode": "V9P1M9", "twitter": "None", "instagram": "None", "facebook": "None", "youtube": "None", "website": "None", "summary": "None", "logo": "None", "latitude": 49.316097798482325, "longitude": -124.32361906477898}, "893193979RR0001": {"name": "ARROWSMITH SEARCH AND RESCUE SOCIETY", "designationCode": "C", "categoryCode": "59", "address": "3237 ALBERNI HIGHWAY", "city": "QUALICUM BEACH", "province": "BC", "country": "CA", "postalCode": "V9K1Y6", "twitter": "None", "instagram": "None", "facebook": "None", "youtube": "None", "website": "None", "summary": "None", "logo": "None", "latitude": 49.30656716105945, "longitude": -124.48481281606986}, "886744259RR0001": {"name": "ARROWTARIAN SENIOR CITIZENS SOCIETY", "designationCode": "C", "categoryCode": "01", "address": "PO BOX 688", "city": "NAKUSP", "province": "BC", "country": "CA", "postalCode": "V0G1R0", "twitter": "None", "instagram": "None", "facebook": "None", "youtube": "None", "website": "None", "summary": "None", "logo": "None", "latitude": 50.23888800000006, "longitude": -117.80203399999994}, "785512518RR0001": {"name": "ARROWWOOD CHARITABLE TRUST", "designationCode": "B", "categoryCode": "45", "address": "RR 1", "city": "BLACKIE", "province": "AB", "country": "CA", "postalCode": "T0L0J0", "twitter": "None", "instagram": "None", "facebook": "None", "youtube": "None", "website": "None", "summary": "None", "logo": "None", "latitude": 50.51606892521704, "longitude": -113.51446758222522}, "118790336RR0001": {"name": "ARROWWOOD GOSPEL CHURCH", "designationCode": "C", "categoryCode": "39", "address": "BOX 122, 28-2ND STREET EAST", "city": "ARROWWOOD", "province": "AB", "country": "CA", "postalCode": "T0L0B0", "twitter": "None", "instagram": "None", "facebook": "None", "youtube": "None", "website": "None", "summary": "None", "logo": "None", "latitude": 50.73768586733223, "longitude": -113.14805890827512}, "130507692RR0001": {"name": "ARROWWOOD MUNICIPAL LIBRARY SOCIETY", "designationCode": "C", "categoryCode": "50", "address": "PO BOX 88", "city": "ARROWWOOD", "province": "AB", "country": "CA", "postalCode": "T0L0B0", "twitter": "None", "instagram": "None", "facebook": "None", "youtube": "None", "website": "None", "summary": "None", "logo": "None", "latitude": 50.73787992339437, "longitude": -113.15090996667446}, "121933436RR0001": {"name": "ARROWWOOD RESTORATION SOCIETY", "designationCode": "C", "categoryCode": "52", "address": "PO BOX 3", "city": "ARROWWOOD", "province": "AB", "country": "CA", "postalCode": "T0L0B0", "twitter": "None", "instagram": "None", "facebook": "None", "youtube": "None", "website": "None", "summary": "None", "logo": "None", "latitude": 50.73787992339437, "longitude": -113.15090996667446}, "887096287RR0001": {"name": "ARSHA VIDYA ONTARIO", "designationCode": "C", "categoryCode": "21", "address": "34 LISA CRESCENT", "city": "RICHMOND HILL", "province": "ON", "country": "CA", "postalCode": "L4B3A4", "twitter": "None", "instagram": "None", "facebook": "None", "youtube": "None", "website": "None", "summary": "None", "logo": "None", "latitude": 43.84782530004604, "longitude": -79.40299631432853}, "889052254RR0001": {"name": "ART A LA CARTE", "designationCode": "C", "categoryCode": "19", "address": "BOX 72003                     RPO GLENMORE", "city": "CALGARY", "province": "AB", "country": "CA", "postalCode": "T2V5H9", "twitter": "None", "instagram": "None", "facebook": "None", "youtube": "None", "website": "None", "summary": "None", "logo": "None", "latitude": 50.994305999999995, "longitude": -114.07152574813585}}