{"118787852RR0001": {"name": "ANTHROPOSOPHICAL FOUNDATION OF CANADA", "designationCode": "C", "categoryCode": "22", "address": "153 KING STREET", "city": "GUELPH", "province": "ON", "country": "CA", "postalCode": "N1E4P7", "twitter": "None", "instagram": "None", "facebook": "None", "youtube": "None", "website": "None", "summary": "None", "logo": "None", "latitude": 43.552182676120836, "longitude": -80.25182671729486}, "857509806RR0001": {"name": "ANTI-DOTE: MULTI-RACIAL GIRLS AND WOMEN'S NETWORK", "designationCode": "B", "categoryCode": "09", "address": "247 STORMONT RD", "city": "VICTORIA", "province": "BC", "country": "CA", "postalCode": "V9B1P7", "twitter": "None", "instagram": "None", "facebook": "None", "youtube": "None", "website": "None", "summary": "None", "logo": "None", "latitude": 48.454170810981644, "longitude": -123.43719062695496}, "892562661RR0001": {"name": "ANTIGONISH AND AREA HOMEMAKER SERVICE", "designationCode": "C", "categoryCode": "01", "address": "ANTIGONISH MALL BUSINESS CENTR1-133 CHURCH STREET", "city": "ANTIGONISH", "province": "NS", "country": "CA", "postalCode": "B2G2E3", "twitter": "None", "instagram": "None", "facebook": "None", "youtube": "None", "website": "None", "summary": "None", "logo": "None"}, "118787886RR0001": {"name": "ANTIGONISH BAPTIST CHURCH (INDEPENDENT)", "designationCode": "C", "categoryCode": "31", "address": "9 MARTIN ST", "city": "ANTIGONISH", "province": "NS", "country": "CA", "postalCode": "B2G1P8", "twitter": "None", "instagram": "None", "facebook": "None", "youtube": "None", "website": "None", "summary": "None", "logo": "None", "latitude": 45.61464472271922, "longitude": -62.00617943049211}, "893346965RR0001": {"name": "ANTIGONISH COMMUNITY FOOD BANK SOCIETY", "designationCode": "C", "categoryCode": "09", "address": "55 HERITAGE DR.", "city": "ANTIGONISH", "province": "NS", "country": "CA", "postalCode": "B2G2T6", "twitter": "None", "instagram": "None", "facebook": "None", "youtube": "None", "website": "None", "summary": "None", "logo": "None", "latitude": 45.60732880209486, "longitude": -61.99684446834793}, "894897081RR0001": {"name": "ANTIGONISH COUNTY ADULT LEARNING ASSOCIATION", "designationCode": "C", "categoryCode": "21", "address": "PO BOX 1403 STN MAIN", "city": "ANTIGONISH", "province": "NS", "country": "CA", "postalCode": "B2G2L7", "twitter": "None", "instagram": "None", "facebook": "None", "youtube": "None", "website": "None", "summary": "None", "logo": "None", "latitude": 45.6227685541313, "longitude": -61.98878201843836}, "118787894RR0001": {"name": "ANTIGONISH COUNTY VOLUNTEER FIRE DEPARTMENT", "designationCode": "C", "categoryCode": "59", "address": "PO BOX 1355  STN MAIN", "city": "ANTIGONISH", "province": "NS", "country": "CA", "postalCode": "B2G2L7", "twitter": "None", "instagram": "None", "facebook": "None", "youtube": "None", "website": "None", "summary": "None", "logo": "None", "latitude": 45.6227685541313, "longitude": -61.98878201843836}, "118787902RR0001": {"name": "ANTIGONISH COUNTY 4-H LEADERS COUNCIL", "designationCode": "C", "categoryCode": "29", "address": "PO BOX 1748", "city": "ANTIGONISH", "province": "NS", "country": "CA", "postalCode": "B2G2M5", "twitter": "None", "instagram": "None", "facebook": "None", "youtube": "None", "website": "None", "summary": "None", "logo": "None", "latitude": 45.62219400000005, "longitude": -61.99427149999994}, "118787910RR0001": {"name": "ANTIGONISH CREATIVE DANCE ASSOCIATION", "designationCode": "C", "categoryCode": "22", "address": "75 LIBERTY LANE", "city": "LOWER SOUTH RIVER", "province": "NS", "country": "CA", "postalCode": "B2G0E7", "twitter": "None", "instagram": "None", "facebook": "None", "youtube": "None", "website": "None", "summary": "None", "logo": "None", "latitude": 45.59738444936226, "longitude": -61.89398500735759}, "890222888RR0001": {"name": "ANTIGONISH DIOCESAN SOCIETY,", "designationCode": "C", "categoryCode": "49", "address": "10B COURT STREET", "city": "ANTIGONISH", "province": "NS", "country": "CA", "postalCode": "B2G1Z6", "twitter": "None", "instagram": "None", "facebook": "None", "youtube": "None", "website": "None", "summary": "None", "logo": "None", "latitude": 45.62171863545674, "longitude": -61.98698889622368}, "893411363RR0001": {"name": "ANTIGONISH HIGHLAND SOCIETY FOUNDATION", "designationCode": "C", "categoryCode": "21", "address": "49 MACDONALD ST.", "city": "ANTIGONISH", "province": "NS", "country": "CA", "postalCode": "B2G1M6", "twitter": "None", "instagram": "None", "facebook": "None", "youtube": "None", "website": "None", "summary": "None", "logo": "None", "latitude": 45.620082221190025, "longitude": -62.00331491811421}, "891252785RR0001": {"name": "ANTIGONISH HIGHLAND SOCIETY PIPE BAND", "designationCode": "C", "categoryCode": "22", "address": "26 BAY STREET", "city": "ANTIGONISH", "province": "NS", "country": "CA", "postalCode": "B2G2G8", "twitter": "None", "instagram": "None", "facebook": "None", "youtube": "None", "website": "None", "summary": "None", "logo": "None", "latitude": 45.62764360339006, "longitude": -61.98008355508364}, "106717341RR0001": {"name": "ANTIGONISH RIGHT TO LIFE", "designationCode": "C", "categoryCode": "09", "address": "PO BOX 1161", "city": "ANTIGONISH", "province": "NS", "country": "CA", "postalCode": "B2G2R6", "twitter": "None", "instagram": "None", "facebook": "None", "youtube": "None", "website": "None", "summary": "None", "logo": "None", "latitude": 45.62219400000005, "longitude": -61.99427149999994}, "887935641RR0001": {"name": "ANTIGONISH SENIORS CARE VAN SOCIETY", "designationCode": "C", "categoryCode": "09", "address": "64 PLEASANT ST", "city": "ANTIGONISH", "province": "NS", "country": "CA", "postalCode": "B2G1W7", "twitter": "None", "instagram": "None", "facebook": "None", "youtube": "None", "website": "None", "summary": "None", "logo": "None", "latitude": 45.62440463454276, "longitude": -61.99195031620446}, "118787977RR0001": {"name": "ANTIGONISH THERAPEUTIC RIDING ASSOCIATION", "designationCode": "C", "categoryCode": "56", "address": "P.O. BOX 1313", "city": "ANTIGUNISH", "province": "NS", "country": "CA", "postalCode": "B2G2L6", "twitter": "None", "instagram": "None", "facebook": "None", "youtube": "None", "website": "None", "summary": "None", "logo": "None", "latitude": 45.62219400000005, "longitude": -61.99427149999994}, "129719506RR0001": {"name": "ANTIGONISH WOMEN'S RESOURCE CENTRE AND SEXUAL ASSAULT SERVICES ASSOCIATION", "designationCode": "C", "categoryCode": "59", "address": "219 MAIN ST SUITE 204", "city": "ANTIGONISH", "province": "NS", "country": "CA", "postalCode": "B2G2C1", "twitter": "None", "instagram": "None", "facebook": "None", "youtube": "None", "website": "None", "summary": "None", "logo": "None", "latitude": 45.62257164888353, "longitude": -61.989608630301845}, "889758579RR0001": {"name": "ANTIGUA AND BARBUDA EMERGENCY RELIEF FUND", "designationCode": "C", "categoryCode": "09", "address": "60 ST CLAIR AVE EAST          SUITE 601", "city": "TORONTO", "province": "ON", "country": "CA", "postalCode": "M4T1N5", "twitter": "None", "instagram": "None", "facebook": "None", "youtube": "None", "website": "None", "summary": "None", "logo": "None", "latitude": 43.688957804056756, "longitude": -79.39160562251156}, "866005705RR0001": {"name": "ANTIOCH CHRISTIAN FELLOWSHIP", "designationCode": "C", "categoryCode": "47", "address": "83 JUNIPER CRESCENT", "city": "BRAMPTON", "province": "ON", "country": "CA", "postalCode": "L6S1J9", "twitter": "None", "instagram": "None", "facebook": "None", "youtube": "None", "website": "None", "summary": "None", "logo": "None", "latitude": 43.73550078683141, "longitude": -79.73103102166874}, "137693057RR0001": {"name": "ANTIOCH CHRISTIAN MINISTRIES INCORPORATED", "designationCode": "C", "categoryCode": "39", "address": "455 COUNTY RD 34 W", "city": "ESSEX", "province": "ON", "country": "CA", "postalCode": "N8M2X5", "twitter": "None", "instagram": "None", "facebook": "None", "youtube": "None", "website": "None", "summary": "None", "logo": "None", "latitude": 42.1563804151427, "longitude": -82.78901557320053}, "890849342RR0001": {"name": "ANTIOCH CHURCH", "designationCode": "C", "categoryCode": "39", "address": "3003 VEGA COURT", "city": "BURNABY", "province": "BC", "country": "CA", "postalCode": "V3J1B2", "twitter": "None", "instagram": "None", "facebook": "None", "youtube": "None", "website": "None", "summary": "None", "logo": "None", "latitude": 49.25702843690612, "longitude": -122.90897902430021}, "877172122RR0001": {"name": "ANTIOCH CHURCH OF EDMONTON", "designationCode": "C", "categoryCode": "37", "address": "8711 82 AVE NW", "city": "EDMONTON", "province": "AB", "country": "CA", "postalCode": "T6C0Y9", "twitter": "None", "instagram": "None", "facebook": "None", "youtube": "None", "website": "None", "summary": "None", "logo": "None", "latitude": 53.51802251009891, "longitude": -113.46176152553522}, "868238346RR0001": {"name": "ANTIOCH COMMUNITY CHURCH", "designationCode": "C", "categoryCode": "39", "address": "527 MT. PLEASENT  ROAD", "city": "TORONTO", "province": "ON", "country": "CA", "postalCode": "M4S2M4", "twitter": "None", "instagram": "None", "facebook": "None", "youtube": "None", "website": "None", "summary": "None", "logo": "None", "latitude": 43.70218006134222, "longitude": -79.38766004452091}, "872945100RR0001": {"name": "ANTIOCH INTERNATIONAL CHRISTIAN RESOURCES MINISTRY OF ALBERTA", "designationCode": "C", "categoryCode": "47", "address": "4206-21 AVE. SOUTH", "city": "LETHBRIDGE", "province": "AB", "country": "CA", "postalCode": "T1K4Y2", "twitter": "None", "instagram": "None", "facebook": "None", "youtube": "None", "website": "None", "summary": "None", "logo": "None", "latitude": 49.67169053952926, "longitude": -112.781103474609}, "863416384RR0001": {"name": "ANTIOCH MISSIONARY BAPTIST CHURCH", "designationCode": "C", "categoryCode": "39", "address": "900 ADELAIDE ST SOUTH         BOX 37034 RPO SOUTHDALE", "city": "LONDON", "province": "ON", "country": "CA", "postalCode": "N6E3T3", "twitter": "None", "instagram": "None", "facebook": "None", "youtube": "None", "website": "None", "summary": "None", "logo": "None", "latitude": 42.944411695821664, "longitude": -81.2145389930361}, "845974344RR0001": {"name": "ANTIOCH MISSIONS IN CHRIST", "designationCode": "C", "categoryCode": "49", "address": "5 GARDINER CRESCENT", "city": "RICHMOND HILL", "province": "ON", "country": "CA", "postalCode": "L4B2G5", "twitter": "None", "instagram": "None", "facebook": "None", "youtube": "None", "website": "None", "summary": "None", "logo": "None", "latitude": 43.8588907857349, "longitude": -79.40705199218105}, "118788017RR0001": {"name": "ANTIOCHIAN MARONITE CATHOLIC CHURCH OF THE ROMAN CATHOLIC EPISCOPAL CORPORATION OF HALIFAX", "designationCode": "C", "categoryCode": "38", "address": "3844 JOSEPH HOWE DR.", "city": "HALIFAX", "province": "NS", "country": "CA", "postalCode": "B3L4G2", "twitter": "None", "instagram": "None", "facebook": "None", "youtube": "None", "website": "None", "summary": "None", "logo": "None", "latitude": 44.66103980988514, "longitude": -63.62777521706373}, "861370997RR0001": {"name": "ANTIOCHIAN ORTHODOX CHURCH OF THE ANNUNCIATION", "designationCode": "C", "categoryCode": "39", "address": "3107-40 STREET S.W.", "city": "CALGARY", "province": "AB", "country": "CA", "postalCode": "T3E3J9", "twitter": "None", "instagram": "None", "facebook": "None", "youtube": "None", "website": "None", "summary": "None", "logo": "None", "latitude": 51.026724, "longitude": -114.1454171775058}, "842755167RR0001": {"name": "ANTISEMITISM MUST END NOW (A.M.E.N.)", "designationCode": "C", "categoryCode": "29", "address": "104-355 ST CLAIRE AVE WEST", "city": "TORONTO", "province": "ON", "country": "CA", "postalCode": "M5P1N5", "twitter": "None", "instagram": "None", "facebook": "None", "youtube": "None", "website": "None", "summary": "None", "logo": "None", "latitude": 43.68311371585308, "longitude": -79.41798892073454}, "118788066RR0001": {"name": "ANTRE-HULLOISES INC.", "designationCode": "C", "categoryCode": "59", "address": "C.P. 1144 SUCC \"B\"", "city": "GATINEAU", "province": "QC", "country": "CA", "postalCode": "J8X3X5", "twitter": "None", "instagram": "None", "facebook": "None", "youtube": "None", "website": "None", "summary": "None", "logo": "None", "latitude": 45.428298000000055, "longitude": -75.71037049999994}, "861311413RR0001": {"name": "ANXIETY DISORDERS ASSOCIATION OF CANADA / ASSOCIATION CANADIENNE DES TROUBLES ANXIEUX", "designationCode": "C", "categoryCode": "11", "address": "311-409 GRANVILLE ST.", "city": "VANCOUVER", "province": "BC", "country": "CA", "postalCode": "V6C1T2", "twitter": "None", "instagram": "None", "facebook": "None", "youtube": "None", "website": "None", "summary": "None", "logo": "None", "latitude": 49.28514383654554, "longitude": -123.11419112049143}, "131227829RR0001": {"name": "ANXIETY DISORDERS ASSOCIATION OF MANITOBA INCORPORATED", "designationCode": "C", "categoryCode": "11", "address": "100 - 4 FORT STREET", "city": "WINNIPEG", "province": "MB", "country": "CA", "postalCode": "R3C1C4", "twitter": "None", "instagram": "None", "facebook": "None", "youtube": "None", "website": "None", "summary": "None", "logo": "None", "latitude": 49.886708437965275, "longitude": -97.1353738065669}, "885431569RR0001": {"name": "ANXIETY DISORDERS ASSOCIATION OF ONTARIO", "designationCode": "C", "categoryCode": "11", "address": "404 MCARTHUR AVENUE", "city": "OTTAWA", "province": "ON", "country": "CA", "postalCode": "K1K0G8", "twitter": "None", "instagram": "None", "facebook": "None", "youtube": "None", "website": "None", "summary": "None", "logo": "None", "latitude": 45.43209152120739, "longitude": -75.64884963765944}, "814402137RR0001": {"name": "AOK Acts of Kindness Society", "designationCode": "C", "categoryCode": "09", "address": "100-32160 SOUTH FRASER WAY", "city": "ABBOTSFORD", "province": "BC", "country": "CA", "postalCode": "V2T1W5", "twitter": "None", "instagram": "None", "facebook": "None", "youtube": "None", "website": "None", "summary": "None", "logo": "None", "latitude": 49.05119019175965, "longitude": -122.33323211890487}, "119028587RR0001": {"name": "APAJO", "designationCode": "C", "categoryCode": "49", "address": "572 RUE GORDON", "city": "GATINEAU", "province": "QC", "country": "CA", "postalCode": "J9H5L2", "twitter": "None", "instagram": "None", "facebook": "None", "youtube": "None", "website": "None", "summary": "None", "logo": "None", "latitude": 45.402223840412034, "longitude": -75.849342576577}, "849975362RR0001": {"name": "APB-TV PRODUCTIONS ADR-TV", "designationCode": "C", "categoryCode": "59", "address": "820 DU CHARDONNAY", "city": "LAVAL", "province": "QC", "country": "CA", "postalCode": "H7A0C2", "twitter": "None", "instagram": "None", "facebook": "None", "youtube": "None", "website": "None", "summary": "None", "logo": "None", "latitude": 45.649952414363305, "longitude": -73.61850199668177}, "840150114RR0001": {"name": "APEGBC Benevolent Fund Society", "designationCode": "C", "categoryCode": "01", "address": "200-4010 REGENT STREET", "city": "BURNABY", "province": "BC", "country": "CA", "postalCode": "V5C6N2", "twitter": "None", "instagram": "None", "facebook": "None", "youtube": "None", "website": "None", "summary": "None", "logo": "None", "latitude": 49.25905254674262, "longitude": -123.0151084538343}, "880919501RR0001": {"name": "APEGM FOUNDATION INC.", "designationCode": "B", "categoryCode": "03", "address": "382 INGLEWOOD ST", "city": "WINNIPEG", "province": "MB", "country": "CA", "postalCode": "R3J1X2", "twitter": "None", "instagram": "None", "facebook": "None", "youtube": "None", "website": "None", "summary": "None", "logo": "None", "latitude": 49.885697713572625, "longitude": -97.21946424205069}, "873570717RR0001": {"name": "APEVAH des Chenaux", "designationCode": "C", "categoryCode": "09", "address": "44 CH. RIVIERE-A-VEILLET", "city": "STE-GENEVIEVE-DE-BATISCAN", "province": "QC", "country": "CA", "postalCode": "G0X2R0", "twitter": "None", "instagram": "None", "facebook": "None", "youtube": "None", "website": "None", "summary": "None", "logo": "None", "latitude": 46.539452032200316, "longitude": -72.34180426236405}, "868069071RR0001": {"name": "APEX INVITATIONAL GOLF ASSOCIATION - SCHOLARSHIP FUND", "designationCode": "C", "categoryCode": "21", "address": "9 STONE HILL PLACE", "city": "BEECHVILLE", "province": "NS", "country": "CA", "postalCode": "B3T2E7", "twitter": "None", "instagram": "None", "facebook": "None", "youtube": "None", "website": "None", "summary": "None", "logo": "None", "latitude": 44.63469144546711, "longitude": -63.67981475881468}, "846045052RR0001": {"name": "APGO Education Foundation", "designationCode": "C", "categoryCode": "21", "address": "25 ADELAIDE STREET EAST       SUITE 1100", "city": "TORONTO", "province": "ON", "country": "CA", "postalCode": "M5C3A1", "twitter": "None", "instagram": "None", "facebook": "None", "youtube": "None", "website": "None", "summary": "None", "logo": "None", "latitude": 43.65062882763008, "longitude": -79.37739834026779}, "120492525RR0001": {"name": "APHAC", "designationCode": "C", "categoryCode": "11", "address": "101 - 115 AV DE LOUISBOURG", "city": "BONAVENTURE", "province": "QC", "country": "CA", "postalCode": "G0C1E0", "twitter": "None", "instagram": "None", "facebook": "None", "youtube": "None", "website": "None", "summary": "None", "logo": "None", "latitude": 48.0474486236654, "longitude": -65.49306779658359}, "893571869RR0001": {"name": "APHASIA CENTRE OF OTTAWA-CARLETON", "designationCode": "C", "categoryCode": "11", "address": "2081 MERIVALE ROAD            SUITE 300", "city": "OTTAWA", "province": "ON", "country": "CA", "postalCode": "K2G1G9", "twitter": "None", "instagram": "None", "facebook": "None", "youtube": "None", "website": "None", "summary": "None", "logo": "None", "latitude": 45.317891544289786, "longitude": -75.71444182673604}, "133065227RR0001": {"name": "APHASIA INSTITUTE", "designationCode": "C", "categoryCode": "11", "address": "73 SCARSDALE ROAD", "city": "TORONTO", "province": "ON", "country": "CA", "postalCode": "M3B2R2", "twitter": "None", "instagram": "None", "facebook": "None", "youtube": "None", "website": "None", "summary": "None", "logo": "None", "latitude": 43.74960001278193, "longitude": -79.35475126498979}, "855123600RR0001": {"name": "APHASIE RIVE-SUD", "designationCode": "B", "categoryCode": "01", "address": "1720, RUE DE GAULLE", "city": "ST-HUBERT", "province": "QC", "country": "CA", "postalCode": "J4T1M9", "twitter": "None", "instagram": "None", "facebook": "None", "youtube": "None", "website": "None", "summary": "None", "logo": "None", "latitude": 45.49539480653826, "longitude": -73.46790686912124}, "118788140RR0001": {"name": "APOHAQUI LOWER MILLSTREAM RECREATION COUNCIL INC.", "designationCode": "C", "categoryCode": "56", "address": "16 JONES MEMORIAL PARK ROAD", "city": "APOHAQUI", "province": "NB", "country": "CA", "postalCode": "E5P3V1", "twitter": "None", "instagram": "None", "facebook": "None", "youtube": "None", "website": "None", "summary": "None", "logo": "None", "latitude": 45.70445760234354, "longitude": -65.5984902015564}, "106718521RR0001": {"name": "APOHAQUI/NORTON/KINGS KIRK PASTORAL CHARGE", "designationCode": "C", "categoryCode": "44", "address": "41 ERB SETTLEMENT ROAD", "city": "ERB SETTLEMENT", "province": "NB", "country": "CA", "postalCode": "E5P2A6", "twitter": "None", "instagram": "None", "facebook": "None", "youtube": "None", "website": "None", "summary": "None", "logo": "None", "latitude": 45.64564054866157, "longitude": -65.62842601906115}, "898877998RR0001": {"name": "APOSTLES REVELATION SOCIETY (A.R.S.)", "designationCode": "C", "categoryCode": "39", "address": "274 EDDYSTONE AVENUE", "city": "NORTH YORK", "province": "ON", "country": "CA", "postalCode": "M3N1H7", "twitter": "None", "instagram": "None", "facebook": "None", "youtube": "None", "website": "None", "summary": "None", "logo": "None", "latitude": 43.7476361579432, "longitude": -79.52233006440065}, "863185773RR0001": {"name": "APOSTOLIC ARK MINISTRIES", "designationCode": "C", "categoryCode": "47", "address": "251 KING WILLIAM STREET", "city": "HAMILTON", "province": "ON", "country": "CA", "postalCode": "L8R1B1", "twitter": "None", "instagram": "None", "facebook": "None", "youtube": "None", "website": "None", "summary": "None", "logo": "None", "latitude": 43.2550200996594, "longitude": -79.85953687440136}, "138095112RR0001": {"name": "APOSTOLIC ASSEMBLY OF THE FAITH IN CHRIST JESUS, INC./ ASSEMBLEE APOSTOLIQUE DE LA FOI EN JESUS-CHRIST, INC.", "designationCode": "C", "categoryCode": "39", "address": "2152 RUE LECLAIRE", "city": "MONTREAL", "province": "QC", "country": "CA", "postalCode": "H1V2Z9", "twitter": "None", "instagram": "None", "facebook": "None", "youtube": "None", "website": "None", "summary": "None", "logo": "None", "latitude": 45.55765222840337, "longitude": -73.5386527393963}, "118788173RR0001": {"name": "APOSTOLIC BIBLE CHURCH (UNITED PENTECOSTAL CHURCH)", "designationCode": "C", "categoryCode": "36", "address": "1965 SUNSET DR", "city": "BATHURST", "province": "NB", "country": "CA", "postalCode": "E2A7K6", "twitter": "None", "instagram": "None", "facebook": "None", "youtube": "None", "website": "None", "summary": "None", "logo": "None", "latitude": 47.64655276487422, "longitude": -65.7063870909168}, "106718554RR0001": {"name": "APOSTOLIC CATHOLIC ASSYRIAN CHURCH OF THE EAST", "designationCode": "C", "categoryCode": "39", "address": "PO BOX 334 STATION B", "city": "ETOBICOKE", "province": "ON", "country": "CA", "postalCode": "M9W5L3", "twitter": "None", "instagram": "None", "facebook": "None", "youtube": "None", "website": "None", "summary": "None", "logo": "None", "latitude": 43.71154800000005, "longitude": -79.58452399999993}, "106718562RR0001": {"name": "APOSTOLIC CHRISTIAN CHURCH", "designationCode": "C", "categoryCode": "39", "address": "10535-62 AVE", "city": "EDMONTON", "province": "AB", "country": "CA", "postalCode": "T6H1M5", "twitter": "None", "instagram": "None", "facebook": "None", "youtube": "None", "website": "None", "summary": "None", "logo": "None", "latitude": 53.49888452842076, "longitude": -113.5020105}, "118788207RR0001": {"name": "APOSTOLIC CHRISTIAN CHURCH (NAZAREAN)", "designationCode": "C", "categoryCode": "39", "address": "2840 WESTON RD.", "city": "TORONTO", "province": "ON", "country": "CA", "postalCode": "M9M2S3", "twitter": "None", "instagram": "None", "facebook": "None", "youtube": "None", "website": "None", "summary": "None", "logo": "None", "latitude": 43.72101383458363, "longitude": -79.53740866183834}, "118788231RR0002": {"name": "APOSTOLIC CHRISTIAN CHURCH (NAZAREAN)", "designationCode": "C", "categoryCode": "39", "address": "BOX 803", "city": "HARROW", "province": "ON", "country": "CA", "postalCode": "N0R1G0", "twitter": "None", "instagram": "None", "facebook": "None", "youtube": "None", "website": "None", "summary": "None", "logo": "None", "latitude": 42.03553000000005, "longitude": -82.91788999999994}, "871056206RR0001": {"name": "APOSTOLIC CHRISTIAN CHURCH MISSION BOARD OF CANADA", "designationCode": "C", "categoryCode": "47", "address": "1880 STRASBURG", "city": "KITCHENER", "province": "ON", "country": "CA", "postalCode": "N2R1Y3", "twitter": "None", "instagram": "None", "facebook": "None", "youtube": "None", "website": "None", "summary": "None", "logo": "None", "latitude": 43.38979120234855, "longitude": -80.46633955306099}, "118788215RR0001": {"name": "APOSTOLIC CHRISTIAN CHURCH NAZAREAN", "designationCode": "C", "categoryCode": "39", "address": "28 AVON ROAD", "city": "KITCHENER", "province": "ON", "country": "CA", "postalCode": "N2B1T6", "twitter": "None", "instagram": "None", "facebook": "None", "youtube": "None", "website": "None", "summary": "None", "logo": "None", "latitude": 43.464330491545894, "longitude": -80.45776026920204}, "118788231RR0001": {"name": "APOSTOLIC CHRISTIAN CHURCH NAZAREAN", "designationCode": "C", "categoryCode": "39", "address": "5245 HOWARD AVE BOX 1467", "city": "WINDSOR", "province": "ON", "country": "CA", "postalCode": "N9A6R5", "twitter": "None", "instagram": "None", "facebook": "None", "youtube": "None", "website": "None", "summary": "None", "logo": "None", "latitude": 42.2271980161781, "longitude": -82.99759249956527}, "118788223RR0001": {"name": "APOSTOLIC CHRISTIAN CHURCH NAZARENE", "designationCode": "C", "categoryCode": "39", "address": "1880 STRASBURG ROAD", "city": "KITCHENER", "province": "ON", "country": "CA", "postalCode": "N2R1Y3", "twitter": "None", "instagram": "None", "facebook": "None", "youtube": "None", "website": "None", "summary": "None", "logo": "None", "latitude": 43.38979120234855, "longitude": -80.46633955306099}, "872769534RR0001": {"name": "APOSTOLIC CHRISTIAN CHURCH OF KITCHENER-WATERLOO", "designationCode": "C", "categoryCode": "47", "address": "2891 LOBSINGER LINE", "city": "HEIDELBERG", "province": "ON", "country": "CA", "postalCode": "N0B2M1", "twitter": "None", "instagram": "None", "facebook": "None", "youtube": "None", "website": "None", "summary": "None", "logo": "None", "latitude": 43.52016644387964, "longitude": -80.61523029848817}, "889045647RR0001": {"name": "APOSTOLIC CHRISTIAN CHURCH OF NAZARENE", "designationCode": "C", "categoryCode": "39", "address": "6912 GORE RD                  RR 2", "city": "PUSLINCH", "province": "ON", "country": "CA", "postalCode": "N0B2J0", "twitter": "None", "instagram": "None", "facebook": "None", "youtube": "None", "website": "None", "summary": "None", "logo": "None", "latitude": 43.40014439024213, "longitude": -80.18886381236568}, "889652343RR0001": {"name": "APOSTOLIC CHURCH OF GOD SEVENTH DAY (SCARBOROUGH)", "designationCode": "C", "categoryCode": "39", "address": "142 MARY PEARSON DRIVE", "city": "MARKHAM", "province": "ON", "country": "CA", "postalCode": "L3S3E8", "twitter": "None", "instagram": "None", "facebook": "None", "youtube": "None", "website": "None", "summary": "None", "logo": "None", "latitude": 43.8382527371746, "longitude": -79.26479545103568}, "892156373RR0001": {"name": "APOSTOLIC CHURCH OF GOD 7TH DAY", "designationCode": "C", "categoryCode": "39", "address": "24497 FRASER HWY", "city": "LANGLEY", "province": "BC", "country": "CA", "postalCode": "V2Z2L2", "twitter": "None", "instagram": "None", "facebook": "None", "youtube": "None", "website": "None", "summary": "None", "logo": "None", "latitude": 49.07135423397196, "longitude": -122.54575460713255}, "118788314RR0001": {"name": "APOSTOLIC CHURCH OF NORTH BATTLEFORD", "designationCode": "C", "categoryCode": "36", "address": "1371 - 103RD STREET", "city": "NORTH BATTLEFORD", "province": "SK", "country": "CA", "postalCode": "S9A1K9", "twitter": "None", "instagram": "None", "facebook": "None", "youtube": "None", "website": "None", "summary": "None", "logo": "None", "latitude": 52.777664947544565, "longitude": -108.29464787999859}, "106718661RR0001": {"name": "APOSTOLIC CHURCH OF PENTECOST OF CANADA, INCORPORATED", "designationCode": "C", "categoryCode": "39", "address": "2340 PEGASUS WAY NE           UNIT 119", "city": "CALGARY", "province": "AB", "country": "CA", "postalCode": "T2E8M5", "twitter": "None", "instagram": "None", "facebook": "None", "youtube": "None", "website": "None", "summary": "None", "logo": "None", "latitude": 51.095415434935525, "longitude": -114.00545986066712}, "118788389RR0001": {"name": "APOSTOLIC CHURCH OF PENTECOST VANCOUVER", "designationCode": "C", "categoryCode": "39", "address": "4950 BARKER CRESCENT", "city": "SOUTH BURNABY", "province": "BC", "country": "CA", "postalCode": "V5G3G5", "twitter": "None", "instagram": "None", "facebook": "None", "youtube": "None", "website": "None", "summary": "None", "logo": "None", "latitude": 49.23915370301239, "longitude": -123.00913126530689}, "118788280RR0001": {"name": "APOSTOLIC CHURCH, FORT QU'APPELLE", "designationCode": "C", "categoryCode": "36", "address": "BOX 757", "city": "FORT QU'APPELLE", "province": "SK", "country": "CA", "postalCode": "S0G1S0", "twitter": "None", "instagram": "None", "facebook": "None", "youtube": "None", "website": "None", "summary": "None", "logo": "None", "latitude": 50.76964000000004, "longitude": -103.79339999999996}, "118788413RR0001": {"name": "APOSTOLIC FAITH MISSION", "designationCode": "C", "categoryCode": "39", "address": "PO BOX 47", "city": "RODDICKTON", "province": "NL", "country": "CA", "postalCode": "A0K4P0", "twitter": "None", "instagram": "None", "facebook": "None", "youtube": "None", "website": "None", "summary": "None", "logo": "None", "latitude": 50.87235000000004, "longitude": -56.121699999999976}, "844290478RR0001": {"name": "APOSTOLIC INDEPENDENT CHURCH", "designationCode": "B", "categoryCode": "39", "address": "77 SUNRISE CRES", "city": "LONDON", "province": "ON", "country": "CA", "postalCode": "N5V4V8", "twitter": "None", "instagram": "None", "facebook": "None", "youtube": "None", "website": "None", "summary": "None", "logo": "None", "latitude": 42.99615383513189, "longitude": -81.15116570151183}, "864265277RR0001": {"name": "APOSTOLIC INTERNATIONAL CENTER OF PRAISE", "designationCode": "C", "categoryCode": "39", "address": "69 LONG BRANCH AVE", "city": "TORONTO", "province": "ON", "country": "CA", "postalCode": "M8W3J5", "twitter": "None", "instagram": "None", "facebook": "None", "youtube": "None", "website": "None", "summary": "None", "logo": "None", "latitude": 43.593577731894484, "longitude": -79.53357806575697}, "106718711RR0001": {"name": "APOSTOLIC LIGHTHOUSE TABERNACLE", "designationCode": "C", "categoryCode": "39", "address": "701 - 96A AVENUE", "city": "DAWSON CREEK", "province": "BC", "country": "CA", "postalCode": "V1G1M6", "twitter": "None", "instagram": "None", "facebook": "None", "youtube": "None", "website": "None", "summary": "None", "logo": "None", "latitude": 55.765836546742605, "longitude": -120.22307091618097}, "899551659RR0001": {"name": "APOSTOLIC LIGHTHOUSE UNITED PENTECOSTAL CHURCH", "designationCode": "C", "categoryCode": "39", "address": "610 ONTARIO ROAD", "city": "WELLAND", "province": "ON", "country": "CA", "postalCode": "L3B5C8", "twitter": "None", "instagram": "None", "facebook": "None", "youtube": "None", "website": "None", "summary": "None", "logo": "None", "latitude": 42.974619539529265, "longitude": -79.2423897485429}, "118788462RR0001": {"name": "APOSTOLIC LUTHERAN CHURCH OF TORONTO", "designationCode": "C", "categoryCode": "32", "address": "70 DICKSON HILL RD", "city": "MARKHAM", "province": "ON", "country": "CA", "postalCode": "L3P3J3", "twitter": "None", "instagram": "None", "facebook": "None", "youtube": "None", "website": "None", "summary": "None", "logo": "None", "latitude": 43.943458432136914, "longitude": -79.27633625815085}, "855856431RR0001": {"name": "APOSTOLIC MINISTRIES OF THE NAME OF JESUS CHRIST INC.", "designationCode": "B", "categoryCode": "39", "address": "96 HAZELTON AVE", "city": "HAMILTON", "province": "ON", "country": "CA", "postalCode": "L9B0E9", "twitter": "None", "instagram": "None", "facebook": "None", "youtube": "None", "website": "None", "summary": "None", "logo": "None", "latitude": 43.2082462425703, "longitude": -79.90572134996265}, "118788488RR0001": {"name": "APOSTOLIC MISSION INC.", "designationCode": "C", "categoryCode": "39", "address": "124 ROUTE 175", "city": "PENNFIELD", "province": "NB", "country": "CA", "postalCode": "E5H0B2", "twitter": "None", "instagram": "None", "facebook": "None", "youtube": "None", "website": "None", "summary": "None", "logo": "None", "latitude": 45.114454197000406, "longitude": -66.72340623102129}, "107383747RR0001": {"name": "APOSTOLIC PENTECOSTAL CHURCH", "designationCode": "C", "categoryCode": "36", "address": "123 MAIN ST", "city": "PLASTER ROCK", "province": "NB", "country": "CA", "postalCode": "E7G2H2", "twitter": "None", "instagram": "None", "facebook": "None", "youtube": "None", "website": "None", "summary": "None", "logo": "None", "latitude": 46.892080624276545, "longitude": -67.39673605894}, "118788496RR0001": {"name": "APOSTOLIC PENTECOSTAL CHURCH", "designationCode": "C", "categoryCode": "36", "address": "P.O BOX 197", "city": "ALBERTON", "province": "PE", "country": "CA", "postalCode": "C0B1B0", "twitter": "None", "instagram": "None", "facebook": "None", "youtube": "None", "website": "None", "summary": "None", "logo": "None", "latitude": 46.813510000000065, "longitude": -64.06533999999994}, "804044220RR0001": {"name": "APOSTOLIC PENTECOSTAL CHURCH OF PICKERING", "designationCode": "C", "categoryCode": "39", "address": "755 OKLAHOMA DRIVE", "city": "PICKERING", "province": "ON", "country": "CA", "postalCode": "L1W2H4", "twitter": "None", "instagram": "None", "facebook": "None", "youtube": "None", "website": "None", "summary": "None", "logo": "None", "latitude": 43.81229883758474, "longitude": -79.10959485509854}, "887156214RR0001": {"name": "APOSTOLIC PRAYER MINISTRY TORONTO CHAPTER", "designationCode": "C", "categoryCode": "39", "address": "423 - 2770 JANE STREET", "city": "TORONTO", "province": "ON", "country": "CA", "postalCode": "M3N2J1", "twitter": "None", "instagram": "None", "facebook": "None", "youtube": "None", "website": "None", "summary": "None", "logo": "None", "latitude": 43.74746996918466, "longitude": -79.51525593456014}, "119055994RR0001": {"name": "APOSTOLIC RESOURCE CENTRE SOCIETY", "designationCode": "C", "categoryCode": "39", "address": "2041 HARVEY AVE", "city": "KELOWNA", "province": "BC", "country": "CA", "postalCode": "V1Y6G7", "twitter": "None", "instagram": "None", "facebook": "None", "youtube": "None", "website": "None", "summary": "None", "logo": "None", "latitude": 49.88175435545494, "longitude": -119.44758285545494}, "873652226RR0001": {"name": "APOSTOLIC REVIVAL CHURCH", "designationCode": "C", "categoryCode": "39", "address": "935 ROAD 6 EAST", "city": "RUTHVEN", "province": "ON", "country": "CA", "postalCode": "N0P2G0", "twitter": "None", "instagram": "None", "facebook": "None", "youtube": "None", "website": "None", "summary": "None", "logo": "None", "latitude": 42.10062778981944, "longitude": -82.69544358093468}, "860028687RR0001": {"name": "APOSTOLIC YOUTH MINISTRIES INTERNATIONAL", "designationCode": "C", "categoryCode": "47", "address": "8 3530 11A STREET NE", "city": "CALGARY", "province": "AB", "country": "CA", "postalCode": "T2E6M7", "twitter": "None", "instagram": "None", "facebook": "None", "youtube": "None", "website": "None", "summary": "None", "logo": "None", "latitude": 51.08533602581762, "longitude": -114.03506008053158}, "119212967RR0001": {"name": "APOTEX FOUNDATION", "designationCode": "B", "categoryCode": "53", "address": "2700-700 WEST GEORGIA ST.", "city": "VANCOUVER", "province": "BC", "country": "CA", "postalCode": "V7Y1B8", "twitter": "None", "instagram": "None", "facebook": "None", "youtube": "None", "website": "None", "summary": "None", "logo": "None", "latitude": 49.28277258451152, "longitude": -123.11866899500833}, "887547594RR0001": {"name": "APOTHECARY HALL TRUST", "designationCode": "C", "categoryCode": "50", "address": "488 WATER ST", "city": "ST JOHN'S", "province": "NL", "country": "CA", "postalCode": "A1E1B3", "twitter": "None", "instagram": "None", "facebook": "None", "youtube": "None", "website": "None", "summary": "None", "logo": "None", "latitude": 47.55593135221302, "longitude": -52.71298817473585}, "892521907RR0001": {"name": "APP LUTINS DU BOIS", "designationCode": "C", "categoryCode": "20", "address": "785-49TH STREET", "city": "DELTA", "province": "BC", "country": "CA", "postalCode": "V4M2P3", "twitter": "None", "instagram": "None", "facebook": "None", "youtube": "None", "website": "None", "summary": "None", "logo": "None", "latitude": 49.01742560724813, "longitude": -123.08813580521058}, "854117488RR0001": {"name": "APPALACHIAN CORRIDOR / CORRIDOR APPALACHIEN", "designationCode": "C", "categoryCode": "52", "address": "37,RUE DES PINS SUD", "city": "EASTMAN", "province": "QC", "country": "CA", "postalCode": "J0E1P0", "twitter": "None", "instagram": "None", "facebook": "None", "youtube": "None", "website": "None", "summary": "None", "logo": "None", "latitude": 45.29771216319467, "longitude": -72.31986300816472}, "130861032RR0001": {"name": "APPARTEMENTS DE TRANSITION POUR FEMMES VIOLENTEES NOUVELLE ETAPE", "designationCode": "C", "categoryCode": "09", "address": "6532 BOUL LEGER", "city": "MONTREAL NORD", "province": "QC", "country": "CA", "postalCode": "H1G1L5", "twitter": "None", "instagram": "None", "facebook": "None", "youtube": "None", "website": "None", "summary": "None", "logo": "None", "latitude": 45.6237501248775, "longitude": -73.62112656284278}, "860471184RR0001": {"name": "APPARTEMENTS ROSA BLANDA", "designationCode": "C", "categoryCode": "09", "address": "1160, AVENUE DE P\u00c9RIBONKA     SUITE 102", "city": "BOISBRIAND", "province": "QC", "country": "CA", "postalCode": "J7G2Z7", "twitter": "None", "instagram": "None", "facebook": "None", "youtube": "None", "website": "None", "summary": "None", "logo": "None", "latitude": 45.62605274049284, "longitude": -73.826763098794}, "892138538RR0001": {"name": "APPARTENANCE MAURICIE SOCIETE D'HISTOIRE REGIONALE", "designationCode": "C", "categoryCode": "52", "address": "2152, RUE CASCADE             C.P. 156", "city": "SHAWINIGAN", "province": "QC", "country": "CA", "postalCode": "G9N6T9", "twitter": "None", "instagram": "None", "facebook": "None", "youtube": "None", "website": "None", "summary": "None", "logo": "None", "latitude": 46.53650115156656, "longitude": -72.76382073956918}, "890370794RR0001": {"name": "APPEASE HUNGER", "designationCode": "C", "categoryCode": "09", "address": "RR3, SITE 11, BOX 22", "city": "INNISFAIL", "province": "AB", "country": "CA", "postalCode": "T4G1T8", "twitter": "None", "instagram": "None", "facebook": "None", "youtube": "None", "website": "None", "summary": "None", "logo": "None", "latitude": 52.02740000000006, "longitude": -113.94886999999994}, "889695243RR0001": {"name": "APPIN PRESBYTERIAN CHURCH,", "designationCode": "C", "categoryCode": "37", "address": "54 WELLINGTON AVE", "city": "APPIN", "province": "ON", "country": "CA", "postalCode": "N0L1A0", "twitter": "None", "instagram": "None", "facebook": "None", "youtube": "None", "website": "None", "summary": "None", "logo": "None", "latitude": 42.79563008217426, "longitude": -81.64810497443611}, "118788561RR0001": {"name": "APPIN UNITED CHURCH", "designationCode": "C", "categoryCode": "44", "address": "21266 THAMES RD RR#4", "city": "APPIN", "province": "ON", "country": "CA", "postalCode": "N0L1A0", "twitter": "None", "instagram": "None", "facebook": "None", "youtube": "None", "website": "None", "summary": "None", "logo": "None", "latitude": 42.7483505181471, "longitude": -81.58582303826172}, "851286633RR0001": {"name": "APPLAUSE! MUSICALS SOCIETY", "designationCode": "C", "categoryCode": "22", "address": "903-1050 HARWOOD ST", "city": "VANCOUVER", "province": "BC", "country": "CA", "postalCode": "V6E1R4", "twitter": "None", "instagram": "None", "facebook": "None", "youtube": "None", "website": "None", "summary": "None", "logo": "None", "latitude": 49.27854870439737, "longitude": -123.13274754956988}, "107797383RR0043": {"name": "APPLE CREEK SEVENTH-DAY ADVENTIST CHURCH", "designationCode": "C", "categoryCode": "41", "address": "700 APPLE CREEK BLVD", "city": "MARKHAM", "province": "ON", "country": "CA", "postalCode": "L3R7X9", "twitter": "None", "instagram": "None", "facebook": "None", "youtube": "None", "website": "None", "summary": "None", "logo": "None", "latitude": 43.86021325734279, "longitude": -79.3392587145249}, "118788611RR0001": {"name": "APPLE RIVER UNITED BAPTIST CHURCH", "designationCode": "C", "categoryCode": "31", "address": "3627 HWY #209                 PO BOX 28", "city": "ADVOCATE HARBOUR", "province": "NS", "country": "CA", "postalCode": "B0M1A0", "twitter": "None", "instagram": "None", "facebook": "None", "youtube": "None", "website": "None", "summary": "None", "logo": "None", "latitude": 45.3368355220598, "longitude": -64.78283864128639}, "106718984RR0001": {"name": "APPLE TREE LANDING CHILDREN'S CENTRE", "designationCode": "C", "categoryCode": "22", "address": "BOX 159", "city": "CANNING", "province": "NS", "country": "CA", "postalCode": "B0P1H0", "twitter": "None", "instagram": "None", "facebook": "None", "youtube": "None", "website": "None", "summary": "None", "logo": "None", "latitude": 45.15015000000005, "longitude": -64.41545999999994}, "118788579RR0001": {"name": "APPLEBY COLLEGE", "designationCode": "C", "categoryCode": "20", "address": "540 LAKESHORE RD W", "city": "OAKVILLE", "province": "ON", "country": "CA", "postalCode": "L6K3P1", "twitter": "None", "instagram": "None", "facebook": "None", "youtube": "None", "website": "None", "summary": "None", "logo": "None", "latitude": 43.427185512897516, "longitude": -79.68791043184844}, "106718919RR0001": {"name": "APPLEBY UNITED CHURCH,", "designationCode": "C", "categoryCode": "44", "address": "4407 SPRUCE AVE", "city": "BURLINGTON", "province": "ON", "country": "CA", "postalCode": "L7L1L9", "twitter": "None", "instagram": "None", "facebook": "None", "youtube": "None", "website": "None", "summary": "None", "logo": "None", "latitude": 43.35998626092083, "longitude": -79.75242080353715}, "108071531RR0001": {"name": "APPLEDALE DAY CARE CENTRE", "designationCode": "C", "categoryCode": "01", "address": "PO 86", "city": "WINLAW", "province": "BC", "country": "CA", "postalCode": "V0G2J0", "twitter": "None", "instagram": "None", "facebook": "None", "youtube": "None", "website": "None", "summary": "None", "logo": "None", "latitude": 49.612520000000075, "longitude": -117.56098999999995}, "106718943RR0001": {"name": "APPLEGROVE COMMUNITY COMPLEX", "designationCode": "C", "categoryCode": "59", "address": "60 WOODFIELD RD", "city": "TORONTO", "province": "ON", "country": "CA", "postalCode": "M4L2W6", "twitter": "None", "instagram": "None", "facebook": "None", "youtube": "None", "website": "None", "summary": "None", "logo": "None", "latitude": 43.66632654509784, "longitude": -79.32173660188108}, "862262540RR0001": {"name": "APPLEHILL CHARITABLE FOUNDATION / FONDATION CHARITABLE APPLEHILL", "designationCode": "B", "categoryCode": "23", "address": "40 APPLEHILL", "city": "BAIE D'URFE", "province": "QC", "country": "CA", "postalCode": "H9X3H4", "twitter": "None", "instagram": "None", "facebook": "None", "youtube": "None", "website": "None", "summary": "None", "logo": "None", "latitude": 45.419388077702195, "longitude": -73.9039648634944}}