{"871041646RR0001": {"name": "ASSOCIATION OF PROFESSIONAL ENGINEERS & GEOSCIENTISTS OF NEWFOUNDLAND ENDOWMENT FUND (APEGN ENDOWMENT FUND", "designationCode": "C", "categoryCode": "21", "address": "10 FORT WILLIAM PLACE, STE 203BAINE JOHNSTON CENTRE", "city": "ST JOHN'S", "province": "NL", "country": "CA", "postalCode": "A1A5B2", "twitter": "None", "instagram": "None", "facebook": "None", "youtube": "None", "website": "None", "summary": "None", "logo": "None", "latitude": 47.610043, "longitude": -52.68105600000001}, "871434478RR0001": {"name": "B C ABORIGINAL CHILD CARE SOCIETY", "designationCode": "C", "categoryCode": "01", "address": "102 - 100 PARK ROYAL SOUTH", "city": "WEST VANCOUVER", "province": "BC", "country": "CA", "postalCode": "V7T1A2", "twitter": "None", "instagram": "None", "facebook": "None", "youtube": "None", "website": "None", "summary": "None", "logo": "None", "latitude": 49.3252158, "longitude": -123.1337804}, "106793508RR0001": {"name": "BIG BROTHERS BIG SISTERS OF EASTERN NEWFOUNDLAND INC.", "designationCode": "C", "categoryCode": "09", "address": "THE VILLAGE SHOPPING CENTRE   430 TOPSAIL ROAD, BOX 10", "city": "ST. JOHN'S", "province": "NL", "country": "CA", "postalCode": "A1E4N1", "twitter": "None", "instagram": "None", "facebook": "None", "youtube": "None", "website": "None", "summary": "None", "logo": "None", "latitude": 47.5349011, "longitude": -52.7508907}, "118811066RR0001": {"name": "BLACK ROCK UNITED BAPTIST CHURCH", "designationCode": "C", "categoryCode": "31", "address": "924 WEST BLACK ROCK ROAD", "city": "BLACK ROCK", "province": "NS", "country": "CA", "postalCode": "B0P1V0", "twitter": "None", "instagram": "None", "facebook": "None", "youtube": "None", "website": "None", "summary": "None", "logo": "None", "latitude": 45.153434, "longitude": -64.740551}, "817734940RR0001": {"name": "Canadian Association for Latin American and Caribbean Studies/Association Canadienne des \u00c9tudes Latino-Am\u00e9ricaines et Caraibes", "designationCode": "C", "categoryCode": "21", "address": "YORK UNIVERSITY, 4700 KEELE ST8-17 YORK RESEARCH TOWER", "city": "TORONTO", "province": "ON", "country": "CA", "postalCode": "M3J1P3", "twitter": "None", "instagram": "None", "facebook": "None", "youtube": "None", "website": "None", "summary": "None", "logo": "None"}, "842352759RR0001": {"name": "Craig's Cause Pancreatic Cancer Society", "designationCode": "A", "categoryCode": "13", "address": "37 INVERARY COURT", "city": "WEST PORTER'S LAKE", "province": "NS", "country": "CA", "postalCode": "B3E1M8", "twitter": "None", "instagram": "None", "facebook": "None", "youtube": "None", "website": "None", "summary": "None", "logo": "None", "latitude": 44.6767151, "longitude": -63.3010713}, "890745540RR0001": {"name": "CANADIAN CELIAC ASSOCIATION/ASSOCIATION CANADIENNE DE LA MALADIE COELIAQUE, ST JOHN'S CHAPTER", "designationCode": "C", "categoryCode": "11", "address": "38 EAST MEADOWS AVE", "city": "ST. JOHN'S", "province": "NL", "country": "CA", "postalCode": "A1A3M5", "twitter": "None", "instagram": "None", "facebook": "None", "youtube": "None", "website": "None", "summary": "None", "logo": "None", "latitude": 47.601453, "longitude": -52.696496}, "888763745RR0001": {"name": "CANTERBURY CLINIC", "designationCode": "C", "categoryCode": "11", "address": "40 WEST WILMOT                SUITE 7", "city": "RICHMOND HILL", "province": "ON", "country": "CA", "postalCode": "L4B1H8", "twitter": "None", "instagram": "None", "facebook": "None", "youtube": "None", "website": "None", "summary": "None", "logo": "None"}, "868380668RR0001": {"name": "CAROL UNITED CHURCH", "designationCode": "C", "categoryCode": "44", "address": "PO BOX 309", "city": "LABRADOR CITY", "province": "NL", "country": "CA", "postalCode": "A2V2K6", "twitter": "None", "instagram": "None", "facebook": "None", "youtube": "None", "website": "None", "summary": "None", "logo": "None"}, "100877810RR0001": {"name": "CENTRE D'AIDE ET DE LUTTE CONTRE LES AGRESSIONS A CARACTERE SEXUEL DE TROIS-RIVIERES", "designationCode": "C", "categoryCode": "01", "address": "C.A.L.A.C.S.DE TROIS RIVIERES C.P 776", "city": "TROIS-RIVIERES", "province": "QC", "country": "CA", "postalCode": "G9A5J9", "twitter": "None", "instagram": "None", "facebook": "None", "youtube": "None", "website": "None", "summary": "None", "logo": "None"}, "892263443RR0001": {"name": "CHILCOTIN LOG CHURCH", "designationCode": "C", "categoryCode": "39", "address": "BOX 160 6563 HIGHWAY 20", "city": "HANCEVILLE", "province": "BC", "country": "CA", "postalCode": "V0L1K0", "twitter": "None", "instagram": "None", "facebook": "None", "youtube": "None", "website": "None", "summary": "None", "logo": "None", "latitude": 0, "longitude": 0}, "107687816RR0001": {"name": "CLIENTS ONGOING REHABILITATION AND EQUALITY (CORE) ASSOCIATION", "designationCode": "C", "categoryCode": "11", "address": "412 - THIRD STREET S.E.", "city": "MEDICINE HAT", "province": "AB", "country": "CA", "postalCode": "T1A0H1", "twitter": "None", "instagram": "None", "facebook": "None", "youtube": "None", "website": "None", "summary": "None", "logo": "None", "latitude": 50.03849100000001, "longitude": -110.679548}, "808903447RR0001": {"name": "Daraja Foundation", "designationCode": "C", "categoryCode": "11", "address": "815 17TH AVENUE S.W           P.O. BOX 16012 LOWER MT. ROYAL", "city": "CALGARY", "province": "AB", "country": "CA", "postalCode": "T2T5H7", "twitter": "None", "instagram": "None", "facebook": "None", "youtube": "None", "website": "None", "summary": "None", "logo": "None"}, "871790572RR0001": {"name": "FIRST NATIONS SCHOOLS ASSOCIATION", "designationCode": "C", "categoryCode": "21", "address": "113-100 PARK ROYAL SOUTH", "city": "WEST VANCOUVER", "province": "BC", "country": "CA", "postalCode": "V7T1A2", "twitter": "None", "instagram": "None", "facebook": "None", "youtube": "None", "website": "None", "summary": "None", "logo": "None"}, "101835148RR0001": {"name": "FONDATION CENTRE DE SANT\u00c9 SAINTE-FAMILLE INC.", "designationCode": "A", "categoryCode": "19", "address": "22 NOTRE-DAME NORD", "city": "VILLE-MARIE", "province": "QC", "country": "CA", "postalCode": "J9V1W8", "twitter": "None", "instagram": "None", "facebook": "None", "youtube": "None", "website": "None", "summary": "None", "logo": "None"}, "888573334RR0001": {"name": "FONDATION MUS\u00c9E MILITAIRE BAIE DES CHALEURS/BAY CHALEUR MILITARY MUSEUM", "designationCode": "A", "categoryCode": "53", "address": "351 A PERRON BLVD WEST", "city": "NEW RICHMOND", "province": "QC", "country": "CA", "postalCode": "G0C2B0", "twitter": "None", "instagram": "None", "facebook": "None", "youtube": "None", "website": "None", "summary": "None", "logo": "None"}, "837759976RR0001": {"name": "FONDATION YEMBA CANADA", "designationCode": "C", "categoryCode": "09", "address": "C.P. 1193 MONTR\u00c9AL DESJARDINS", "city": "MONTREAL", "province": "QC", "country": "CA", "postalCode": "H5B1C3", "twitter": "None", "instagram": "None", "facebook": "None", "youtube": "None", "website": "None", "summary": "None", "logo": "None", "latitude": 45.507364, "longitude": -73.5634097}, "854392222RR0001": {"name": "Good Shepherd Lutheran Christian Day Care", "designationCode": "C", "categoryCode": "01", "address": "11 CONCESSION 3 NORTH         RURAL ROUTE #4", "city": "AMHERSTBURG", "province": "ON", "country": "CA", "postalCode": "N9V2Y9", "twitter": "None", "instagram": "None", "facebook": "None", "youtube": "None", "website": "None", "summary": "None", "logo": "None"}, "778430124RR0001": {"name": "Guzun Ch'ah \"Good Way\"", "designationCode": "C", "categoryCode": "21", "address": "PO BOX 168 HWY 20", "city": "ALEXIS CREEK", "province": "BC", "country": "CA", "postalCode": "V0L1A0", "twitter": "None", "instagram": "None", "facebook": "None", "youtube": "None", "website": "None", "summary": "None", "logo": "None", "latitude": 52.0848612, "longitude": -123.3592548}, "866502529RR0001": {"name": "HAY RIVER COMMUNITY HEALTH BOARD FOUNDATION", "designationCode": "A", "categoryCode": "03", "address": "37911 MACKENZIE HWY", "city": "HAY RIVER", "province": "NT", "country": "CA", "postalCode": "X0E0R6", "twitter": "None", "instagram": "None", "facebook": "None", "youtube": "None", "website": "None", "summary": "None", "logo": "None", "latitude": 61.14445809999999, "longitude": -119.0539289}, "890693021RR0001": {"name": "HAY RIVER HEALTH AND SOCIAL SERVICES AUTHORITY", "designationCode": "C", "categoryCode": "19", "address": "37911 MACKENZIE HWY", "city": "HAY RIVER", "province": "NT", "country": "CA", "postalCode": "X0E0R6", "twitter": "None", "instagram": "None", "facebook": "None", "youtube": "None", "website": "None", "summary": "None", "logo": "None"}, "125707323RR0001": {"name": "HOCKEY MINISTRIES INTERNATIONAL - MINIST\u00c8RES DE HOCKEY INTERNATIONAUX", "designationCode": "C", "categoryCode": "56", "address": "BOX 7, WINDSOR STN, SUITE 253 1100 DES CANADIENS DE MONTREAL", "city": "MONTREAL", "province": "QC", "country": "CA", "postalCode": "H3B2S2", "twitter": "None", "instagram": "None", "facebook": "None", "youtube": "None", "website": "None", "summary": "None", "logo": "None", "latitude": 0, "longitude": 0}, "118961838RR0001": {"name": "HOLY TRINITY ROMANIAN ORTHODOX PARISH SOCIETY", "designationCode": "C", "categoryCode": "39", "address": "210 ST. JAMES RD E", "city": "NORTH VANCOUVER", "province": "BC", "country": "CA", "postalCode": "V7N1L2", "twitter": "None", "instagram": "None", "facebook": "None", "youtube": "None", "website": "None", "summary": "None", "logo": "None", "latitude": 49.33931949999999, "longitude": -123.0680817}, "850957614RR0001": {"name": "INTERNATIONAL CENTRAL GOSPEL CHURCH - EDMONTON", "designationCode": "C", "categoryCode": "39", "address": "P.O. BOX 60026, UNIVERSITY OF ALBERTA POSTAL OUTLET", "city": "EDMONTON", "province": "AB", "country": "CA", "postalCode": "T6G2S4", "twitter": "None", "instagram": "None", "facebook": "None", "youtube": "None", "website": "None", "summary": "None", "logo": "None", "latitude": 53.525262, "longitude": -113.527199}, "144888120RR0001": {"name": "Les R\u00e9sidences Sainte-Famille de Tring-Jonction", "designationCode": "C", "categoryCode": "09", "address": "309 RUE DE LA SALLE", "city": "TRING-JONCTION", "province": "QC", "country": "CA", "postalCode": "G0N1X0", "twitter": "None", "instagram": "None", "facebook": "None", "youtube": "None", "website": "None", "summary": "None", "logo": "None"}, "118907245RR0001": {"name": "LA FABRIQUE DE LA PAROISSE DE SAINT-OCTAVE-DE-METIS", "designationCode": "C", "categoryCode": "38", "address": "201 DE L'EGLISE, C.P.9", "city": "ST-OCTAVE-DE-METIS", "province": "QC", "country": "CA", "postalCode": "G0J3B0", "twitter": "None", "instagram": "None", "facebook": "None", "youtube": "None", "website": "None", "summary": "None", "logo": "None", "latitude": 48.6008647, "longitude": -68.0799392}, "890381049RR0001": {"name": "LABRADOR WEST MINISTERIAL ASSOCIATION", "designationCode": "C", "categoryCode": "47", "address": "PO BOX 256", "city": "LABRADOR CITY", "province": "NL", "country": "CA", "postalCode": "A2V2K6", "twitter": "None", "instagram": "None", "facebook": "None", "youtube": "None", "website": "None", "summary": "None", "logo": "None"}, "880896428RR0001": {"name": "LABRADOR WEST YOUNG PEOPLE'S ASSOCIATION INCORPORATED", "designationCode": "C", "categoryCode": "09", "address": "P O BOX 339", "city": "LABRADOR CITY", "province": "NL", "country": "CA", "postalCode": "A2V2K6", "twitter": "None", "instagram": "None", "facebook": "None", "youtube": "None", "website": "None", "summary": "None", "logo": "None", "latitude": 52.9487101, "longitude": -66.9243358}, "103080305RR0001": {"name": "LES AUXILIAIRES BENEVOLES DU CENTRE DE SANTE SAINTE-FAMILLE", "designationCode": "C", "categoryCode": "19", "address": "22 NOTRE-DAME NORD", "city": "VILLE-MARIE", "province": "QC", "country": "CA", "postalCode": "J9V1W8", "twitter": "None", "instagram": "None", "facebook": "None", "youtube": "None", "website": "None", "summary": "None", "logo": "None"}, "131579781RR0001": {"name": "LOWER WOOD HARBOUR UNITED BAPTIST CHURCH,", "designationCode": "C", "categoryCode": "31", "address": "P. O. BOX 122", "city": "WOOD'S HARBOUR", "province": "NS", "country": "CA", "postalCode": "B0W2E0", "twitter": "None", "instagram": "None", "facebook": "None", "youtube": "None", "website": "None", "summary": "None", "logo": "None", "latitude": 43.5430386, "longitude": -65.8015059}, "814537882RR0001": {"name": "Merit Award Bursary Program Incorporated", "designationCode": "C", "categoryCode": "21", "address": "2400-333 BAY ST               PO BOX 20-BAY ADELAIDE CENTRE", "city": "TORONTO", "province": "ON", "country": "CA", "postalCode": "M5H2T6", "twitter": "None", "instagram": "None", "facebook": "None", "youtube": "None", "website": "None", "summary": "None", "logo": "None", "latitude": 43.6503406, "longitude": -79.38052069999999}, "119029510RR0001": {"name": "MAKKOVIK MORAVIAN CHURCH", "designationCode": "C", "categoryCode": "39", "address": "P.O. BOX 45", "city": "LABRADOR", "province": "NL", "country": "CA", "postalCode": "A0P1J0", "twitter": "None", "instagram": "None", "facebook": "None", "youtube": "None", "website": "None", "summary": "None", "logo": "None", "latitude": 52.77152719999999, "longitude": -56.1192589}, "868273087RR0001": {"name": "MCCARTHY TETRAULT FOUNDATION FONDATION MCCARTHY TETRAULT", "designationCode": "B", "categoryCode": "03", "address": "BOX 48, STE 5300, TD BANK TWR TORONTO DOMINION BANK TOWER", "city": "TORONTO", "province": "ON", "country": "CA", "postalCode": "M5K1E6", "twitter": "None", "instagram": "None", "facebook": "None", "youtube": "None", "website": "None", "summary": "None", "logo": "None", "latitude": 43.6474273, "longitude": -79.3810513}, "119047124RR0001": {"name": "MOUNTAIN VIEW BAPTIST CHURCH (OF GOULAIS RIVER)", "designationCode": "C", "categoryCode": "31", "address": "195 OLD HIGHWAY 17 NORTH", "city": "GOULAIS RIVER", "province": "ON", "country": "CA", "postalCode": "P0S1E0", "twitter": "None", "instagram": "None", "facebook": "None", "youtube": "None", "website": "None", "summary": "None", "logo": "None"}, "866558430RR0001": {"name": "NIPISSING COMMUNITY ACCESS PROGRAM SITE NETWORK", "designationCode": "C", "categoryCode": "59", "address": "WEST NIPISSING PUBLIC LIBRARY 225 HOLDITCH ST, SUITE 107", "city": "STURGEON FALLS", "province": "ON", "country": "CA", "postalCode": "P2B1T1", "twitter": "None", "instagram": "None", "facebook": "None", "youtube": "None", "website": "None", "summary": "None", "logo": "None", "latitude": 46.366407, "longitude": -79.93125069999999}, "119065936RR0001": {"name": "OKALAKATIGET SOCIETY", "designationCode": "C", "categoryCode": "59", "address": "BOX 160", "city": "LABRADOR", "province": "NL", "country": "CA", "postalCode": "A0P1L0", "twitter": "None", "instagram": "None", "facebook": "None", "youtube": "None", "website": "None", "summary": "None", "logo": "None"}, "131106098RR0016": {"name": "OUR LADY OF PERPETUAL HELP PARISH", "designationCode": "C", "categoryCode": "38", "address": "P.O. BOX 310", "city": "LABRADOR CITY", "province": "NL", "country": "CA", "postalCode": "A2V2K6", "twitter": "None", "instagram": "None", "facebook": "None", "youtube": "None", "website": "None", "summary": "None", "logo": "None"}, "131106098RR0011": {"name": "OUR LADY OF THE ASSUMPTION PARISH", "designationCode": "C", "categoryCode": "38", "address": "P.O. BOX 250", "city": "WABUSH LABRADOR", "province": "NL", "country": "CA", "postalCode": "A0R1B0", "twitter": "None", "instagram": "None", "facebook": "None", "youtube": "None", "website": "None", "summary": "None", "logo": "None"}, "859363798RR0001": {"name": "Persian Dreams and Canine Themes Rescue Society", "designationCode": "C", "categoryCode": "54", "address": "PO BOX 23134                  RPO MEDCINE HAT MAL", "city": "MEDICINE HAT", "province": "AB", "country": "CA", "postalCode": "T1B4C7", "twitter": "None", "instagram": "None", "facebook": "None", "youtube": "None", "website": "None", "summary": "None", "logo": "None", "latitude": 0, "longitude": 0}, "863278248RR0001": {"name": "Port Moody Korean Presbyterian Church", "designationCode": "C", "categoryCode": "39", "address": "2208 ST. JOHN'S STREET", "city": "PORT MOODY", "province": "BC", "country": "CA", "postalCode": "V3H2A7", "twitter": "None", "instagram": "None", "facebook": "None", "youtube": "None", "website": "None", "summary": "None", "logo": "None", "latitude": 49.27695019999999, "longitude": -122.8634264}, "128883212RR0001": {"name": "PAROISSE NOTRE DAME DU ROSAIRE,", "designationCode": "C", "categoryCode": "38", "address": "18 NOTRE-DAME NORD", "city": "VILLE-MARIE", "province": "QC", "country": "CA", "postalCode": "J9V1W7", "twitter": "None", "instagram": "None", "facebook": "None", "youtube": "None", "website": "None", "summary": "None", "logo": "None", "latitude": 47.33206999999999, "longitude": -79.443941}, "802869552RR0001": {"name": "Revival Christian Fellowship (Ottawa)", "designationCode": "C", "categoryCode": "39", "address": "163 BELL ST N, PO BOX 57033   SOMERSET WEST PO", "city": "OTTAWA", "province": "ON", "country": "CA", "postalCode": "K1R7E1", "twitter": "None", "instagram": "None", "facebook": "None", "youtube": "None", "website": "None", "summary": "None", "logo": "None"}, "100306182RR0001": {"name": "Soci\u00e9t\u00e9 canadienne de la scl\u00e9rose en plaques, Section Laval", "designationCode": "C", "categoryCode": "59", "address": "387 BOULEVARD DES PRAIRIES    BUR. 210A", "city": "LAVAL DES RAPIDES", "province": "QC", "country": "CA", "postalCode": "H7N2W4", "twitter": "None", "instagram": "None", "facebook": "None", "youtube": "None", "website": "None", "summary": "None", "logo": "None", "latitude": 0, "longitude": 0}, "744195520RR0001": {"name": "Southern Stl'atl'imx Charitable Society", "designationCode": "C", "categoryCode": "09", "address": "200-100 PARK ROYAL S", "city": "WEST VANCOUVER", "province": "BC", "country": "CA", "postalCode": "V7T1A2", "twitter": "None", "instagram": "None", "facebook": "None", "youtube": "None", "website": "None", "summary": "None", "logo": "None"}, "119186740RR0002": {"name": "ST MARK'S BY THE LAKE", "designationCode": "C", "categoryCode": "30", "address": "150 ST MARKS RD", "city": "ST CLAIR BEACH", "province": "ON", "country": "CA", "postalCode": "N8N2H4", "twitter": "None", "instagram": "None", "facebook": "None", "youtube": "None", "website": "None", "summary": "None", "logo": "None", "latitude": 42.32159, "longitude": -82.85698819999999}, "119110443RR0016": {"name": "ST. FRANCIS DE SALES PARISH", "designationCode": "C", "categoryCode": "38", "address": "17 ELMSLEY ST N BOX 1153", "city": "SMITH FALLS", "province": "ON", "country": "CA", "postalCode": "K7A5B4", "twitter": "None", "instagram": "None", "facebook": "None", "youtube": "None", "website": "None", "summary": "None", "logo": "None"}, "852047497RR0001": {"name": "ST. PAUL BETHEL FAMILY WORSHIP CENTRE ASSEMBLY", "designationCode": "C", "categoryCode": "36", "address": "BOX 441                       1 KM EAST OF ST PAUL", "city": "ST. PAUL", "province": "AB", "country": "CA", "postalCode": "T0A3A0", "twitter": "None", "instagram": "None", "facebook": "None", "youtube": "None", "website": "None", "summary": "None", "logo": "None"}, "835806936RR0001": {"name": "The Heart Research Institute (CAN)", "designationCode": "C", "categoryCode": "11", "address": "11 KING ST W, STE 700, BOX 27 COLLINS BARROW TORONTO LLP", "city": "TORONTO", "province": "ON", "country": "CA", "postalCode": "M5H4C7", "twitter": "None", "instagram": "None", "facebook": "None", "youtube": "None", "website": "None", "summary": "None", "logo": "None", "latitude": 43.6488692, "longitude": -79.3785132}, "119242980RR0001": {"name": "THE LOYAL EDMONTON REGIMENT MUSEUM FOUNDATION", "designationCode": "C", "categoryCode": "50", "address": "118 PRINCE OF WALES ARMOURY   10440 108 AVE", "city": "EDMONTON PARK", "province": "AB", "country": "CA", "postalCode": "T5H3Z9", "twitter": "None", "instagram": "None", "facebook": "None", "youtube": "None", "website": "None", "summary": "None", "logo": "None"}, "119110385RR0063": {"name": "THE ROMAN CATHOLIC EPISCOPAL CORPORATION OF PEMBROKE, ST. CASIMIR'S PARISH", "designationCode": "C", "categoryCode": "38", "address": "2642 ROUND LAKE ROAD", "city": "ROUND LAKE CENTRE", "province": "ON", "country": "CA", "postalCode": "K0J2J0", "twitter": "None", "instagram": "None", "facebook": "None", "youtube": "None", "website": "None", "summary": "None", "logo": "None", "latitude": 45.6139874, "longitude": -77.52963989999999}, "107951618RR0444": {"name": "THE SALVATION ARMY LABRADOR CITY/WABUSH CORPS", "designationCode": "C", "categoryCode": "40", "address": "PO BOX 369", "city": "LABRADOR CITY", "province": "NL", "country": "CA", "postalCode": "A2V2K6", "twitter": "None", "instagram": "None", "facebook": "None", "youtube": "None", "website": "None", "summary": "None", "logo": "None", "latitude": 52.9487101, "longitude": -66.9243358}, "827895368RR0001": {"name": "Urban Spirit Foundation", "designationCode": "C", "categoryCode": "59", "address": "108-100 PARK ROYAL", "city": "WEST VANCOUVER", "province": "BC", "country": "CA", "postalCode": "V7T1A2", "twitter": "None", "instagram": "None", "facebook": "None", "youtube": "None", "website": "None", "summary": "None", "logo": "None", "latitude": 49.3252158, "longitude": -123.1337804}, "869724146RR0001": {"name": "VALLEY ADULT LEARNING ASSOCIATION", "designationCode": "C", "categoryCode": "21", "address": "241 C SECOND STREET EAST", "city": "FORT FRANCES", "province": "ON", "country": "CA", "postalCode": "P9A1M7", "twitter": "None", "instagram": "None", "facebook": "None", "youtube": "None", "website": "None", "summary": "None", "logo": "None", "latitude": 48.6114251, "longitude": -93.39757759999999}, "835742610RR0001": {"name": "West Chilcotin Search and Rescue Society", "designationCode": "C", "categoryCode": "59", "address": "BOX 76                        16665 HIGHWAY 20", "city": "TATLA LAKE", "province": "BC", "country": "CA", "postalCode": "V0L1V0", "twitter": "None", "instagram": "None", "facebook": "None", "youtube": "None", "website": "None", "summary": "None", "logo": "None"}, "130387665RR0064": {"name": "142 SQUADRON, ROYAL CANADIAN AIR CADETS", "designationCode": "C", "categoryCode": "29", "address": "FORT YORK ARMOURY             660 FLEET ST. ROOM 104", "city": "TORONTO", "province": "ON", "country": "CA", "postalCode": "M5V1A9", "twitter": "None", "instagram": "None", "facebook": "None", "youtube": "None", "website": "None", "summary": "None", "logo": "None", "latitude": 43.6368808, "longitude": -79.40801019999999}}